district,type,address,land_size,purpose,date,pen,level,floor_num,build_state,use,material,complete_yr,total_size,room,hall,health,compartmented,manage,furniture,PRICE,unit_PRICE,berth,berth_size,berth_price,note,serial_num,lat,lng
內湖區,房地(土地+建物),臺北市內湖區瑞光路316巷31~60號,83.32,工,1040402,土地1建物1車位0,二層,8.0,辦公商業大樓,見其他登記事項,鋼筋混凝土造,1010418.0,433.23,0,0,0,無,有,無,108000,249.0,,0.0,0,,RPTNMLLJNHKFFCA57CC,25.0754751,121.5733367
內湖區,建物,臺北市內湖區安泰街65巷1~30號,0.0,住,1040403,土地0建物0車位0,四層,5.0,公寓(5樓含以下無電梯),住家用,鋼筋混凝土造,690818.0,20.69,1,0,1,有,無,有,9500,459.0,,0.0,0,,RPROMLLJNHKFFCA47CC,25.0749819,121.6169136
中山區,建物,臺北市中山區南京東路二段181~210號,0.0,商,1040428,土地0建物1車位1,十三層,14.0,辦公商業大樓,商業用,鋼筋混凝土造,700817.0,174.7,4,1,0,有,有,無,67835,388.0,坡道平面,39.53,0,含兩個門牌，車位部分承租.公設面積依委託書輸入,RPSOMLLJNHKFFCA57CC,25.0519418,121.5351411
中山區,建物,臺北市中山區南京東路二段181~210號,0.0,商,1040428,土地0建物1車位0,十三層,14.0,辦公商業大樓,商業用,鋼筋混凝土造,700817.0,115.07,2,1,0,有,有,無,52200,454.0,,0.0,0,,RPTOMLLJNHKFFCA67CC,25.0519418,121.5351411
中山區,建物,臺北市中山區吉林路447巷1~30號,0.0,商,1040402,土地0建物1車位0,一層,7.0,店面(店鋪),商業用,鋼筋混凝土造,751126.0,55.92,0,0,0,無,無,無,15000,268.0,,0.0,0,,RPUOMLLJNHKFFCA77CC,25.0674054,121.5307715
大同區,車位,臺北市大同區承德路一段1~30號,9.27,其他,1040405,土地0建物0車位1,,0.0,其他,見其他登記事項,見其他登記事項,980724.0,49.62000000000001,0,0,0,有,有,無,3000,,坡道平面,15.51,3000,,RPRNMLLJNHKFFBA27CC,25.049308,121.5171935
大同區,建物,臺北市大同區市民大道一段181~210號,9.27,其他,1040423,土地0建物1車位0,十七層,18.0,住宅大樓(11層含以上有電梯),住家用,見其他登記事項,980724.0,46.28,0,0,1,有,有,有,28000,605.0,,0.0,0,租金含稅,RPTNMLLJNHKFFBA47CC,25.048493,121.5187377
萬華區,房地(土地+建物),臺北市萬華區漢中街1~30號,108.0,商,1040416,土地1建物1車位0,全,5.0,透天厝,住家用,鋼筋混凝土造,,465.7,0,0,0,無,無,無,630000,1353.0,,0.0,0,,RPOOMLLJNHKFFBA07CC,25.045002,121.507738
中正區,建物,臺北市中正區館前路1~30號,0.0,商,1040410,土地0建物1車位0,四層,11.0,住宅大樓(11層含以上有電梯),商業用,鋼筋混凝土造,611113.0,358.7,0,0,0,無,無,無,138000,385.0,,0.0,0,,RPQNMLMJNHKFFBA27CC,25.0454002,121.5151724
信義區,建物,臺北市信義區松勇路1~30號,0.0,住,1040413,土地0建物1車位2,二層,12.0,住宅大樓(11層含以上有電梯),住家用,鋼筋混凝土造,910204.0,436.69,3,2,4,有,有,有,241500,553.0,坡道平面,0.0,0,,RPPNMLMJNHKFFDA37CC,25.039164,121.5698055
信義區,建物,臺北市信義區仁愛路四段511~540號,0.0,,1040411,土地0建物1車位0,一層,11.0,店面(店鋪),見其他登記事項,鋼骨鋼筋混凝土造,950124.0,176.82,0,0,0,無,無,有,130000,735.0,,0.0,0,,RPQNMLMJNHKFFDA47CC,25.0374729,121.5611808
信義區,建物,臺北市信義區忠孝東路五段236巷31~60號,0.0,,1040425,土地0建物1車位0,六層,11.0,住宅大樓(11層含以上有電梯),住家用,鋼筋混凝土造,860610.0,40.14,1,1,1,有,無,無,30000,747.0,,0.0,0,,RPSNMLMJNHKFFDA67CC,25.03841,121.5719779
中山區,房地(土地+建物),臺北市中山區錦州街1~30號,6.32,住,1040428,土地1建物1車位0,六層,9.0,華廈(10層含以下有電梯),住家用,鋼筋混凝土造,780826.0,52.8,1,1,1,有,有,有,20000,379.0,,0.0,0,,RPPNMLMJNHKFFCA27CC,25.0604349,121.5238947
內湖區,房地(土地+建物)+車位,臺北市內湖區成功路五段451~480號,105.69,住,1040501,土地4建物1車位2,十四層,16.0,辦公商業大樓,商業用,鋼筋混凝土造,900117.0,460.53,0,0,0,無,無,無,140000,304.0,坡道平面,69.58,0,,RPSNMLMJNHKFFCA57CC,25.0747633,121.6069562
文山區,建物,臺北市文山區木柵路三段61~90號,0.0,其他,1040413,土地0建物1車位0,一層,26.0,店面(店鋪),見其他登記事項,鋼筋混凝土造,1030609.0,100.79,0,0,0,無,無,無,74000,734.0,,0.0,0,,RPPNMLMJNHKFFAA07CC,24.988671,121.566492
中山區,建物,臺北市中山區中山北路二段121~150號,0.0,商,1040417,土地0建物1車位0,二層,14.0,住宅大樓(11層含以上有電梯),商業用,鋼骨鋼筋混凝土造,930319.0,444.5,0,1,0,有,無,無,250000,562.0,,0.0,0,,RPQOMLNJNHKFFCA57CC,25.0612094,121.5231156
內湖區,建物,臺北市內湖區新湖一路61~90號,0.0,工,1040427,土地0建物1車位0,二層,7.0,廠辦,見其他登記事項,鋼筋混凝土造,1010626.0,267.5,0,0,0,無,有,無,64736,242.0,,0.0,0,,RPUPMLOJNHKFFCA18CC,25.0582581,121.5750636
中山區,建物,臺北市中山區農安街1~30號,0.0,商,1040420,土地0建物1車位0,十層,14.0,套房(1房1廳1衛),商業用,鋼筋混凝土造,980622.0,51.89,1,1,1,有,無,有,37500,723.0,,0.0,0,,RPOQMLOJNHKFFCA67CC,25.065211,121.5293055
內湖區,建物,臺北市內湖區內湖路二段355巷7弄1~30號,0.0,商,1040420,土地0建物1車位0,一層,4.0,店面(店鋪),商業用,鋼筋混凝土造,680310.0,120.25,2,1,1,有,無,無,37778,314.0,,0.0,0,,RPPQMLOJNHKFFCA77CC,25.0831352,121.5905507
中山區,建物,臺北市中山區中山北路二段77巷1~30號,0.0,商,1040420,土地0建物1車位0,十層,14.0,住宅大樓(11層含以上有電梯),商業用,鋼筋混凝土造,901112.0,69.84,3,1,1,有,有,有,38000,544.0,,0.0,0,,RPQQMLOJNHKFFCA87CC,25.0576603,121.5230347
信義區,建物,臺北市信義區忠孝東路五段31~60號,0.0,住,1040501,土地0建物1車位0,四層,12.0,住宅大樓(11層含以上有電梯),見其他登記事項,鋼筋混凝土造,720406.0,133.81,3,2,2,有,有,有,32000,239.0,,0.0,0,,RPUNMLOJNHKFFDA08CC,25.0412694,121.5659135
信義區,建物,臺北市信義區吳興街345巷1~30號,0.0,住,1040504,土地0建物1車位0,一層,4.0,公寓(5樓含以下無電梯),住家用,鋼筋混凝土造,610628.0,65.61,0,0,0,無,無,無,19620,299.0,,0.0,0,,RPROMLOJNHKFFDA87CC,25.0266625,121.5658683
信義區,建物,臺北市信義區松德路91~120號,0.0,住,1040410,土地0建物1車位1,十八層,23.0,住宅大樓(11層含以上有電梯),住家用,鋼骨鋼筋混凝土造,831021.0,164.43,4,2,2,有,有,無,52000,316.0,坡道平面,33.79,0,,RPQPMLOJNHKFFDA87CC,25.0382643,121.5760933
信義區,建物,臺北市信義區永吉路30巷121~150號,0.0,住,1040430,土地0建物1車位0,三層,7.0,華廈(10層含以下有電梯),住家用,鋼筋混凝土造,961231.0,113.5,2,1,1,有,有,有,37000,326.0,,0.0,0,,RPVPMLOJNHKFFDA38CC,25.0429464,121.5688672
松山區,建物,臺北市松山區延吉街31~60號,0.0,住,1040430,土地0建物1車位0,一層,5.0,店面(店鋪),見使用執照,鋼筋混凝土造,691124.0,152.34,1,0,1,有,無,有,80000,525.0,,0.0,0,,RPWPMLOJNHKFFDA48CC,25.0458434,121.5537132
士林區,房地(土地+建物),臺北市士林區士東路120巷22弄1~30號,45.86,住,1040504,土地1建物1車位0,一層,5.0,公寓(5樓含以下無電梯),住家用,鋼筋混凝土造,730629.0,253.06,3,3,2,有,無,無,65000,257.0,,0.0,0,,RPWNMLOJNHKFFEA38CC,25.1111686,121.5295953
文山區,建物,臺北市文山區福興路106巷28弄1~30號,0.0,住,1040430,土地0建物1車位0,十層,13.0,住宅大樓(11層含以上有電梯),住家用,鋼筋混凝土造,981202.0,73.66,2,1,1,有,有,有,23000,312.0,,0.0,0,,RPRNMLOJNHKFFAA47CC,25.0063939,121.5500451
大安區,建物,臺北市大安區金山南路二段10巷1~30號,0.0,住,1040328,土地0建物1車位0,四層,7.0,華廈(10層含以下有電梯),住家用,鋼筋混凝土造,1010806.0,87.27,2,1,1,有,無,有,40000,458.0,,0.0,0,,RPSNMLOJNHKFFFA08CC,25.0336971,121.526898
大安區,建物,臺北市大安區大安路一段61~90號,0.0,住,1040421,土地0建物1車位0,三層,7.0,華廈(10層含以下有電梯),住家用,鋼筋混凝土造,,98.85,2,2,1,有,無,有,34090,345.0,,0.0,0,,RPTNMLOJNHKFFFA18CC,25.0427889,121.5463133
大安區,建物,臺北市大安區敦化南路一段160巷1~30號,0.0,其他,1040430,土地0建物1車位0,一層,4.0,店面(店鋪),,加強磚造,,94.11,1,0,1,有,無,無,140000,1488.0,,0.0,0,,RPXNMLOJNHKFFFA58CC,25.0436722,121.5473143
大安區,建物,臺北市大安區敦化南路二段81巷1~30號,0.0,其他,1040427,土地0建物1車位4,十一層,16.0,住宅大樓(11層含以上有電梯),住家用,見其他登記事項,1001124.0,629.25,4,2,4,有,有,有,300000,477.0,坡道平面,145.28,0,,RPOOMLOJNHKFFFA77CC,25.0300031,121.5493428
大安區,建物,臺北市大安區建國南路一段175巷1~30號,0.0,商,1040407,土地0建物1車位0,四層,14.0,住宅大樓(11層含以上有電梯),國民住宅,鋼筋混凝土造,760423.0,89.5,3,1,1,有,有,有,27000,302.0,,0.0,0,,RPPOMLPJNHKFFFA97CC,25.040936,121.5380885
大安區,建物,臺北市大安區敦化南路一段181~210號,0.0,商,1040307,土地0建物1車位0,十二層,14.0,辦公商業大樓,商業用,鋼筋混凝土造,731029.0,151.4,3,0,0,有,無,無,110000,727.0,,0.0,0,,RPQOMLPJNHKFFFA08CC,25.042916,121.5494161
中正區,建物,臺北市中正區愛國西路1~30號,0.0,住,1040414,土地0建物1車位4,十二層,23.0,住宅大樓(11層含以上有電梯),住家用,鋼骨鋼筋混凝土造,990708.0,660.9100000000002,3,2,5,有,有,有,261680,396.0,坡道平面,152.28,0,租金含稅及二代健保補充保費,RPQOMLPJNHKFFAA57CC,25.0356043,121.5142953
中正區,房地(土地+建物),臺北市中正區南昌路一段121~150號,22.69,商,1040503,土地1建物1車位0,四層,10.0,華廈(10層含以下有電梯),見使用執照,鋼筋混凝土造,780814.0,177.54,4,2,2,有,無,無,50000,282.0,,0.0,0,,RPSOMLPJNHKFFAA77CC,25.0299515,121.5183336
中正區,房地(土地+建物),臺北市中正區南昌路一段91~120號,3.07,商,1040425,土地1建物1車位0,四層,15.0,住宅大樓(11層含以上有電梯),住家用,鋼筋混凝土造,980403.0,41.9,1,1,1,有,有,無,18000,430.0,,0.0,0,,RPTOMLPJNHKFFAA87CC,25.0304139,121.517966
中正區,房地(土地+建物),臺北市中正區南昌路一段24巷1~30號,9.21,住,1040428,土地1建物1車位0,七層,7.0,華廈(10層含以下有電梯),住家用,鋼筋混凝土造,970509.0,45.22,1,1,1,有,有,有,18000,398.0,,0.0,0,,RPUOMLPJNHKFFAA97CC,25.0318759,121.5159895
中正區,房地(土地+建物),臺北市中正區愛國東路31~60號,19.2,住,1040501,土地1建物1車位0,四層,5.0,公寓(5樓含以下無電梯),住家用,鋼筋混凝土造,650921.0,73.1,3,1,1,有,無,無,21000,287.0,,0.0,0,,RPWOMLPJNHKFFAA18CC,25.0331839,121.5190329
大同區,建物,臺北市大同區市民大道一段181~210號,0.0,其他,1040501,土地0建物1車位0,十六層,18.0,住宅大樓(11層含以上有電梯),住家用,見其他登記事項,980724.0,100.47,2,1,1,有,有,有,60000,597.0,,0.0,0,,RPXNMLPJNHKFFBA28CC,25.048493,121.5187377
信義區,房地(土地+建物),臺北市信義區吳興街284巷24弄1~30號,48.33,住,1040504,土地1建物1車位0,一層,5.0,公寓(5樓含以下無電梯),商業用,鋼筋混凝土造,760824.0,57.71,0,0,0,無,無,無,50000,866.0,,0.0,0,,RPXNMLPJNHKFFDA48CC,25.0244017,121.5634252
信義區,建物,臺北市信義區忠孝東路五段451~480號,0.0,其他,1040415,土地0建物1車位0,五層,11.0,住宅大樓(11層含以上有電梯),見其他登記事項,鋼筋混凝土造,941006.0,44.69,1,1,2,有,有,有,25000,559.0,,0.0,0,,RPQOMLPJNHKFFDA87CC,25.0411038,121.5762524
松山區,建物,臺北市松山區八德路四段181巷16弄1~30號,0.0,住,1040501,土地0建物1車位0,三層,4.0,公寓(5樓含以下無電梯),工業用,鋼筋混凝土造,620813.0,109.18,4,0,1,有,無,有,22727,208.0,,0.0,0,,RPROMLPJNHKFFDA97CC,25.0493798,121.5632825
南港區,房地(土地+建物),臺北市南港區南港路一段181~210號,149.0,住,1040504,土地1建物1車位0,全,2.0,透天厝,住家用,見其他登記事項,,185.47,0,0,0,無,無,無,43000,232.0,,0.0,0,,RPTOMLPJNHKFFDA18CC,25.0552371,121.6126573
松山區,建物,臺北市松山區敦化北路199巷1~30號,0.0,住,1040422,土地0建物1車位1,六層,12.0,住宅大樓(11層含以上有電梯),住家用,鋼筋混凝土造,830716.0,188.43,3,2,2,有,有,有,61000,324.0,坡道平面,0.0,0,,RPPPMLPJNHKFFDA87CC,25.0559119,121.550794
信義區,建物,臺北市信義區基隆路二段151~180號,0.0,商,1040430,土地0建物1車位0,三層,15.0,住宅大樓(11層含以上有電梯),住家用,鋼筋混凝土造,990901.0,130.91,2,1,1,有,有,有,59000,451.0,,0.0,0,,RPSPMLPJNHKFFDA18CC,25.0260187,121.5546122
松山區,建物,臺北市松山區富錦街429巷1~30號,0.0,住,1040416,土地0建物1車位0,見其他登記事項,7.0,華廈(10層含以下有電梯),見使用執照,鋼筋混凝土造,701219.0,260.66,0,0,0,無,無,無,70455,270.0,,0.0,0,"B1-1樓/租金第1-3年70455元,第4-5年72455元/地下層部分承租 公設無法分算",RPQQMLPJNHKFFDA08CC,25.0609474,121.5612123
松山區,建物,臺北市松山區南京東路三段331~360號,0.0,商,1040407,土地0建物1車位0,四層,12.0,辦公商業大樓,商業用,鋼筋混凝土造,670120.0,273.18,5,2,0,有,有,有,110000,403.0,,0.0,0,建物租金為含稅價，,RPSQMLPJNHKFFDA28CC,25.0520055,121.5473331
中山區,房地(土地+建物),臺北市中山區臺北市中山區民族東路271~300號,29.57,住,1040504,土地1建物1車位0,三層,5.0,公寓(5樓含以下無電梯),住家用,鋼筋混凝土造,740912.0,102.08,3,2,2,有,無,有,25000,245.0,,0.0,0,,RPRNMLPJNHKFFCA77CC,25.0678338,121.5358864
中山區,房地(土地+建物),臺北市中山區復興北路61~90號,333.0,商,1040418,土地1建物2車位0,十二層,12.0,辦公商業大樓,住家用,鋼筋混凝土造,700320.0,133.75,1,1,2,有,有,無,50000,374.0,,0.0,0,,RPUNMLPJNHKFFCA08CC,25.0661001,121.5415774
中山區,建物,臺北市中山區民權西路9巷1~30號,0.0,商,1040428,土地0建物1車位0,九層,14.0,住宅大樓(11層含以上有電梯),見其他登記事項,鋼筋混凝土造,1011112.0,64.72,1,1,1,有,有,有,40000,618.0,,0.0,0,,RPPPMLPJNHKFFCA77CC,25.0632923,121.5219717
中山區,建物,臺北市中山區南京東路二段181~210號,0.0,商,1040428,土地0建物1車位0,九層,15.0,住宅大樓(11層含以上有電梯),住家用,鋼筋混凝土造,990528.0,136.03,3,1,2,有,有,有,60000,441.0,,0.0,0,,RPQPMLPJNHKFFCA87CC,25.0519418,121.5351411
中山區,建物,臺北市中山區松江路25巷1~30號,0.0,住,1040429,土地0建物1車位0,四層,11.0,住宅大樓(11層含以上有電梯),住家用,鋼筋混凝土造,971118.0,30.700000000000006,1,1,1,有,有,有,15000,489.0,,0.0,0,,RPPQMLPJNHKFFCA87CC,25.0472178,121.5333921
內湖區,房地(土地+建物)+車位,臺北市內湖區瑞光路76巷1~30號,0.0,工,1040409,土地0建物1車位3,六層,6.0,廠辦,工業用,鋼筋混凝土造,880630.0,361.07000000000005,0,0,0,無,有,無,120000,332.0,坡道平面,0.0,0,,RPVQMLPJNHKFFCA48CC,25.0708467,121.5812938
中山區,建物,臺北市中山區松江區1~30號,0.0,商,1040407,土地0建物2車位0,十二層,12.0,辦公商業大樓,住家用,鋼筋混凝土造,741125.0,327.7800000000001,2,1,2,有,有,有,89253,272.0,,0.0,0,,RPWQMLPJNHKFFCA58CC,25.0456563,121.5329859
中山區,建物,臺北市中山區復興北路1~30號,11.69,商,1040211,土地0建物1車位0,五層,14.0,辦公商業大樓,商業用,鋼筋混凝土造,720903.0,96.32,1,0,0,無,有,無,45000,467.0,,0.0,0,,RPSNMLQJNHKFFCA97CC,25.0479767,121.5444731
中山區,建物,臺北市中山區林森北路331~360號,18.05,商,1040426,土地0建物1車位0,二十層,24.0,住宅大樓(11層含以上有電梯),住家用,見其他登記事項,1021101.0,236.78,3,2,2,有,有,有,121037,511.0,,0.0,0,,RPUNMLQJNHKFFCA18CC,25.056386,121.525667
中山區,建物,臺北市中山區中山北路二段93巷1~30號,5.78,商,1040413,土地0建物1車位0,九層,12.0,住宅大樓(11層含以上有電梯),商業用,鋼筋混凝土造,940803.0,42.62000000000001,1,1,1,有,有,有,32500,763.0,,0.0,0,,RPVNMLQJNHKFFCA28CC,25.0594195,121.5233012
中山區,建物,臺北市中山區新生北路二段31~60號,0.0,商,1040409,土地0建物1車位0,六層,17.0,住宅大樓(11層含以上有電梯),商業用,鋼筋混凝土造,850718.0,66.17,2,1,1,有,有,有,35000,529.0,,0.0,0,租金含稅、含二代健保。,RPXNMLQJNHKFFCA48CC,25.0542013,121.5278274
中山區,建物,臺北市中山區龍江路1~30號,12.51,商,1040328,土地0建物2車位0,十二層,12.0,住宅大樓(11層含以上有電梯),住家用,鋼筋混凝土造,941208.0,175.75,2,2,2,有,有,有,80000,455.0,,0.0,0,,RPOOMLQJNHKFFCA67CC,25.0470691,121.540523
中山區,建物,臺北市中山區新生北路三段1~30號,0.0,住,1040503,土地0建物1車位0,五層,12.0,住宅大樓(11層含以上有電梯),商業用,鋼筋混凝土造,950209.0,60.53,2,1,1,有,有,有,40000,661.0,,0.0,0,,RPQOMLQJNHKFFCA87CC,25.0628897,121.5281771
中山區,房地(土地+建物),臺北市中山區中山北路二段115巷31~60號,121.3,商,1040415,土地1建物1車位0,一層,8.0,店面(店鋪),商業用,鋼筋混凝土造,810229.0,78.47,0,1,1,有,無,有,35000,446.0,,0.0,0,,RPSOMLQJNHKFFCA08CC,25.0609967,121.5241841
中山區,建物,臺北市中山區南京東路三段48巷31~60號,0.0,住,1040428,土地0建物1車位0,六層,14.0,住宅大樓(11層含以上有電梯),住家用,鋼筋混凝土造,930330.0,181.9,3,1,2,有,有,有,60000,330.0,,0.0,0,,RPTOMLQJNHKFFCA18CC,25.0506792,121.5384738
中山區,房地(土地+建物),臺北市中山區中山北路二段115巷31~60號,36.25,商,1040415,土地1建物1車位0,一層,8.0,店面(店鋪),商業用,鋼筋混凝土造,810229.0,165.85,0,1,1,有,無,有,58000,350.0,,0.0,0,,RPUOMLQJNHKFFCA28CC,25.0609967,121.5241841
中山區,建物,臺北市中山區林森北路451~480號,4.56,商,1040319,土地0建物1車位0,十層,14.0,套房(1房1廳1衛),見其他登記事項,鋼筋混凝土造,981106.0,47.13,1,1,1,有,有,有,23000,488.0,,0.0,0,,RPVOMLQJNHKFFCA38CC,25.0605292,121.5257605
中山區,建物,臺北市中山區林森北路301~330號,0.0,商,1040410,土地0建物1車位0,十二層,15.0,住宅大樓(11層含以上有電梯),住家用,見其他登記事項,990409.0,76.7,1,1,1,有,有,有,38889,507.0,,0.0,0,租金含稅、含二代健保。,RPOPMLQJNHKFFCA77CC,25.055793,121.525628
中山區,建物,臺北市中山區新生北路二段68巷1~30號,5.56,商,1030128,土地0建物1車位0,九層,13.0,套房(1房1廳1衛),住家用,鋼筋混凝土造,971229.0,66.31,1,1,1,有,有,有,30000,452.0,,0.0,0,,RPQPMLQJNHKFFCA97CC,25.056545,121.5260897
內湖區,房地(土地+建物),臺北市內湖區洲子街181~210號,99.17,工,1040501,土地1建物1車位0,八層,8.0,廠辦,見其他登記事項,鋼筋混凝土造,930903.0,99.17,0,0,0,無,有,有,36000,363.0,,0.0,0,分租,RPSPMLQJNHKFFCA18CC,25.081569,121.5672351
中山區,建物,臺北市中山區龍江路120巷1~30號,0.0,住,1040410,土地0建物1車位0,十層,11.0,住宅大樓(11層含以上有電梯),商業用,鋼筋混凝土造,880524.0,109.46,3,2,2,有,有,無,40000,365.0,,0.0,0,,RPQQMLQJNHKFFCA08CC,25.053706,121.540307
中山區,房地(土地+建物),臺北市中山區德惠街1~30號,3.95,商,1040505,土地1建物1車位0,六層,12.0,住宅大樓(11層含以上有電梯),住家用,鋼筋混凝土造,930211.0,40.49,0,0,0,無,無,有,18000,445.0,,0.0,0,,RPRQMLQJNHKFFCA18CC,25.066913,121.5230068
中山區,建物,臺北市中山區南京東路二段91~120號,0.0,其他,1040409,土地0建物1車位1,六層,18.0,辦公商業大樓,住家用,見其他登記事項,990917.0,193.9,0,0,0,無,有,無,65000,335.0,坡道平面,38.52,0,,RPSQMLQJNHKFFCA28CC,25.0522884,121.5321795
中山區,建物,臺北市中山區吉林路161巷1~30號,0.0,住,1040408,土地0建物1車位0,三層,4.0,公寓(5樓含以下無電梯),,加強磚造,,82.6,3,2,1,有,無,有,20000,242.0,,0.0,0,,RPPRMLQJNHKFFCA08CC,25.0590134,121.530724
中山區,建物,臺北市中山區林森北路61~90號,0.0,商,1040506,土地0建物1車位2,十一層,14.0,住宅大樓(11層含以上有電梯),住家用,鋼筋混凝土造,961106.0,351.9,3,2,3,有,有,有,100000,284.0,坡道平面,25.74,0,,RPQRMLQJNHKFFCA18CC,25.061386,121.526919
中山區,建物,臺北市中山區一江街1~30號,0.0,住,1040506,土地0建物1車位0,三層,7.0,華廈(10層含以下有電梯),住家用,鋼筋混凝土造,701109.0,137.95000000000002,3,2,2,有,有,有,45000,326.0,,0.0,0,,RPRRMLQJNHKFFCA28CC,25.0507038,121.5315679
中山區,建物,臺北市中山區吉林路241~270號,0.0,商,1040408,土地0建物0車位0,四層,7.0,辦公商業大樓,商業用,鋼筋混凝土造,720204.0,22.61,1,0,0,有,無,有,10500,464.0,,0.0,0,,RPSRMLQJNHKFFCA38CC,25.0611653,121.5304091
中山區,建物,臺北市中山區錦州街241~270號,0.0,住,1040407,土地0建物0車位0,四層,4.0,公寓(5樓含以下無電梯),住家用,加強磚造,,17.65,1,0,1,有,無,有,9000,510.0,,0.0,0,,RPTRMLQJNHKFFCA48CC,25.0603308,121.5337591
信義區,建物,臺北市信義區松山路631~660號,0.0,住,1040410,土地0建物1車位0,一層,7.0,店面(店鋪),商業用,鋼筋混凝土造,780918.0,131.41,1,1,1,有,無,無,50000,380.0,,0.0,0,,RPQNMLQJNHKFFDA87CC,25.0312612,121.5802549
松山區,建物,臺北市松山區敦化北路199巷1~30號,0.0,住,1040409,土地0建物1車位0,三層,10.0,華廈(10層含以下有電梯),住家用,鋼筋混凝土造,830716.0,190.08,3,1,2,有,有,有,45000,237.0,,0.0,0,,RPVNMLQJNHKFFDA38CC,25.0559119,121.550794
松山區,建物,臺北市松山區民生東路四段80巷11弄1~30號,62.1,住,1040324,土地0建物1車位0,五層,7.0,華廈(10層含以下有電梯),住家用,鋼筋混凝土造,751016.0,153.44,3,1,2,有,無,有,51495,336.0,,0.0,0,,RPOOMLQJNHKFFDA77CC,25.0567186,121.5532063
松山區,房地(土地+建物)+車位,臺北市松山區復興北路1~30號,23.62,商,1040408,土地1建物1車位2,十五層,16.0,辦公商業大樓,,加強磚造,,292.2,0,0,0,無,有,無,123000,421.0,坡道平面,74.7,0,,RPTOMLQJNHKFFDA28CC,25.0479767,121.5444731
松山區,建物,臺北市松山區延吉街30巷1~30號,0.0,住,1040413,土地0建物1車位0,一層,7.0,華廈(10層含以下有電梯),商業用,鋼筋混凝土造,711227.0,147.95,0,0,0,無,無,無,77000,520.0,,0.0,0,,RPUOMLQJNHKFFDA38CC,25.0460123,121.5533159
松山區,房地(土地+建物)+車位,臺北市松山區復興北路1~30號,14.6,商,1040505,土地1建物1車位2,十六層,16.0,辦公商業大樓,商業用,鋼筋混凝土造,710707.0,180.37,0,0,0,無,有,無,63525,352.0,坡道平面,72.1,13650,,RPVOMLQJNHKFFDA48CC,25.0479767,121.5444731
松山區,建物,臺北市松山區敦化北路222巷1~30號,0.0,住,1040413,土地0建物1車位0,三層,7.0,華廈(10層含以下有電梯),住家用,鋼筋混凝土造,720104.0,130.33,4,2,2,有,有,無,38000,292.0,,0.0,0,,RPWOMLQJNHKFFDA58CC,25.0591259,121.548521
信義區,建物,臺北市信義區信義路五段121~150號,0.0,其他,1040408,土地0建物1車位1,十六層,19.0,住宅大樓(11層含以上有電梯),住家用,見其他登記事項,951229.0,124.66,2,1,1,有,有,有,64786,520.0,坡道平面,32.69,0,,RPOPMLQJNHKFFDA87CC,25.0336571,121.5738977
松山區,建物,臺北市松山區興安街181~210號,0.0,住,1040430,土地0建物1車位0,一層,7.0,華廈(10層含以下有電梯),住家用,鋼筋混凝土造,730801.0,139.09,0,0,0,無,無,無,100000,719.0,,0.0,0,,RPPPMLQJNHKFFDA97CC,25.0559593,121.5458676
松山區,建物,臺北市松山區民權東路三段160巷1~30號,8.6,住,1040101,土地0建物1車位0,五層,12.0,住宅大樓(11層含以上有電梯),國民住宅,鋼筋混凝土造,690801.0,37.03,1,1,1,有,有,有,18000,486.0,,0.0,0,,RPTPMLQJNHKFFDA38CC,25.0614749,121.5481016
松山區,建物,臺北市松山區民生東路五段91~120號,0.0,住,1040407,土地0建物1車位0,一層,7.0,店面(店鋪),商業用,鋼筋混凝土造,660214.0,185.35,0,0,0,無,有,無,220000,1187.0,,0.0,0,第1-3年每月租金22萬，第4-6年每月231000元，第7-9年每月242550元，第10-12年每月254678元,RPXPMLQJNHKFFDA78CC,25.0588203,121.5595615
松山區,建物,臺北市松山區復興北路141巷6弄1~30號,0.0,商,1040505,土地0建物1車位0,三層,8.0,華廈(10層含以下有電梯),住家用,鋼筋混凝土造,770201.0,172.63000000000005,4,2,2,有,有,有,51136,296.0,,0.0,0,,RPRQMLQJNHKFFDA28CC,25.0536288,121.544834
大同區,建物,臺北市大同區承德路三段241~270號,11.59,商,1040331,土地0建物1車位0,四層,12.0,住宅大樓(11層含以上有電梯),住家用,鋼筋混凝土造,1010918.0,198.41,3,1,2,有,有,有,67198,339.0,,0.0,0,,RPPNMLQJNHKFFBA57CC,25.071054,121.518774
中正區,建物,臺北市中正區臨沂街31~60號,0.0,住,1040505,土地0建物1車位0,五層,7.0,華廈(10層含以下有電梯),住家用,鋼筋混凝土造,990108.0,91.68,2,1,1,有,有,有,48000,524.0,,0.0,0,,RPVNMLQJNHKFFBA18CC,25.0399857,121.5299883
士林區,建物,臺北市士林區中山北路六段31~60號,26.79,住,1040302,土地0建物4車位0,一層,13.0,店面(店鋪),見其他登記事項,鋼筋混凝土造,1010522.0,616.81,0,0,0,無,有,無,500000,811.0,,0.0,0,,RPVNMLQJNHKFFEA48CC,25.1034301,121.5248822
北投區,房地(土地+建物),臺北市北投區石牌路二段331巷1~30號,286.79,住,1040427,土地1建物1車位0,五層,5.0,公寓(5樓含以下無電梯),住家用,鋼筋混凝土造,770719.0,148.03,3,2,2,有,無,無,22000,149.0,,0.0,0,,RPXNMLQJNHKFFEA68CC,25.12276,121.5240059
士林區,房地(土地+建物),臺北市士林區中山北路七段31~60號,34.1,商,1040501,土地1建物1車位0,五層,7.0,華廈(10層含以下有電梯),住家用,鋼筋混凝土造,730427.0,157.35,4,2,2,有,無,有,60000,381.0,,0.0,0,,RPQOMLQJNHKFFEA08CC,25.1194337,121.530526
文山區,建物,臺北市文山區辛亥路五段31~60號,0.0,商,1040414,土地0建物1車位0,一層,1.0,店面(店鋪),商業用,鋼筋混凝土造,740709.0,110.19,0,0,0,無,無,無,37000,336.0,,0.0,0,,RPQNMLQJNHKFFAA57CC,24.999553,121.554172
文山區,建物,臺北市文山區興隆路三段207巷6弄1~30號,0.0,住,1040504,土地0建物1車位0,五層,5.0,公寓(5樓含以下無電梯),住家用,鋼筋混凝土造,730830.0,110.42,3,2,2,有,有,無,12000,109.0,,0.0,0,,RPWNMLQJNHKFFAA18CC,24.994884,121.560271
中山區,建物,臺北市中山區南京東路二段181~210號,0.0,商,1040409,土地0建物1車位0,四層,14.0,辦公商業大樓,商業用,鋼筋混凝土造,700817.0,244.88,0,0,0,無,有,無,89890,367.0,,0.0,0,租期含一個月免費裝潢期。僅出租部分74坪。,RPPPMLQJNHKFFCA97DC,25.0519418,121.5351411
中山區,建物,臺北市中山區新生北路二段31~60號,0.0,商,1040505,土地0建物1車位0,十二層,17.0,住宅大樓(11層含以上有電梯),住家用,鋼筋混凝土造,850718.0,80.71,2,2,1,有,有,有,25000,310.0,,0.0,0,,RPUPMLQJNHKFFCA48DC,25.0542013,121.5278274
信義區,建物,臺北市信義區基隆路一段121~150號,0.0,,1040407,土地0建物1車位0,十層,13.0,其他,見其他登記事項,見其他登記事項,950126.0,113.46,0,0,1,有,有,有,40000,353.0,,0.0,0,,RPXNMLQJNHKFFDA68DC,25.0447812,121.5669716
大安區,建物,臺北市大安區瑞安街208巷24弄1~30號,0.0,住,1040416,土地0建物1車位0,一層,4.0,店面(店鋪),,鋼筋混凝土造,,103.54,0,0,0,無,無,無,62500,604.0,,0.0,0,,RPWNMLQJNHKFFFA68CC,25.0308487,121.5407072
大安區,建物,臺北市大安區延吉街61~90號,0.0,商,1040416,土地0建物1車位0,一層,4.0,店面(店鋪),住家用,鋼筋混凝土造,600715.0,90.34,0,0,0,無,無,無,110000,1218.0,,0.0,0,,RPOOMLQJNHKFFFA97CC,25.0448315,121.5538193
大安區,建物,臺北市大安區仁愛路四段408巷1~30號,9.08,商,1040325,土地0建物1車位0,八層,9.0,住宅大樓(11層含以上有電梯),住家用,鋼筋混凝土造,970701.0,80.15,1,1,1,有,有,有,54900,685.0,,0.0,0,,RPPOMLQJNHKFFFA08CC,25.0382984,121.5440218
大安區,建物,臺北市大安區雲和街61~90號,0.0,住,1040417,土地0建物1車位0,一層,5.0,公寓(5樓含以下無電梯),住家用,鋼筋混凝土造,751124.0,113.14,0,0,0,無,無,無,55000,486.0,,0.0,0,,RPSOMLQJNHKFFFA38CC,25.0236169,121.5297
大安區,建物,臺北市大安區通安街121~150號,0.0,住,1040401,土地0建物1車位0,二層,5.0,公寓(5樓含以下無電梯),住家用,鋼筋混凝土造,721110.0,123.04,0,0,0,無,無,有,45000,366.0,,0.0,0,,RPUOMLQJNHKFFFA58CC,25.0296362,121.5530602
大安區,建物,臺北市大安區仁愛路四段300巷20弄1~30號,0.0,住,1040504,土地0建物1車位0,五層,7.0,華廈(10層含以下有電梯),住家用,鋼筋混凝土造,740215.0,126.51,3,2,2,有,無,無,36000,285.0,,0.0,0,,RPVOMLQJNHKFFFA68CC,25.0364005,121.5542699
大安區,建物,臺北市大安區敦化南路二段31~60號,6.09,其他,1031201,土地0建物1車位0,十層,20.0,辦公商業大樓,商業用,鋼筋混凝土造,720714.0,63.56,0,0,0,無,有,有,45500,716.0,,0.0,0,,RPOPMLQJNHKFFFA08CC,25.0322761,121.5491635
大安區,建物,臺北市大安區忠孝東路四段61~90號,0.0,商,1040429,土地0建物1車位0,十層,12.0,住宅大樓(11層含以上有電梯),住家用,鋼筋混凝土造,,163.59,4,2,2,有,有,無,58000,355.0,,0.0,0,,RPSNMLRJNHKFFFA38CC,25.0418045,121.5459871
大安區,建物,臺北市大安區新生南路一段103巷31~60號,0.0,住,1040506,土地0建物1車位0,三層,5.0,公寓(5樓含以下無電梯),住家用,鋼筋混凝土造,691117.0,108.03,3,2,1,有,無,有,28000,259.0,,0.0,0,,RPUNMLRJNHKFFFA58CC,25.0407533,121.5354387
大安區,建物,臺北市大安區新生南路一段161巷31~60號,0.0,住,1040411,土地0建物1車位0,四層,7.0,華廈(10層含以下有電梯),住家用,鋼筋混凝土造,960608.0,196.55,3,2,2,有,無,無,48000,244.0,其他,37.73,0,,RPWNMLRJNHKFFFA78CC,25.0346635,121.5363889
大安區,建物,臺北市大安區復興南路二段211~240號,0.0,商,1040407,土地0建物1車位0,九層,14.0,辦公商業大樓,商業用,鋼筋混凝土造,860203.0,61.76000000000001,0,0,0,無,有,無,24000,389.0,,0.0,0,,RPPOMLRJNHKFFFA18CC,25.0261569,121.5437485
大安區,建物,臺北市大安區臺北市大安區仁愛路四段408巷1~30號,5.8,商,1030510,土地0建物1車位0,三層,9.0,華廈(10層含以下有電梯),住家用,鋼筋混凝土造,970701.0,73.49,1,1,1,有,有,有,56000,762.0,,0.0,0,,RPTOMLRJNHKFFFA58CC,25.037167,121.556947
文山區,建物,臺北市文山區興隆路三段1~30號,0.0,商,1040415,土地0建物0車位0,全,3.0,透天厝,,加強磚造,,217.89,0,0,0,無,無,無,30000,138.0,,0.0,0,"只租三樓,及4樓(未辦保存登記)",RPPOMLRJNHKFFAA67CC,24.991415,121.559033
大安區,建物,臺北市大安區新生南路一段143巷1~30號,0.0,住,1040417,土地0建物1車位1,三層,6.0,華廈(10層含以下有電梯),住家用,鋼筋混凝土造,830108.0,157.85,3,2,2,有,無,無,39000,247.0,升降平面,0.0,3000,,RPXNMLRJNHKFFFA98DC,25.0362727,121.5331203
士林區,建物,臺北市士林區天母西路5巷1~30號,0.0,商,1040506,土地0建物2車位0,見其他登記事項,7.0,華廈(10層含以下有電梯),商業用,鋼筋混凝土造,700309.0,234.93,0,0,0,無,無,無,65000,277.0,,0.0,0,承租兩戶門牌/租金分段:第1年65000元第2年68000元第3年起逐年調漲2%(未稅),RPQPMLRJNHKFFEA28CC,25.1187057,121.5289475
士林區,房地(土地+建物),臺北市士林區雨聲街59巷1~30號,19.0,住,1040506,土地1建物1車位0,四層,7.0,華廈(10層含以下有電梯),住家用,鋼筋混凝土造,750311.0,100.93,3,2,2,有,無,有,27000,268.0,,0.0,0,,RPSPMLRJNHKFFEA48CC,25.1027876,121.5283759
中正區,建物,臺北市中正區忠孝東路一段31~60號,0.0,商,1040420,土地0建物1車位1,五層,14.0,辦公商業大樓,見其他登記事項,鋼筋混凝土造,960511.0,72.67,0,0,0,無,有,無,40000,550.0,坡道機械,0.0,0,,RPSOMLRJNHKFFBA08CC,25.0445321,121.5255064
信義區,建物,臺北市信義區基隆路二段1~30號,27.77,商,1030924,土地0建物2車位0,一層,12.0,店面(店鋪),商業用,鋼筋混凝土造,741109.0,323.82,0,0,0,無,有,無,300000,926.0,,0.0,0,,RPUNMLRJNHKFFDA38CC,25.0301016,121.5585313
松山區,建物,臺北市松山區八德路二段391~420號,4.79,商,1031001,土地0建物1車位0,十一層,13.0,住宅大樓(11層含以上有電梯),住家用,加強磚造,,50.91,2,1,2,有,有,有,34000,668.0,,0.0,0,,RPXNMLRJNHKFFDA68CC,25.0483677,121.5462852
信義區,房地(土地+建物),臺北市信義區虎林街202巷61~90號,37.25,住,1040427,土地2建物1車位0,一層,4.0,公寓(5樓含以下無電梯),,加強磚造,,87.43,0,0,0,無,無,無,55000,629.0,,0.0,0,,RPOPMLRJNHKFFDA97CC,25.037008,121.575415
信義區,房地(土地+建物),臺北市信義區松德路91~120號,7.72,住,1040418,土地3建物1車位0,一層,23.0,住宅大樓(11層含以上有電梯),商業用,鋼骨鋼筋混凝土造,831021.0,75.69,0,1,1,有,有,無,56000,740.0,,0.0,0,,RPPPMLRJNHKFFDA08CC,25.0382643,121.5760933
松山區,建物,臺北市松山區敦化北路241~270號,0.0,商,1040410,土地0建物1車位0,五層,10.0,辦公商業大樓,見使用執照,鋼骨混凝土造,841215.0,896.97,0,0,0,無,有,無,584392,652.0,,0.0,0,,RPQPMLRJNHKFFDA18CC,25.058234,121.54978
信義區,房地(土地+建物)+車位,臺北市信義區信義路五段91~120號,0.0,其他,1040501,土地1建物1車位1,十四層,19.0,住宅大樓(11層含以上有電梯),住家用,鋼筋混凝土造,980702.0,47.79,1,1,1,有,有,有,23201,0.0,坡道平面,59.69,0,,RPRPMLRJNHKFFDA28CC,25.0326825,121.5651137
中山區,建物,臺北市中山區松江路297巷1~30號,0.0,住,1040429,土地0建物1車位0,一層,4.0,公寓(5樓含以下無電梯),住家用,鋼筋混凝土造,,92.66,0,1,1,有,無,無,57000,615.0,,0.0,0,,RPPNMLRJNHKFFCA77CC,25.0611848,121.5338536
中山區,建物,臺北市中山區林森北路121~150號,2.24,商,1031117,土地0建物1車位0,十四層,15.0,住宅大樓(11層含以上有電梯),住家用,鋼筋混凝土造,971215.0,27.43,1,1,1,有,無,有,16979,619.0,,0.0,0,,RPVNMLRJNHKFFCA38CC,25.0508214,121.5251558
中山區,建物,臺北市中山區敬業一路151~180號,0.0,商,1040409,土地0建物1車位1,十一層,11.0,住宅大樓(11層含以上有電梯),商業用,鋼筋混凝土造,970328.0,158.11,2,2,2,有,有,有,70000,443.0,坡道平面,27.57,0,租金內含大樓管理費,RPQOMLRJNHKFFCA97CC,25.0841887,121.5525673
中山區,建物,臺北市中山區民權東路二段121~150號,0.0,商,1040505,土地0建物1車位0,九層,12.0,住宅大樓(11層含以上有電梯),住家用,鋼筋混凝土造,710624.0,48.37,2,1,1,有,有,有,30000,620.0,,0.0,0,,RPROMLRJNHKFFCA08CC,25.0626361,121.5345646
內湖區,建物,臺北市內湖區內湖路一段411巷90弄1~30號,0.0,住,1040418,土地0建物1車位0,六層,9.0,套房(1房1廳1衛),住家用,鋼筋混凝土造,981204.0,58.7,1,1,1,有,有,有,21000,358.0,,0.0,0,,RPUOMLRJNHKFFCA38CC,25.0864375,121.5573647
內湖區,建物,臺北市內湖區內湖路二段355巷1~30號,0.0,住,1040504,土地0建物1車位0,四層,10.0,華廈(10層含以下有電梯),住家用,鋼筋混凝土造,1030513.0,192.62,3,2,2,有,有,有,45000,234.0,,0.0,0,,RPOPMLRJNHKFFCA87CC,25.0847438,121.5925516
內湖區,建物,臺北市內湖區港墘路91~120號,0.0,商,1040501,土地0建物1車位0,三層,5.0,公寓(5樓含以下無電梯),住家用,鋼筋混凝土造,670626.0,89.92,1,1,2,有,無,無,20000,222.0,,0.0,0,,RPQPMLRJNHKFFCA08CC,25.0805405,121.5777562
內湖區,房地(土地+建物)+車位,臺北市內湖區陽光街345巷1~30號,0.0,工,1040410,土地0建物1車位1,三層,7.0,廠辦,工業用,鋼筋混凝土造,880918.0,295.18,0,0,0,無,有,無,67200,228.0,坡道平面,0.0,0,,RPRQMLRJNHKFFCA28CC,25.0733149,121.578486
內湖區,房地(土地+建物)+車位,臺北市內湖區陽光街345巷1~30號,0.0,工,1040410,土地0建物1車位1,三層,7.0,廠辦,工業用,鋼筋混凝土造,880918.0,296.4,0,0,0,無,有,無,66600,225.0,坡道平面,0.0,0,,RPVQMLRJNHKFFCA68CC,25.0733149,121.578486
內湖區,房地(土地+建物)+車位,臺北市內湖區陽光街345巷1~30號,0.0,工,1040410,土地0建物1車位1,三層,7.0,廠辦,工業用,鋼筋混凝土造,880918.0,416.78,0,0,0,無,有,無,95200,228.0,坡道平面,0.0,0,,RPORMLRJNHKFFCA08CC,25.0733149,121.578486
內湖區,房地(土地+建物)+車位,臺北市內湖區陽光街345巷1~30號,0.0,工,1040410,土地0建物1車位1,三層,7.0,廠辦,工業用,鋼筋混凝土造,880918.0,356.5900000000001,0,0,0,無,有,無,91000,255.0,坡道平面,0.0,0,,RPPRMLRJNHKFFCA18CC,25.0733149,121.578486
中山區,建物,臺北市中山區臺北市中山區中山北路二段93巷1~30號,5.78,商,1030515,土地0建物1車位0,九層,12.0,住宅大樓(11層含以上有電梯),商業用,鋼筋混凝土造,940803.0,42.63,1,1,1,有,有,有,34414,807.0,,0.0,0,,RPQRMLRJNHKFFCA28CC,25.0594016,121.5247251
中山區,建物,臺北市中山區中山北路一段83巷31~60號,0.0,商,1040410,土地0建物1車位0,十五層,15.0,住宅大樓(11層含以上有電梯),住家用,鋼筋混凝土造,970314.0,142.13,3,1,2,有,有,有,85000,598.0,,0.0,0,租金含稅、含二代健保。租賃期間10個月17天。,RPTRMLRJNHKFFCA58CC,25.0500556,121.5243798
中山區,建物,臺北市中山區雙城街13巷1~30號,0.0,商,1040410,土地0建物1車位0,九層,14.0,住宅大樓(11層含以上有電梯),住家用,鋼筋混凝土造,941207.0,96.06,2,1,1,有,有,有,57000,593.0,,0.0,0,租金含稅。,RPURMLRJNHKFFCA68CC,25.06417,121.5245646
中山區,建物,臺北市中山區南京東路二段24巷1~30號,0.0,住,1040409,土地0建物1車位0,二層,8.0,華廈(10層含以下有電梯),商業用,鋼筋混凝土造,931209.0,62.49,2,2,2,有,有,有,40000,640.0,,0.0,0,,RPXNMLSJNHKFFCA68CC,25.0523303,121.5279494
中山區,房地(土地+建物),臺北市中山區新生北路一段91~120號,0.0,住,1040420,土地0建物1車位0,七層,12.0,住宅大樓(11層含以上有電梯),住家用,鋼筋混凝土造,761217.0,139.72,3,2,2,有,有,有,55500,397.0,,0.0,0,,RPOOMLSJNHKFFCA87CC,25.0463313,121.5323976
中山區,建物,臺北市中山區建國北路一段31~60號,0.0,商,1040507,土地0建物1車位0,七層,15.0,住宅大樓(11層含以上有電梯),住家用,鋼筋混凝土造,960913.0,121.82,2,1,1,有,有,有,50000,410.0,,0.0,0,,RPXOMLSJNHKFFCA78CC,25.0478385,121.5393649
內湖區,建物,臺北市內湖區成功路三段76巷31~60號,0.0,住,1040508,土地0建物1車位1,十一層,11.0,住宅大樓(11層含以上有電梯),住家用,鋼筋混凝土造,990126.0,260.43,3,2,2,有,有,有,71000,273.0,坡道平面,34.04,0,租金內含管理費,RPOPMLSJNHKFFCA97CC,25.0781846,121.5888798
中山區,建物,臺北市中山區敬業二路69巷31~60號,0.0,商,1040506,土地0建物1車位0,八層,10.0,華廈(10層含以下有電梯),見其他登記事項,鋼筋混凝土造,961218.0,48.27,1,1,1,有,有,有,22000,456.0,,0.0,0,租金內含管理費,RPRPMLSJNHKFFCA28CC,25.0821405,121.5533893
中山區,建物,臺北市中山區林森北路301~330號,0.0,住,1040427,土地0建物1車位0,四層,14.0,住宅大樓(11層含以上有電梯),商業用,鋼筋混凝土造,920213.0,72.27,1,2,1,有,有,有,18000,249.0,,0.0,0,,RPXPMLSJNHKFFCA88CC,25.055793,121.525628
中山區,房地(土地+建物)+車位,臺北市中山區明水路661~690號,200.0,商,1040507,土地1建物4車位4,一層,12.0,住宅大樓(11層含以上有電梯),見其他登記事項,鋼筋混凝土造,981218.0,641.3,0,0,0,無,有,有,1027691,2023.0,坡道平面,144.6,22727,"租約起始日104/6/1-109/5/31第三年起調整為每月＄1,185,543元",RPOQMLSJNHKFFCA08CC,25.0842474,121.5506495
內湖區,建物,臺北市內湖區內湖路一段691~720號,0.0,商,1040507,土地0建物1車位2,十層,14.0,住宅大樓(11層含以上有電梯),住家用,鋼筋混凝土造,1001028.0,240.8,4,2,3,有,有,有,100000,415.0,坡道平面,64.43,0,,RPPQMLSJNHKFFCA18CC,25.0800544,121.5766976
內湖區,房地(土地+建物),臺北市內湖區新明路211~240號,30.3,工,1040504,土地3建物1車位0,一層,5.0,廠辦,工業用,鋼筋混凝土造,700702.0,98.69,0,0,0,有,無,無,45000,456.0,,0.0,0,,RPUQMLSJNHKFFCA68CC,25.0583194,121.5880084
內湖區,建物,臺北市內湖區內湖路一段691~720號,0.0,商,1040507,土地0建物1車位2,十層,14.0,住宅大樓(11層含以上有電梯),住家用,鋼筋混凝土造,1001028.0,240.8,4,2,3,有,有,有,100000,415.0,坡道平面,64.43,0,,RPXQMLSJNHKFFCA98CC,25.0800544,121.5766976
內湖區,建物,臺北市內湖區民權東路六段296巷61~90號,0.0,住,1040412,土地0建物1車位1,八層,20.0,住宅大樓(11層含以上有電梯),住家用,鋼筋混凝土造,820316.0,194.0,4,2,2,有,有,有,46000,237.0,坡道平面,0.0,0,,RPORMLSJNHKFFCA18CC,25.0711851,121.607505
中山區,房地(土地+建物),臺北市中山區松江路372巷1~30號,37.13,住,1040410,土地1建物1車位0,二層,4.0,公寓(5樓含以下無電梯),住家用,加強磚造,650331.0,73.8,1,1,1,有,無,有,21000,285.0,,0.0,0,,RPRRMLSJNHKFFCA48CC,25.0456563,121.5329859
中山區,建物,臺北市中山區民權西路9巷1~30號,0.0,商,1040410,土地0建物1車位0,六層,14.0,住宅大樓(11層含以上有電梯),見其他登記事項,鋼筋混凝土造,1011112.0,64.72,1,1,1,有,有,有,32000,494.0,,0.0,0,含稅，含二代建保,RPURMLSJNHKFFCA78CC,25.0632923,121.5219717
中山區,建物,臺北市中山區中山北路二段77巷1~30號,0.0,商,1040411,土地0建物1車位0,五層,14.0,住宅大樓(11層含以上有電梯),商業用,鋼筋混凝土造,901112.0,69.84,2,1,1,有,有,有,44000,630.0,,0.0,0,含稅，含二代建保,RPWRMLSJNHKFFCA98CC,25.0576603,121.5230347
松山區,建物,臺北市松山區八德路二段331~360號,0.0,商,1040424,土地0建物1車位0,四層,14.0,住宅大樓(11層含以上有電梯),住家用,鋼筋混凝土造,980123.0,49.01,1,2,1,有,有,有,30570,624.0,,0.0,0,,RPQNMLSJNHKFFDA08CC,25.0479372,121.5458874
松山區,建物,臺北市松山區南京東路四段31~60號,0.0,商,1040408,土地0建物1車位0,五層,9.0,辦公商業大樓,住家用,鋼筋混凝土造,630729.0,144.11,4,1,2,有,有,無,50000,347.0,,0.0,0,,RPRNMLSJNHKFFDA18CC,25.0519706,121.5506435
信義區,建物,臺北市信義區松山路421~450號,0.0,住,1040430,土地0建物1車位0,五層,17.0,辦公商業大樓,住家用,鋼骨鋼筋混凝土造,820514.0,39.37000000000001,0,0,0,無,有,無,16000,406.0,,0.0,0,,RPSNMLSJNHKFFDA28CC,25.0405637,121.5780536
信義區,建物,臺北市信義區基隆路一段172巷1~30號,0.0,住,1040424,土地0建物1車位0,三層,14.0,住宅大樓(11層含以上有電梯),住家用,鋼筋混凝土造,790515.0,171.66,3,2,2,有,有,有,70000,408.0,,0.0,0,,RPPPMLSJNHKFFDA18CC,25.043104,121.5646621
信義區,建物,臺北市信義區基隆路二段151~180號,0.0,商,1040430,土地0建物1車位0,三層,15.0,住宅大樓(11層含以上有電梯),住家用,鋼筋混凝土造,990901.0,126.69,3,2,2,有,有,有,60000,474.0,,0.0,0,,RPQPMLSJNHKFFDA28CC,25.0260187,121.5546122
松山區,房地(土地+建物),臺北市松山區南京東路五段31~60號,17.28,商,1040429,土地1建物1車位0,一層,12.0,住宅大樓(11層含以上有電梯),商業用,鋼筋混凝土造,721213.0,117.01,1,0,0,無,無,無,48000,410.0,,0.0,0,第一個月至第三個月租金 4.5萬/月第四個月起租金 4.8萬/月,RPOQMLSJNHKFFDA18CC,25.0517333,121.5582314
中正區,建物,臺北市中正區信義路二段151~180號,0.0,商,1040424,土地0建物1車位0,十一層,13.0,住宅大樓(11層含以上有電梯),住家用,鋼骨鋼筋混凝土造,970820.0,151.54,3,2,2,有,有,有,80000,528.0,,0.0,0,,RPTOMLSJNHKFFBA28CC,25.03411,121.528614
大同區,建物,臺北市大同區敦煌路80巷1~30號,0.0,住,1040423,土地0建物1車位0,八層,12.0,住宅大樓(11層含以上有電梯),住家用,鋼筋混凝土造,960831.0,123.52,2,2,1,有,有,有,50000,405.0,,0.0,0,,RPXPMLSJNHKFFBA78CC,25.075119,121.5176642
士林區,建物,臺北市士林區忠誠路二段91~120號,0.0,住,1040422,土地0建物1車位0,八層,14.0,住宅大樓(11層含以上有電梯),住家用,鋼筋混凝土造,750812.0,199.98,4,2,2,有,有,有,80000,400.0,,0.0,0,,RPSNMLSJNHKFFEA38CC,25.1160009,121.5338529
士林區,建物,臺北市士林區忠誠路二段21巷1~30號,0.0,住,1040430,土地0建物1車位0,六層,9.0,華廈(10層含以下有電梯),住家用,鋼筋混凝土造,980416.0,206.88,3,2,2,有,有,有,80000,387.0,,0.0,0,,RPWNMLSJNHKFFEA78CC,25.10979,121.5322665
士林區,建物,臺北市士林區天玉街1~30號,0.0,住,1040424,土地0建物1車位1,二層,15.0,住宅大樓(11層含以上有電梯),住家用,鋼筋混凝土造,960201.0,226.88,4,2,2,有,有,有,130000,573.0,坡道平面,32.96,0,,RPTOMLSJNHKFFEA58CC,25.1200447,121.5266383
士林區,建物,臺北市士林區中山北路七段190巷121~150號,0.0,其他,1040504,土地0建物1車位0,見其他登記事項,2.0,農舍,農舍,鋼筋混凝土造,930818.0,491.66,5,3,5,有,無,無,175000,,,0.0,0,,RPXOMLSJNHKFFEA98CC,25.1293793,121.5382845
士林區,建物,臺北市士林區中山北路七段190巷121~150號,0.0,其他,1040504,土地0建物1車位0,見其他登記事項,2.0,農舍,農舍,鋼筋混凝土造,930818.0,491.66,5,3,5,有,無,無,175000,,,0.0,0,,RPPPMLSJNHKFFEA28CC,25.1293793,121.5382845
松山區,建物,臺北市松山區南京東路五段181~210號,0.0,其他,1040410,土地0建物1車位0,七層,14.0,住宅大樓(11層含以上有電梯),商業用,鋼筋混凝土造,700331.0,164.97,3,1,2,有,有,有,55000,333.0,,0.0,0,,RPWNMLSJNHKFFDA78DC,25.0514711,121.5575573
中正區,建物,臺北市中正區重慶南路一段31~60號,0.0,商,1040413,土地0建物1車位0,十一層,14.0,辦公商業大樓,見使用執照,鋼筋混凝土造,910723.0,44.56,0,0,0,無,有,有,20000,449.0,,0.0,0,,RPXOMLSJNHKFFBA78DC,25.045451,121.513395
中山區,建物,臺北市中山區中山北路三段1~30號,0.0,商,1040409,土地0建物1車位0,十層,14.0,辦公商業大樓,商業用,鋼筋混凝土造,,161.7,0,0,0,無,有,無,50000,309.0,,0.0,0,,RPTOMLSJNHKFFCA48DC,25.0639349,121.522626
大安區,建物,臺北市大安區永康街61~90號,0.0,住,1040416,土地0建物1車位0,四層,12.0,住宅大樓(11層含以上有電梯),住家用,鋼筋混凝土造,1000427.0,146.43,2,1,2,有,有,有,60000,410.0,,0.0,0,,RPRNMLSJNHKFFFA38CC,25.02928,121.529757
大安區,建物,臺北市大安區復興南路一段181~210號,0.0,商,1040410,土地0建物0車位0,七層,12.0,辦公商業大樓,商業用,鋼筋混凝土造,780404.0,552.84,0,0,0,無,有,有,267520,484.0,,0.0,0,"承租人租賃合約面積為167.2坪,屋主保留公設部分面積自用25平方公尺約(7.56坪)",RPSOMLSJNHKFFFA58CC,25.0406189,121.5440044
大安區,建物,臺北市大安區和平東路二段1~30號,0.0,商,1040421,土地0建物1車位1,八層,12.0,住宅大樓(11層含以上有電梯),住家用,鋼筋混凝土造,731018.0,149.26,4,2,2,有,有,有,56000,375.0,坡道平面,0.0,4000,,RPTOMLSJNHKFFFA68CC,25.0232405,121.5360177
中正區,建物,臺北市中正區寧波東街1~30號,0.0,住,1040415,土地0建物1車位0,四層,12.0,住宅大樓(11層含以上有電梯),國民住宅,鋼筋混凝土造,741022.0,96.09,2,1,2,有,無,有,26000,271.0,,0.0,0,,RPPNMLTJNHKFFAA77CC,25.0318808,121.5193721
萬華區,房地(土地+建物),臺北市萬華區萬華區東園街28巷31~60號,5.9,住,1040507,土地1建物1車位0,三層,6.0,華廈(10層含以下有電梯),住家用,鋼筋混凝土造,810921.0,29.53,0,0,0,無,無,有,8500,288.0,,0.0,0,,RPUNMLTJNHKFFBA38CC,25.0269055,121.4989134
中正區,建物,臺北市中正區重慶南路一段31~60號,0.0,商,1040410,土地0建物1車位0,四層,14.0,辦公商業大樓,見使用執照,鋼筋混凝土造,910723.0,44.49,1,0,1,有,有,有,16000,360.0,,0.0,0,,RPXNMLTJNHKFFBA68CC,25.045451,121.513395
中正區,建物,臺北市中正區許昌街1~30號,0.0,商,1040410,土地0建物1車位0,十三層,20.0,辦公商業大樓,商業用,見使用執照,740603.0,961.46,0,0,0,無,有,有,349008,363.0,,0.0,0,建物租金為含稅價,RPOOMLTJNHKFFBA87CC,25.045359,121.5163831
中正區,建物,臺北市中正區忠孝東路二段31~60號,0.0,商,1040410,土地0建物0車位0,全,4.0,透天厝,,加強磚造,,23.11,1,0,1,有,無,有,7000,303.0,,0.0,0,,RPPOMLTJNHKFFBA97CC,25.043892,121.527898
中正區,建物,臺北市中正區許昌街1~30號,0.0,商,1040410,土地0建物1車位0,十三層,20.0,辦公商業大樓,商業用,見使用執照,740603.0,990.39,0,0,0,無,有,有,359508,363.0,,0.0,0,建物租金為含稅價。,RPQOMLTJNHKFFBA08CC,25.045359,121.5163831
信義區,建物,臺北市信義區松德路151~180號,0.0,住,1040423,土地0建物1車位1,十一層,30.0,住宅大樓(11層含以上有電梯),住家用,鋼筋混凝土造,661121.0,193.98,4,1,2,有,有,有,73500,379.0,坡道平面,40.36,0,,RPPNMLTJNHKFFDA08CC,25.036644,121.574876
信義區,建物,臺北市信義區松德路121~150號,0.0,住,1040413,土地0建物1車位0,一層,4.0,店面(店鋪),住家用,鋼筋混凝土造,600710.0,78.11,0,0,0,無,無,無,50000,640.0,,0.0,0,,RPSNMLTJNHKFFDA38CC,25.0376132,121.5753787
中山區,建物,臺北市中山區南京東路三段61~90號,0.0,商,1040409,土地0建物0車位0,八層,10.0,辦公商業大樓,商業用,鋼筋混凝土造,590917.0,195.04,0,0,0,無,有,有,94400,484.0,,0.0,0,建物租金為未稅價(營業稅)。本棟建物整棟只有一個建號，公設部份無法區分。,RPRNMLTJNHKFFCA18CC,25.0522989,121.538101
中山區,建物,臺北市中山區錦州街30巷1~30號,0.0,商,1040410,土地0建物1車位0,六層,10.0,華廈(10層含以下有電梯),住家用,鋼筋混凝土造,680613.0,30.55,1,0,1,有,有,有,11000,360.0,,0.0,0,,RPTNMLTJNHKFFCA38CC,25.0601539,121.5249221
中山區,建物,臺北市中山區雙城街25巷1~30號,0.0,商,1040411,土地0建物1車位0,五層,8.0,華廈(10層含以下有電梯),住家用,鋼筋混凝土造,650505.0,45.6,1,1,1,有,有,有,15000,329.0,,0.0,0,,RPUNMLTJNHKFFCA48CC,25.066379,121.524449
中山區,建物,臺北市中山區長春路91~120號,0.0,商,1040411,土地0建物0車位0,二層,3.0,公寓(5樓含以下無電梯),,加強磚造,,17.96,1,0,1,有,無,有,6800,379.0,,0.0,0,,RPVNMLTJNHKFFCA58CC,25.0548889,121.5288284
中山區,建物,臺北市中山區林森北路481~510號,0.0,商,1040412,土地0建物0車位0,六層,8.0,華廈(10層含以下有電梯),住家用,鋼筋混凝土造,660406.0,26.31,1,0,1,有,無,有,7800,296.0,,0.0,0,,RPWNMLTJNHKFFCA68CC,25.0611317,121.5257123
中山區,建物,臺北市中山區新生北路三段31~60號,0.0,商,1040411,土地0建物1車位0,八層,12.0,住宅大樓(11層含以上有電梯),住家用,鋼筋混凝土造,711209.0,56.8,2,0,2,有,有,有,25000,440.0,,0.0,0,,RPXNMLTJNHKFFCA78CC,25.0646869,121.5280576
中山區,建物,臺北市中山區新生北路一段31~60號,0.0,商,1040413,土地0建物1車位0,三層,14.0,住宅大樓(11層含以上有電梯),住家用,鋼筋混凝土造,770613.0,71.31,2,1,1,有,有,有,22000,309.0,,0.0,0,,RPOOMLTJNHKFFCA97CC,25.0472733,121.5310045
信義區,建物,臺北市信義區光復南路511~540號,0.0,商,1040427,土地0建物1車位0,五層,13.0,住宅大樓(11層含以上有電梯),商業用,鋼筋混凝土造,891124.0,149.58,3,2,2,有,有,無,60000,401.0,,0.0,0,,RPQNMLKKNHKFFDA37CC,25.03202,121.5576402
信義區,建物,臺北市信義區忠孝東路四段553巷46弄1~30號,53.5,住,1040417,土地0建物1車位0,一層,7.0,華廈(10層含以下有電梯),見使用執照,鋼筋混凝土造,,305.41,0,2,0,有,無,無,160000,524.0,,0.0,0,租賃期間為104/4/17至109/4/30，共5年14天104/4/17至104/5/30為免租金裝潢期承租範圍為1樓及B1,RPSNMLLKNHKFFDA67CC,25.0443396,121.5630678
松山區,建物,臺北市松山區八德路三段1~30號,0.0,商,1040507,土地0建物1車位1,七層,16.0,辦公商業大樓,商業用,鋼骨鋼筋混凝土造,811121.0,674.51,0,0,0,無,有,無,285000,423.0,坡道平面,0.0,0,,RPWNMLLKNHKFFDA08CC,25.047847,121.553928
南港區,建物,臺北市南港區重陽路199巷1~30號,0.0,住,1040426,土地0建物1車位1,六層,9.0,華廈(10層含以下有電梯),國民住宅,鋼筋混凝土造,930706.0,146.28,3,2,2,有,有,有,25000,171.0,坡道平面,0.0,0,租金不含管理費，車位坪數無法分算。,RPXNMLLKNHKFFDA18CC,25.0575601,121.5991484
松山區,建物,臺北市松山區健康路15巷31~60號,0.0,住,1040425,土地0建物1車位0,八層,12.0,住宅大樓(11層含以上有電梯),國民住宅,鋼筋混凝土造,900810.0,146.51,3,2,2,有,有,有,65000,444.0,,0.0,0,含管理費出租,RPOOMLLKNHKFFDA37CC,25.0548437,121.5529154
信義區,建物,臺北市信義區光復南路541~570號,0.0,,1040427,土地0建物1車位0,八層,18.0,住宅大樓(11層含以上有電梯),住家用,見其他登記事項,970822.0,42.99,1,1,1,有,無,有,37000,861.0,,0.0,0,,RPQOMLLKNHKFFDA57CC,25.0317084,121.5576302
松山區,房地(土地+建物),臺北市松山區南京東路三段256巷31~60號,39.75,住,1040414,土地1建物1車位0,三層,4.0,公寓(5樓含以下無電梯),住家用,加強磚造,580930.0,94.61,3,1,1,有,無,無,27000,285.0,,0.0,0,,RPTOMLLKNHKFFDA87CC,25.0505885,121.5445768
信義區,建物,臺北市信義區永吉路31~60號,0.0,商,1040423,土地0建物1車位0,五層,14.0,住宅大樓(11層含以上有電梯),住家用,鋼筋混凝土造,960524.0,123.36,2,2,2,有,有,有,52790,428.0,,0.0,0,,RPPPMLLKNHKFFDA57CC,25.045894,121.568593
大同區,建物,臺北市大同區承德路三段241~270號,0.0,住,1040427,土地0建物1車位0,六層,12.0,住宅大樓(11層含以上有電梯),住家用,鋼筋混凝土造,1010918.0,149.73,3,2,2,有,有,有,63000,421.0,,0.0,0,,RPPOMLLKNHKFFBA27CC,25.071054,121.518774
士林區,建物,臺北市士林區中山北路七段31~60號,0.0,住,1040417,土地0建物1車位0,三層,7.0,華廈(10層含以下有電梯),住家用,鋼筋混凝土造,730607.0,121.11,3,2,2,有,有,有,30000,248.0,,0.0,0,,RPQNMLLKNHKFFEA57CC,25.1194337,121.530526
北投區,建物,臺北市北投區承德路七段304巷1~30號,0.0,住,1040423,土地0建物1車位0,一層,5.0,公寓(5樓含以下無電梯),住家用,鋼筋混凝土造,730702.0,173.23999999999995,3,2,21,有,無,無,30000,173.0,,0.0,0,,RPSNMLLKNHKFFEA77CC,25.1169561,121.5049042
中山區,建物,臺北市中山區民生西路1~30號,0.0,商,1040421,土地0建物1車位0,八層,12.0,辦公商業大樓,住家用,鋼筋混凝土造,690105.0,62.38,0,0,0,無,有,無,27273,437.0,,0.0,0,,RPQNMLLKNHKFFCA37CC,25.0578885,121.5215385
內湖區,建物,臺北市內湖區瑞光路601~630號,0.0,,1040312,土地0建物5車位0,六層,13.0,廠辦,見其他登記事項,鋼筋混凝土造,1040119.0,1600.33,0,0,0,無,有,無,774560,484.0,,0.0,0,,RPWNMLLKNHKFFCA97CC,25.0800655,121.5671941
內湖區,建物,臺北市內湖區瑞光路601~630號,0.0,,1040312,土地0建物5車位0,七層,13.0,廠辦,見其他登記事項,鋼筋混凝土造,1040119.0,1600.33,0,0,0,無,有,無,774560,484.0,,0.0,0,,RPXNMLLKNHKFFCA08CC,25.0800655,121.5671941
內湖區,建物,臺北市內湖區瑞光路601~630號,0.0,,1040312,土地0建物2車位0,八層,13.0,廠辦,見其他登記事項,鋼筋混凝土造,1040119.0,534.38,0,0,0,無,有,無,258640,484.0,,0.0,0,,RPOOMLLKNHKFFCA27CC,25.0800655,121.5671941
中山區,建物,臺北市中山區龍江路120巷1~30號,0.0,住,1040501,土地0建物1車位0,八層,10.0,華廈(10層含以下有電梯),商業用,鋼筋混凝土造,880524.0,95.45,2,2,1,有,有,有,30000,314.0,,0.0,0,親友、員工或其他特殊關係間之交易。;續租。,RPUOMLLKNHKFFCA87CC,25.053706,121.540307
中山區,建物,臺北市中山區長安東路二段151~180號,0.0,商,1040413,土地0建物1車位0,十四層,15.0,住宅大樓(11層含以上有電梯),見其他登記事項,鋼筋混凝土造,1010409.0,52.49,1,2,1,有,有,有,39000,743.0,,0.0,0,含管理費。,RPUPMLLKNHKFFCA97CC,25.0483536,121.5387141
中山區,建物,臺北市中山區中山北路一段121巷31~60號,0.0,,1040501,土地0建物1車位0,四層,14.0,住宅大樓(11層含以上有電梯),住家用,鋼筋混凝土造,1000128.0,94.55,1,1,1,有,有,有,40000,423.0,,0.0,0,,RPWPMLLKNHKFFCA18CC,25.0509211,121.5245641
中山區,建物,臺北市中山區長春路241~270號,17.14,商,1040414,土地0建物2車位0,一層,12.0,住宅大樓(11層含以上有電梯),商業用,鋼筋混凝土造,970104.0,525.56,6,3,3,有,有,有,220000,419.0,,0.0,0,,RPXPMLLKNHKFFCA28CC,25.0548159,121.5393591
中山區,房地(土地+建物),臺北市中山區松江路184巷26弄1~30號,0.0,住,1040506,土地0建物1車位0,四層,9.0,華廈(10層含以下有電梯),住家用,鋼筋混凝土造,971202.0,53.88,2,2,1,有,有,有,40000,742.0,,0.0,0,,RPQQMLLKNHKFFCA67CC,25.0566309,121.5308609
中山區,建物,臺北市中山區復興北路1~30號,0.0,商,1040430,土地0建物1車位2,十層,14.0,住宅大樓(11層含以上有電梯),住家用,見其他登記事項,1000616.0,380.75,3,2,3,有,有,有,180000,473.0,坡道平面,27.93,0,,RPVQMLLKNHKFFCA18CC,25.0479767,121.5444731
內湖區,房地(土地+建物),臺北市內湖區康樂街20巷1~30號,23.06,住,1040415,土地1建物1車位0,四層,5.0,公寓(5樓含以下無電梯),住家用,鋼筋混凝土造,760112.0,88.64,3,2,2,有,無,有,16000,181.0,,0.0,0,,RPVRMLLKNHKFFCA28CC,25.0684171,121.6181374
內湖區,房地(土地+建物),臺北市內湖區康寧路三段99巷17弄1~30號,29.39,住,1040412,土地2建物1車位0,三層,5.0,公寓(5樓含以下無電梯),住家用,鋼筋混凝土造,731026.0,110.43,3,2,2,有,無,有,24000,217.0,,0.0,0,,RPXRMLLKNHKFFCA48CC,25.0728756,121.609862
內湖區,建物,臺北市內湖區內湖路一段631~660號,0.0,其他,1040413,土地0建物1車位0,八層,18.0,住宅大樓(11層含以上有電梯),住家用,見其他登記事項,991123.0,109.63,3,1,2,有,有,有,51000,465.0,,0.0,0,含稅，含二代建保,RPOSMLLKNHKFFCA67CC,25.0805252,121.5745997
大安區,建物,臺北市大安區四維路154巷1~30號,0.0,,1040510,土地0建物1車位0,一層,4.0,公寓(5樓含以下無電梯),,鋼筋混凝土造,,96.59,0,0,0,無,無,無,68182,706.0,,0.0,0,,RPQNMLLKNHKFFFA67CC,25.0310721,121.5477504
大安區,建物,臺北市大安區和平東路一段181~210號,0.0,商,1040428,土地0建物1車位0,十一層,14.0,住宅大樓(11層含以上有電梯),住家用,鋼筋混凝土造,970519.0,90.26,2,1,1,有,有,有,42000,465.0,,0.0,0,含管理費出租。,RPTNMLLKNHKFFFA97CC,25.0264466,121.5328981
大安區,建物,臺北市大安區仁愛路四段91~120號,0.0,住,1040413,土地0建物1車位0,一層,14.0,住宅大樓(11層含以上有電梯),住家用,鋼筋混凝土造,770502.0,229.66,2,1,1,有,有,無,85000,370.0,,0.0,0,,RPUNMLLKNHKFFFA08CC,25.0380363,121.5478476
大安區,建物,臺北市大安區瑞安街208巷1~30號,0.0,住,1040423,土地0建物1車位0,六層,7.0,華廈(10層含以下有電梯),住家用,鋼筋混凝土造,700803.0,132.47,3,2,2,有,有,有,41136,311.0,,0.0,0,,RPOOMLLKNHKFFFA57CC,25.0279862,121.5404848
文山區,房地(土地+建物)+車位,臺北市文山區木柵路三段61~90號,18.51,商,1040502,土地1建物1車位1,九層,26.0,住宅大樓(11層含以上有電梯),住家用,鋼筋混凝土造,1030609.0,228.61,4,2,2,有,有,有,33000,144.0,坡道平面,43.81,0,租金實拿，104年5月2日至104年5月31日為承租人裝潢期，不收取租金。內含獨立產權車位，未包含在棟數內。租金不含建物及車位之管理費、水、電、瓦斯費用。,RPUNMLLKNHKFFAA67DC,24.988671,121.566492
大安區,建物,臺北市大安區仁愛路四段266巷8弄1~30號,0.0,住,1040506,土地0建物1車位0,一層,7.0,店面(店鋪),見使用執照,鋼筋混凝土造,,162.54,5,0,2,有,有,有,150000,923.0,,0.0,0,,RPQNMLMKNHKFFFA77CC,25.0382984,121.5440218
大安區,建物,臺北市大安區忠孝東路四段101巷1~30號,0.0,,1040412,土地0建物1車位0,一層,8.0,店面(店鋪),住家用,鋼筋混凝土造,571015.0,84.49,0,0,0,無,無,無,86000,1018.0,,0.0,0,,RPRNMLMKNHKFFFA87CC,25.0419004,121.5440748
大安區,建物,臺北市大安區信義路二段91~120號,0.0,其他,1040429,土地0建物1車位1,六層,14.0,住宅大樓(11層含以上有電梯),住家用,鋼筋混凝土造,970915.0,209.2,3,2,2,有,有,有,90000,430.0,升降平面,39.19,0,,RPTNMLMKNHKFFFA08CC,25.0344053,121.5269823
大安區,建物,臺北市大安區潮州街60巷1~30號,0.0,住,1040507,土地0建物1車位0,六層,7.0,華廈(10層含以下有電梯),住家用,鋼筋混凝土造,980206.0,35.52,1,1,1,有,有,有,19000,535.0,,0.0,0,,RPWNMLMKNHKFFFA38CC,25.029025,121.5238067
大安區,建物,臺北市大安區安居街1~30號,0.0,住,1040509,土地0建物1車位0,五層,7.0,華廈(10層含以下有電梯),住家用,鋼筋混凝土造,711029.0,79.33,2,2,1,有,無,有,21000,265.0,,0.0,0,,RPPOMLMKNHKFFFA77CC,25.0198234,121.553763
中正區,建物,臺北市中正區重慶南路三段61~90號,59.15,住,1040505,土地0建物1車位1,三層,11.0,住宅大樓(11層含以上有電梯),住家用,鋼筋混凝土造,1020304.0,88.53,2,2,1,有,有,有,29000,328.0,其他,19.59,0,,RPTNMLMKNHKFFAA57CC,25.0267015,121.5163423
中山區,建物,臺北市中山區建國北路二段1~30號,0.0,住,1040506,土地0建物1車位0,八層,14.0,住宅大樓(11層含以上有電梯),商業用,鋼筋混凝土造,950713.0,75.9,2,1,1,有,有,有,52000,685.0,,0.0,0,,RPVPMLMKNHKFFCA18CC,25.0523809,121.5371887
內湖區,建物,臺北市內湖區瑞光路571~600號,0.0,,1040413,土地0建物1車位3,六層,9.0,廠辦,工業用,鋼筋混凝土造,880806.0,226.24,0,0,0,無,有,無,98000,433.0,坡道平面,0.0,0,,RPWPMLMKNHKFFCA28CC,25.0799077,121.5680042
內湖區,建物,臺北市內湖區石潭路31~60號,0.0,其他,1040425,土地0建物1車位1,四層,14.0,辦公商業大樓,見其他登記事項,鋼筋混凝土造,1001124.0,169.4,3,2,2,有,有,有,53000,313.0,坡道平面,25.44,0,,RPPQMLMKNHKFFCA67CC,25.0626437,121.5860211
內湖區,土地,舊宗段61~90地號,1291.58,工,1040313,土地1建物0車位0,,,其他,,,,0.0,0,0,0,有,無,無,332095,257.0,,0.0,0,,RPVQMLMKNHKFFCA28CC,0.0,0.0
中山區,建物,臺北市中山區南京東路二段151~180號,0.0,商,1040414,土地0建物1車位7,一層,11.0,辦公商業大樓,商業用,鋼骨鋼筋混凝土造,880521.0,993.97,0,0,0,無,有,無,1705297,1716.0,坡道平面,0.0,0,,RPQRMLMKNHKFFCA87CC,25.0522347,121.535662
中山區,建物,臺北市中山區松江路31~60號,0.0,商,1040506,土地0建物1車位1,九層,11.0,住宅大樓(11層含以上有電梯),住家用,鋼筋混凝土造,780406.0,197.48,0,0,0,無,有,無,55000,279.0,坡道平面,0.0,0,含租賃稅,RPSRMLMKNHKFFCA08CC,25.0474392,121.5331738
內湖區,房地(土地+建物),臺北市內湖區港墘路127巷16弄1~30號,11.45,住,1040509,土地1建物1車位0,三層,12.0,住宅大樓(11層含以上有電梯),住家用,鋼筋混凝土造,860319.0,44.59,1,1,1,有,有,有,16000,359.0,,0.0,0,,RPVRMLMKNHKFFCA38CC,25.077914,121.5773756
內湖區,建物,臺北市內湖區洲子街31~60號,0.0,工,1040414,土地0建物1車位0,四層,10.0,廠辦,工業用,鋼筋混凝土造,920923.0,188.23,0,0,0,無,有,無,82563,439.0,,0.0,0,,RPPSMLMKNHKFFCA87CC,25.0787764,121.5742924
內湖區,房地(土地+建物)+車位,臺北市內湖區新湖一路61~90號,0.0,工,1040415,土地0建物1車位1,三層,7.0,廠辦,見其他登記事項,鋼筋混凝土造,1010626.0,293.03,0,0,0,無,有,無,67460,230.0,坡道平面,0.0,0,,RPRSMLMKNHKFFCA08CC,25.0582581,121.5750636
士林區,房地(土地+建物),臺北市士林區大南路361~390號,42.0,住,1040415,土地1建物1車位0,一層,4.0,公寓(5樓含以下無電梯),住家用,鋼筋混凝土造,631017.0,84.62,0,0,0,無,無,無,30000,355.0,,0.0,0,,RPTOMLMKNHKFFEA08CC,25.08897,121.516528
士林區,房地(土地+建物),臺北市士林區中山北路七段216巷1~30號,39.66,住,1040509,土地1建物1車位0,四層,6.0,華廈(10層含以下有電梯),住家用,鋼筋混凝土造,750605.0,190.29,4,2,2,有,有,無,42000,221.0,,0.0,0,,RPUOMLMKNHKFFEA18CC,25.1258865,121.5331536
中正區,建物,臺北市中正區濟南路二段31~60號,0.0,住,1040507,土地0建物1車位0,見其他登記事項,2.0,店面(店鋪),,加強磚造,,80.36,0,0,2,有,無,有,75000,933.0,,0.0,0,,RPQNMLMKNHKFFBA37CC,25.0410606,121.5288256
萬華區,建物,臺北市萬華區武昌街二段1~30號,0.0,商,1040415,土地0建物2車位0,全,5.0,透天厝,,加強磚造,,306.11,0,0,0,無,無,無,200000,653.0,,0.0,0,,RPVNMLMKNHKFFBA87CC,25.0444369,121.5084685
萬華區,建物,臺北市萬華區青年路31~60號,0.0,住,1040417,土地0建物1車位0,一層,12.0,店面(店鋪),商業用,鋼筋混凝土造,760316.0,148.91,0,0,0,無,有,無,100000,672.0,,0.0,0,僅租一樓右側部分(含內柱與騎樓),RPXNMLMKNHKFFBA08CC,25.0255372,121.5047939
信義區,建物,臺北市信義區信義路五段1~30號,0.0,商,1040414,土地0建物1車位1,八層,18.0,辦公商業大樓,商業用,鋼骨混凝土造,800823.0,413.22,0,0,0,無,有,無,325000,787.0,坡道平面,0.0,0,,RPRNMLMKNHKFFDA67CC,25.0335054,121.5607789
信義區,建物,臺北市信義區信義路五段1~30號,0.0,商,1040420,土地0建物1車位0,二十層,101.0,辦公商業大樓,見其他登記事項,見其他登記事項,931112.0,1216.21,0,0,0,無,有,有,1117835,919.0,,0.0,0,,RPQOMLMKNHKFFDA67CC,25.0335054,121.5607789
松山區,建物,臺北市松山區富錦街481~510號,0.0,住,1040507,土地0建物1車位0,一層,4.0,公寓(5樓含以下無電梯),住家用,鋼筋混凝土造,,84.67,3,2,2,有,無,無,60000,709.0,,0.0,0,"租金調漲:第1-3年60000元,第4-5年調漲63000元",RPTOMLMKNHKFFDA97CC,25.0609931,121.5628692
信義區,建物,臺北市信義區東興路61~90號,0.0,商,1040512,土地0建物2車位0,五層,11.0,辦公商業大樓,見其他登記事項,鋼筋混凝土造,1030514.0,548.43,0,0,0,無,有,無,160000,292.0,,0.0,0,,RPPNMLNKNHKFFDA57CC,25.047564,121.567114
松山區,建物,臺北市松山區復興北路81巷31~60號,0.0,住,1040502,土地0建物1車位0,二層,7.0,華廈(10層含以下有電梯),住家用,鋼筋混凝土造,,182.74,3,3,3,有,無,有,45000,246.0,,0.0,0,,RPRNMLNKNHKFFDA77CC,25.0512541,121.5454955
松山區,建物,臺北市松山區健康路325巷6弄1~30號,0.0,住,1040414,土地0建物1車位0,一層,5.0,店面(店鋪),住家用,鋼筋混凝土造,751020.0,84.36,0,0,0,無,無,有,40000,474.0,,0.0,0,,RPTNMLNKNHKFFDA97CC,25.0549843,121.5674205
松山區,建物,臺北市松山區健康路185巷1~30號,0.0,住,1040420,土地0建物1車位0,五層,7.0,華廈(10層含以下有電梯),國民住宅,鋼筋混凝土造,810309.0,123.84,3,2,2,有,有,有,26000,210.0,,0.0,0,,RPOOMLNKNHKFFDA57CC,25.0552309,121.561146
松山區,建物,臺北市松山區民生東路三段113巷25弄1~30號,0.0,住,1040420,土地0建物1車位0,四層,7.0,華廈(10層含以下有電梯),住家用,鋼筋混凝土造,720527.0,129.78,3,1,2,有,有,有,58000,447.0,,0.0,0,含稅,RPROMLNKNHKFFDA87CC,25.0599292,121.5463542
松山區,建物,臺北市松山區民生東路三段121~150號,0.0,商,1040425,土地0建物1車位0,九層,14.0,辦公商業大樓,商業用,鋼筋混凝土造,750930.0,126.25,1,1,2,有,有,有,76189,603.0,,0.0,0,整層251坪只承租38.19坪,RPWOMLNKNHKFFDA38CC,25.0580549,121.546978
信義區,建物,臺北市信義區信義路五段91~120號,0.0,其他,1040430,土地0建物1車位0,十八層,19.0,住宅大樓(11層含以上有電梯),住家用,鋼筋混凝土造,980702.0,50.07000000000001,1,1,1,有,有,有,30000,599.0,,0.0,0,,RPOPMLNKNHKFFDA67CC,25.0326825,121.5651137
信義區,車位,臺北市信義區信義路五段91~120號,12.97,其他,1040430,土地0建物0車位1,,,其他,,,,12.97,0,0,0,有,有,無,4000,,坡道平面,12.97,4000,,RPOQMLNKNHKFFDA77CC,25.0326825,121.5651137
大同區,建物,臺北市大同區太原路61~90號,0.0,商,1040417,土地0建物1車位0,十層,14.0,住宅大樓(11層含以上有電梯),住家用,鋼筋混凝土造,971211.0,68.85,1,1,1,有,有,有,29000,421.0,,0.0,0,含稅,RPXNMLNKNHKFFBA18CC,25.0513873,121.5155936
北投區,建物,臺北市北投區石牌路二段90巷1~30號,0.0,商,1040425,土地0建物1車位0,一層,5.0,店面(店鋪),見使用執照,鋼筋混凝土造,681101.0,102.3,0,0,0,無,無,有,30000,293.0,,0.0,0,,RPPOMLNKNHKFFEA77CC,25.1169939,121.5171203
士林區,建物,臺北市士林區文林路451~480號,0.0,商,1040429,土地0建物1車位0,一層,5.0,店面(店鋪),商業用,鋼筋混凝土造,700707.0,129.82,0,0,0,無,無,有,170000,1310.0,,0.0,0,,RPUOMLNKNHKFFEA28CC,25.0954568,121.5243587
北投區,建物,臺北市北投區行義路186巷1~30號,0.0,住,1040508,土地0建物1車位0,二層,3.0,公寓(5樓含以下無電梯),住家用,鋼筋混凝土造,780131.0,115.41,3,2,2,有,無,無,18000,156.0,,0.0,0,,RPWOMLNKNHKFFEA48CC,25.132623,121.528973
北投區,建物,臺北市北投區天母西路117巷1~30號,0.0,住,1040511,土地0建物1車位0,六層,11.0,住宅大樓(11層含以上有電梯),住家用,鋼筋混凝土造,810116.0,179.85,3,1,1,有,有,有,50000,278.0,,0.0,0,,RPOPMLNKNHKFFEA77CC,25.1210013,121.5245058
士林區,建物,臺北市士林區中山北路七段190巷1~30號,0.0,住,1040430,土地0建物1車位0,三層,7.0,華廈(10層含以下有電梯),住家用,鋼筋混凝土造,800823.0,261.16,4,2,3,有,有,有,145000,555.0,坡道平面,0.0,0,,RPQPMLNKNHKFFEA97CC,25.1251231,121.5331378
內湖區,建物,臺北市內湖區文湖街31~60號,0.0,住,1040513,土地0建物1車位2,四層,15.0,住宅大樓(11層含以上有電梯),住家用,鋼筋混凝土造,991230.0,225.14,3,2,3,有,有,無,85000,378.0,坡道平面,54.1,0,,RPRNMLNKNHKFFCA67CC,25.086609,121.5611418
內湖區,建物,臺北市內湖區內湖路三段72巷31~60號,0.0,住,1040423,土地0建物1車位0,二層,4.0,公寓(5樓含以下無電梯),住家用,鋼筋混凝土造,830713.0,81.0,2,2,2,有,無,有,22000,272.0,,0.0,0,,RPTOMLNKNHKFFCA97CC,25.087184,121.591636
中山區,建物,臺北市中山區新生北路三段56巷1~30號,0.0,商,1040420,土地0建物1車位1,五層,13.0,住宅大樓(11層含以上有電梯),住家用,鋼筋混凝土造,981021.0,138.84,2,1,2,有,有,有,74000,533.0,坡道平面,42.57,0,含稅，含二代建保,RPUOMLNKNHKFFCA08CC,25.0654686,121.5273555
中山區,建物,臺北市中山區撫順街1~30號,0.0,商,1040421,土地0建物1車位0,八層,14.0,住宅大樓(11層含以上有電梯),住家用,鋼筋混凝土造,931203.0,117.96,2,1,2,有,有,有,67000,568.0,,0.0,0,含稅，含二代建保,RPWOMLNKNHKFFCA28CC,25.0635339,121.520902
中山區,建物,臺北市中山區建國北路二段1~30號,0.0,住,1040509,土地0建物1車位0,十層,14.0,住宅大樓(11層含以上有電梯),商業用,鋼筋混凝土造,950713.0,122.72,2,1,2,有,有,有,60000,489.0,,0.0,0,,RPOPMLNKNHKFFCA57CC,25.0523809,121.5371887
中山區,建物,臺北市中山區堤頂大道二段361~390號,0.0,住,1040508,土地0建物1車位1,六層,11.0,住宅大樓(11層含以上有電梯),住家用,鋼筋混凝土造,931230.0,220.1,3,2,2,有,有,有,50000,227.0,坡道平面,30.27,0,,RPWPMLNKNHKFFCA38CC,25.0796301,121.5632486
中山區,建物,臺北市中山區敬業二路91~120號,0.0,商,1040429,土地0建物1車位1,四層,11.0,住宅大樓(11層含以上有電梯),見其他登記事項,鋼筋混凝土造,1010323.0,307.07,3,2,3,有,有,有,110000,358.0,坡道平面,30.69,0,,RPXPMLNKNHKFFCA48CC,25.0823997,121.5543906
文山區,建物,臺北市文山區興隆路二段61~90號,0.0,商,1040421,土地0建物1車位0,一層,4.0,店面(店鋪),住家用,加強磚造,580617.0,81.02,0,0,0,無,無,無,58000,716.0,,0.0,0,,RPUNMLNKNHKFFAA77CC,24.9991408,121.5460812
大安區,建物,臺北市大安區大安路二段142巷1~30號,0.0,住,1040512,土地0建物1車位0,一層,4.0,店面(店鋪),住家用,鋼筋混凝土造,,101.0,2,0,0,有,無,有,50000,495.0,,0.0,0,,RPPNMLNKNHKFFFA77CC,25.0296285,121.5457667
大安區,建物,臺北市大安區新生南路三段1~30號,0.0,住,1040429,土地0建物1車位0,一層,12.0,住宅大樓(11層含以上有電梯),見使用執照,鋼筋混凝土造,730712.0,118.69,0,0,0,無,無,有,48000,404.0,,0.0,0,,RPUNMLNKNHKFFFA28CC,25.0251549,121.5345231
大安區,建物,臺北市大安區和平東路二段271~300號,0.0,商,1040430,土地0建物1車位0,十三層,13.0,辦公商業大樓,商業用,鋼筋混凝土造,801228.0,314.35,4,1,2,有,有,有,168000,534.0,,0.0,0,,RPWNMLNKNHKFFFA48CC,25.0249966,121.5442408
大安區,建物,臺北市大安區信義路四段301~330號,0.0,商,1040429,土地0建物1車位0,一層,12.0,店面(店鋪),商業用,鋼筋混凝土造,741129.0,89.53999999999998,0,0,0,無,有,無,140000,1564.0,,0.0,0,,RPQOMLNKNHKFFFA97CC,25.0333696,121.5553125
大安區,建物,臺北市大安區樂利路11巷1~30號,0.0,,1040421,土地0建物1車位0,六層,7.0,華廈(10層含以下有電梯),住家用,鋼筋混凝土造,711202.0,107.6,3,2,2,有,無,有,33000,307.0,,0.0,0,,RPUNMLOKNHKFFFA38CC,25.0282531,121.5512326
中正區,建物,臺北市中正區羅斯福路二段1~30號,0.0,商,1040415,土地0建物1車位1,十一層,14.0,辦公商業大樓,商業用,鋼筋混凝土造,791023.0,520.13,0,0,0,無,有,有,230000,442.0,升降平面,38.7,0,建物租金為含稅價.,RPWNMLOKNHKFFAA08CC,25.0296105,121.5208404
中正區,建物,臺北市中正區汀州路二段31~60號,0.0,商,1040513,土地0建物1車位0,三層,14.0,住宅大樓(11層含以上有電梯),商業用,鋼筋混凝土造,850126.0,84.59,2,1,1,有,有,無,23000,272.0,,0.0,0,,RPROMLOKNHKFFAA67CC,25.0260967,121.5150696
內湖區,房地(土地+建物),臺北市內湖區文德路22巷9弄31~60號,43.17,住,1040512,土地1建物1車位0,一層,13.0,店面(店鋪),商業用,鋼筋混凝土造,800108.0,120.52,0,0,0,無,有,無,50000,415.0,,0.0,0,,RPVNMLOKNHKFFCA18CC,25.0772646,121.5792852
內湖區,建物,臺北市內湖區金莊路61~90號,0.0,其他,1040430,土地0建物1車位1,九層,14.0,辦公商業大樓,商業用,鋼筋混凝土造,990512.0,194.83,0,0,0,無,有,無,47250,243.0,坡道平面,0.0,0,,RPOOMLOKNHKFFCA57CC,25.0634772,121.5871663
中山區,建物,臺北市中山區民權西路9巷1~30號,0.0,商,1040509,土地0建物1車位0,十三層,14.0,住宅大樓(11層含以上有電梯),住家用,鋼筋混凝土造,1011112.0,79.22,1,1,1,有,有,有,50000,631.0,,0.0,0,,RPPOMLOKNHKFFCA67CC,25.0632923,121.5219717
內湖區,建物,臺北市內湖區新湖二路241~270號,0.0,工,1040514,土地0建物1車位2,四層,6.0,廠辦,見其他登記事項,鋼筋混凝土造,970313.0,477.42,6,0,0,有,有,無,106094,222.0,坡道平面,0.0,0,,RPWOMLOKNHKFFCA38CC,25.0634527,121.5810929
中山區,房地(土地+建物),臺北市中山區中山北路一段53巷1~30號,12.62,商,1040415,土地1建物2車位0,見其他登記事項,12.0,住宅大樓(11層含以上有電梯),住家用,鋼筋混凝土造,970104.0,84.57,1,2,1,有,有,有,39800,471.0,,0.0,0,租金含稅。還有承租二樓。,RPOPMLOKNHKFFCA67CC,25.0492864,121.5218992
士林區,房地(土地+建物),臺北市士林區忠誠路二段10巷31~60號,44.69,住,1040415,土地1建物1車位0,二層,7.0,華廈(10層含以下有電梯),住家用,鋼筋混凝土造,810331.0,128.69,3,2,2,有,有,有,35000,272.0,,0.0,0,,RPTOMLOKNHKFFEA28CC,25.1090895,121.5286269
大同區,建物,臺北市大同區長安西路121~150號,0.0,商,1040416,土地0建物1車位0,二層,14.0,辦公商業大樓,見其他登記事項,鋼筋混凝土造,951014.0,213.52,2,2,1,有,有,有,70000,328.0,,0.0,0,建物租金為未稅12%價。,RPWNMLOKNHKFFBA18CC,25.05131,121.515715
中正區,房地(土地+建物),臺北市中正區延平南路61~90號,2.23,商,1040514,土地1建物1車位0,七層,10.0,華廈(10層含以下有電梯),住家用,鋼筋混凝土造,700402.0,61.78,0,1,1,有,有,有,20000,324.0,,0.0,0,只附冷氣租金含租賃所得稅,RPOOMLOKNHKFFBA47CC,25.044646,121.510461
萬華區,房地(土地+建物),臺北市萬華區漢口街二段31~60號,5.71,商,1040428,土地1建物1車位0,六層,10.0,華廈(10層含以下有電梯),商業用,鋼筋混凝土造,691024.0,50.48,3,1,1,有,有,有,17000,337.0,,0.0,0,,RPRPMLOKNHKFFBA87CC,25.045825,121.505917
信義區,建物,臺北市信義區基隆路二段121~150號,0.0,商,1040422,土地0建物1車位0,一層,12.0,住宅大樓(11層含以上有電梯),商業用,鋼筋混凝土造,750714.0,87.80000000000003,0,0,0,無,有,無,55000,626.0,,0.0,0,,RPTNMLOKNHKFFDA08CC,25.0285037,121.5570023
松山區,建物,臺北市松山區饒河街91~120號,0.0,商,1040428,土地0建物1車位0,一層,5.0,店面(店鋪),商業用,鋼筋混凝土造,651213.0,55.47,0,1,1,有,無,無,33000,595.0,,0.0,0,部份出租,RPOOMLOKNHKFFDA67CC,25.0505023,121.573618
信義區,建物,臺北市信義區崇德街1~30號,0.0,住,1040501,土地0建物1車位0,見其他登記事項,5.0,公寓(5樓含以下無電梯),住家用,鋼筋混凝土造,800124.0,176.76000000000005,3,3,2,有,無,有,38000,215.0,,0.0,0,,RPWOMLOKNHKFFDA48CC,25.0236688,121.5569574
信義區,建物,臺北市信義區吳興街284巷24弄61~90號,0.0,住,1040418,土地0建物1車位0,五層,5.0,公寓(5樓含以下無電梯),住家用,鋼筋混凝土造,670708.0,57.57,2,2,1,有,無,有,20000,347.0,,0.0,0,,RPXOMLOKNHKFFDA58CC,25.02295,121.561644
信義區,建物,臺北市信義區忠孝東路五段236巷37弄1~30號,0.0,住,1040511,土地0建物1車位0,四層,4.0,公寓(5樓含以下無電梯),住家用,鋼筋混凝土造,860515.0,150.54000000000005,2,2,1,有,有,有,45000,299.0,,0.0,0,,RPPPMLOKNHKFFDA87CC,25.038182,121.57206
信義區,建物,臺北市信義區福德街211~240號,0.0,住,1040507,土地0建物1車位0,二層,5.0,公寓(5樓含以下無電梯),住家用,鋼筋混凝土造,,77.17,1,1,1,有,有,有,33000,428.0,,0.0,0,,RPQNMLPKNHKFFDA87CC,25.0383835,121.5846231
南港區,建物,臺北市南港區三重路1~30號,0.0,,1040415,土地0建物1車位0,一層,5.0,公寓(5樓含以下無電梯),見使用執照,鋼筋混凝土造,,123.64,0,0,0,無,無,無,96590,781.0,,0.0,0,,RPRNMLPKNHKFFDA97CC,25.0556136,121.6137698
信義區,建物,臺北市信義區基隆路二段181~210號,0.0,商,1040508,土地0建物1車位1,八層,21.0,辦公商業大樓,見使用執照,鋼筋混凝土造,860221.0,181.63,0,0,0,無,有,無,75000,413.0,坡道平面,0.0,0,,RPSNMLPKNHKFFDA08CC,25.0249938,121.5534894
信義區,建物,臺北市信義區忠孝東路四段553巷52弄1~30號,23.0,工,1040507,土地0建物1車位0,一層,4.0,店面(店鋪),住家用,鋼筋混凝土造,631014.0,72.19,2,2,1,有,無,無,88000,1219.0,,0.0,0,簽約日為104/5/7，租賃期間為104/5/10至108/5/9。104/5/10至104/6/9為免租金裝潢期；106/5/11起租金為96800元,RPTNMLPKNHKFFDA18CC,25.044693,121.562735
松山區,房地(土地+建物),臺北市松山區東興路1~30號,0.0,住,1040507,土地0建物1車位0,二層,7.0,華廈(10層含以下有電梯),住商用,鋼筋混凝土造,750408.0,115.51,3,2,2,有,無,有,33000,286.0,,0.0,0,,RPQOMLPKNHKFFDA97CC,25.0506318,121.5655392
信義區,建物,臺北市信義區信義路六段91~120號,23.75,住,1040508,土地0建物1車位0,一層,4.0,店面(店鋪),住家用,鋼筋混凝土造,,65.1,2,1,1,有,無,無,42000,645.0,,0.0,0,,RPROMLPKNHKFFDA08CC,25.0359859,121.577569
松山區,建物,臺北市松山區八德路四段631~660號,0.0,商,1040514,土地0建物1車位0,六層,13.0,住宅大樓(11層含以上有電梯),住家用,鋼筋混凝土造,1021216.0,66.62,1,1,1,有,有,有,32000,480.0,,0.0,0,,RPUOMLPKNHKFFDA38CC,25.0501957,121.5750038
信義區,建物,臺北市信義區松德路151~180號,0.0,住,1040430,土地0建物1車位0,七層,13.0,華廈(10層含以下有電梯),住家用,鋼筋混凝土造,800309.0,183.43,3,2,2,有,有,有,75000,409.0,,0.0,0,,RPWOMLPKNHKFFDA58CC,25.036644,121.574876
南港區,建物,臺北市南港區三重路1~30號,0.0,工,1040504,土地0建物1車位4,七層,11.0,辦公商業大樓,見其他登記事項,見其他登記事項,880705.0,1220.35,0,0,0,無,有,有,371700,362.0,坡道平面,239.16,16800,,RPXOMLPKNHKFFDA68CC,25.0556136,121.6137698
信義區,房地(土地+建物),臺北市信義區忠孝東路五段372巷27弄61~90號,33.04,商,1040420,土地1建物1車位0,一層,7.0,華廈(10層含以下有電梯),見使用執照,鋼筋混凝土造,,104.53,0,0,0,無,無,無,40000,383.0,,0.0,0,,RPPPMLPKNHKFFDA97CC,25.0400079,121.575822
松山區,建物,臺北市松山區寶清街61~90號,0.0,住,1040502,土地0建物1車位0,二層,4.0,公寓(5樓含以下無電梯),住家用,鋼筋混凝土造,621207.0,98.2,2,2,1,有,無,有,28000,285.0,,0.0,0,,RPRPMLPKNHKFFDA18CC,25.0514479,121.5683415
中正區,建物,臺北市中正區開封街一段61~90號,0.0,商,1040407,土地0建物4車位0,見其他登記事項,8.0,華廈(10層含以下有電梯),商業用,鋼筋混凝土造,771206.0,416.46,0,1,3,有,無,無,130000,312.0,,0.0,0,,RPVNMLPKNHKFFBA18CC,25.0461249,121.512042
大同區,建物,臺北市大同區市民大道一段181~210號,0.0,其他,1040427,土地0建物1車位1,十三層,18.0,住宅大樓(11層含以上有電梯),住家用,見其他登記事項,980724.0,107.99,2,2,1,有,有,有,50000,463.0,坡道平面,0.0,0,含管理費,RPWNMLPKNHKFFBA28CC,25.048493,121.5187377
大同區,建物,臺北市大同區市民大道一段181~210號,0.0,其他,1040425,土地0建物1車位0,十三層,18.0,住宅大樓(11層含以上有電梯),住家用,見其他登記事項,980724.0,92.43,2,2,1,有,有,有,50000,541.0,,0.0,0,含管理費。,RPOOMLPKNHKFFBA57CC,25.048493,121.5187377
大同區,建物,臺北市大同區赤峰街31~60號,0.0,住,1040501,土地0建物1車位0,九層,13.0,住宅大樓(11層含以上有電梯),住家用,鋼筋混凝土造,1020829.0,206.07,3,2,2,有,有,有,86000,417.0,,0.0,0,,RPPOMLPKNHKFFBA67CC,25.0541979,121.5194
中正區,房地(土地+建物),臺北市中正區延平南路61~90號,6.88,商,1040504,土地1建物1車位0,四層,10.0,辦公商業大樓,商業用,鋼筋混凝土造,700402.0,57.61,0,1,1,有,有,有,19900,345.0,,0.0,0,只附冷氣租金含租賃所得稅,RPTOMLPKNHKFFBA08CC,25.044646,121.510461
大同區,建物,臺北市大同區市民大道一段181~210號,0.0,其他,1040507,土地0建物1車位0,八層,18.0,住宅大樓(11層含以上有電梯),住家用,見其他登記事項,980724.0,40.78,1,1,1,有,有,有,28000,687.0,,0.0,0,含管理費,RPUOMLPKNHKFFBA18CC,25.048493,121.5187377
北投區,建物,臺北市北投區榮華三路1~30號,0.0,,1040424,土地0建物1車位0,二層,15.0,住宅大樓(11層含以上有電梯),住家用,鋼筋混凝土造,960521.0,194.81,3,2,2,有,無,有,70000,359.0,,0.0,0,,RPSNMLPKNHKFFEA18CC,25.112843,121.52523
士林區,建物,臺北市士林區中山北路七段14巷1~30號,134.87,住,1040430,土地0建物1車位0,四層,7.0,華廈(10層含以下有電梯),住家用,鋼筋混凝土造,770119.0,134.87,4,2,2,有,有,有,62273,462.0,,0.0,0,,RPVNMLPKNHKFFEA48CC,25.1195978,121.5325851
士林區,建物,臺北市士林區忠誠路一段1~30號,0.0,住,1040501,土地0建物1車位0,三層,14.0,住宅大樓(11層含以上有電梯),住家用,鋼筋混凝土造,941228.0,175.17000000000004,3,2,2,有,有,有,85000,485.0,,0.0,0,含管理費。,RPQOMLPKNHKFFEA08CC,25.1041533,121.5266027
士林區,建物,臺北市士林區中山北路六段172巷1~30號,0.0,住,1040501,土地0建物1車位1,三層,6.0,華廈(10層含以下有電梯),住家用,鋼筋混凝土造,1001223.0,150.98000000000005,2,2,2,有,有,有,59000,391.0,坡道平面,0.0,6000,,RPROMLPKNHKFFEA18CC,25.1073462,121.5261103
北投區,建物,臺北市北投區行義路1~30號,0.0,住,1040501,土地0建物1車位0,十層,11.0,住宅大樓(11層含以上有電梯),住家用,鋼筋混凝土造,931018.0,149.44,3,2,2,有,有,有,65000,435.0,,0.0,0,,RPTOMLPKNHKFFEA38CC,25.1240896,121.5258133
士林區,建物,臺北市士林區天母東路43巷4弄1~30號,0.0,商,1040501,土地0建物1車位0,七層,7.0,華廈(10層含以下有電梯),住家用,鋼筋混凝土造,690325.0,119.6,3,2,2,有,有,有,76000,635.0,,0.0,0,含管理費,RPVOMLPKNHKFFEA58CC,25.118741,121.53248
士林區,建物,臺北市士林區中山北路六段157巷1~30號,0.0,工,1040506,土地0建物1車位0,五層,15.0,住宅大樓(11層含以上有電梯),見其他登記事項,鋼筋混凝土造,971002.0,117.03,2,2,1,有,有,有,65000,555.0,,0.0,0,含管理費,RPXOMLPKNHKFFEA78CC,25.1067274,121.5247651
中山區,建物,臺北市中山區松江路69巷1~30號,0.0,住,1040508,土地0建物1車位0,二層,7.0,華廈(10層含以下有電梯),住家用,鋼筋混凝土造,1020903.0,70.5,1,1,1,有,有,有,30000,426.0,,0.0,0,,RPTNMLPKNHKFFCA08CC,25.049443,121.5334143
中山區,建物,臺北市中山區撫順街31~60號,0.0,,1040515,土地0建物1車位0,三層,9.0,華廈(10層含以下有電梯),商業用,鋼筋混凝土造,791127.0,100.25,5,1,0,有,無,有,60000,599.0,,0.0,0,,RPXNMLPKNHKFFCA48CC,25.0635542,121.5200727
中山區,建物,臺北市中山區林森北路361~390號,0.0,商,1040417,土地0建物1車位0,十二層,18.0,住宅大樓(11層含以上有電梯),商業用,鋼筋混凝土造,980916.0,144.09,2,1,2,有,有,有,90000,625.0,,0.0,0,含稅,RPSOMLPKNHKFFCA08CC,25.0572804,121.5257191
中山區,建物,臺北市中山區松江路211~240號,0.0,,1040430,土地0建物3車位0,十六層,16.0,辦公商業大樓,商業用,鋼筋混凝土造,770917.0,740.0600000000002,11,2,2,有,有,有,357872,484.0,,0.0,0,,RPVOMLPKNHKFFCA38CC,25.0573328,121.5333792
中山區,建物,臺北市中山區臺北市中山區民權東路三段31~60號,0.0,,1040430,土地0建物1車位0,七層,16.0,辦公商業大樓,商業用,鋼筋混凝土造,790301.0,228.22,3,0,0,有,有,無,100000,438.0,,0.0,0,,RPWOMLPKNHKFFCA48CC,25.062385,121.5439535
中山區,建物,臺北市中山區新生北路三段56巷1~30號,0.0,商,1040501,土地0建物1車位0,五層,13.0,住宅大樓(11層含以上有電梯),住家用,鋼筋混凝土造,981021.0,75.78999999999998,2,2,1,有,有,有,46000,607.0,,0.0,0,,RPXOMLPKNHKFFCA58CC,25.0654686,121.5273555
中山區,建物,臺北市中山區中山北路一段53巷1~30號,0.0,商,1040501,土地0建物1車位0,八層,10.0,華廈(10層含以下有電梯),住家用,鋼筋混凝土造,971030.0,106.53,1,2,1,有,有,有,65000,610.0,,0.0,0,含管理費,RPPPMLPKNHKFFCA87CC,25.0492864,121.5218992
中山區,建物,臺北市中山區撫順街1~30號,0.0,商,1040501,土地0建物1車位0,十一層,15.0,住宅大樓(11層含以上有電梯),住家用,鋼筋混凝土造,1000630.0,63.45,1,2,1,有,有,有,35000,552.0,,0.0,0,含管理費。,RPQPMLPKNHKFFCA97CC,25.0635339,121.520902
中山區,建物,臺北市中山區南京東路二段181~210號,0.0,商,1040501,土地0建物1車位0,六層,15.0,住宅大樓(11層含以上有電梯),住家用,鋼筋混凝土造,990528.0,136.03,3,2,2,有,有,有,65000,478.0,,0.0,0,,RPRPMLPKNHKFFCA08CC,25.0519418,121.5351411
中山區,建物,臺北市中山區撫順街1~30號,0.0,商,1040508,土地0建物1車位0,二層,15.0,住宅大樓(11層含以上有電梯),住家用,鋼筋混凝土造,1000630.0,68.4,1,2,1,有,有,有,35000,512.0,,0.0,0,,RPWPMLPKNHKFFCA58CC,25.0635339,121.520902
中山區,建物,臺北市中山區林森北路331~360號,0.0,商,1040510,土地0建物1車位0,十一層,24.0,住宅大樓(11層含以上有電梯),住家用,見其他登記事項,1021101.0,204.06,4,2,2,有,有,有,83000,407.0,,0.0,0,,RPOQMLPKNHKFFCA87CC,25.056386,121.525667
中山區,建物,臺北市中山區復興北路61~90號,0.0,商,1040510,土地0建物1車位0,五層,12.0,住宅大樓(11層含以上有電梯),商業用,鋼筋混凝土造,700320.0,86.63000000000002,2,2,1,有,有,有,30000,346.0,,0.0,0,,RPPQMLPKNHKFFCA97CC,25.0661001,121.5415774
中山區,建物,臺北市中山區中山北路二段93巷1~30號,0.0,商,1040511,土地0建物1車位0,九層,12.0,住宅大樓(11層含以上有電梯),商業用,鋼筋混凝土造,940803.0,42.5,1,2,2,有,有,有,35000,824.0,,0.0,0,含管理費。,RPQQMLPKNHKFFCA08CC,25.0594195,121.5233012
中山區,建物,臺北市中山區林森北路259巷1~30號,0.0,商,1040511,土地0建物1車位0,九層,17.0,住宅大樓(11層含以上有電梯),住家用,鋼筋混凝土造,850718.0,61.16,2,2,1,有,有,有,30000,491.0,,0.0,0,含管理費。,RPRQMLPKNHKFFCA18CC,25.0543839,121.5261346
中山區,建物,臺北市中山區天祥路31~60號,0.0,商,1040420,土地0建物1車位0,四層,10.0,辦公商業大樓,商業用,鋼筋混凝土造,900719.0,78.62,1,1,0,有,有,有,34000,432.0,,0.0,0,建物租金為含稅價。,RPSQMLPKNHKFFCA28CC,25.061333,121.521119
中正區,建物,臺北市中正區寧波西街31~60號,0.0,商,1040502,土地0建物1車位0,六層,12.0,住宅大樓(11層含以上有電梯),商業用,鋼筋混凝土造,860610.0,118.18,2,2,2,有,無,有,40000,338.0,,0.0,0,含管理費,RPOOMLPKNHKFFAA47CC,25.0311845,121.5181331
中正區,房地(土地+建物),臺北市中正區羅斯福路二段121~150號,29.5,商,1040422,土地1建物1車位0,二層,12.0,辦公商業大樓,見使用執照,鋼筋混凝土造,,125.28,0,0,0,無,有,無,36364,290.0,,0.0,0,,RPSOMLPKNHKFFAA87CC,25.0263567,121.5228344
內湖區,房地(土地+建物)+車位,臺北市內湖區新湖一路61~90號,8248.71,工,1040429,土地1建物1車位2,五層,7.0,廠辦,見其他登記事項,鋼筋混凝土造,1010626.0,260.74,0,6,0,有,無,有,84830,405.0,坡道平面,66.3,6000,,RPOOMLPKNHKFFCA77DC,25.0582581,121.5750636
大安區,建物,臺北市大安區敦化南路一段177巷1~30號,0.0,住,1040506,土地0建物2車位0,一層,9.0,店面(店鋪),見其他登記事項,鋼筋混凝土造,970219.0,180.76,0,2,1,有,有,無,195000,1079.0,,0.0,0,,RPPNMLPKNHKFFFA97CC,25.0431428,121.5498266
大安區,建物,臺北市大安區復興南路一段361~390號,0.0,,1040430,土地0建物1車位0,十一層,14.0,辦公商業大樓,商業用,鋼筋混凝土造,691117.0,345.29,4,0,0,有,有,無,138000,400.0,,0.0,0,,RPRNMLPKNHKFFFA18CC,25.0353043,121.5435527
大安區,建物,臺北市大安區臥龍街1~30號,0.0,商,1040508,土地0建物1車位0,十一層,12.0,住宅大樓(11層含以上有電梯),商業用,鋼筋混凝土造,800913.0,84.37,3,2,2,有,有,有,46000,545.0,,0.0,0,,RPSNMLPKNHKFFFA28CC,25.0244268,121.5468073
大安區,建物,臺北市大安區光復南路631~660號,0.0,商,1040501,土地0建物1車位0,十二層,14.0,住宅大樓(11層含以上有電梯),住家用,鋼筋混凝土造,970627.0,77.51,1,2,1,有,有,有,40000,516.0,,0.0,0,,RPTNMLPKNHKFFFA38CC,25.0310886,121.5571994
大安區,建物,臺北市大安區基隆路二段241~270號,0.0,住,1040511,土地0建物1車位0,五層,13.0,住宅大樓(11層含以上有電梯),住家用,鋼筋混凝土造,1001130.0,289.35,3,2,4,有,有,有,99497,344.0,,0.0,0,,RPXNMLPKNHKFFFA78CC,25.0226316,121.5506748
大安區,建物,臺北市大安區敦化南路二段211~240號,0.0,其他,1040513,土地0建物1車位0,五層,18.0,住宅大樓(11層含以上有電梯),住家用,鋼筋混凝土造,791108.0,164.1,2,1,2,有,有,有,75000,457.0,,0.0,0,,RPPNMLQKNHKFFFA08CC,25.0257792,121.5492911
文山區,建物,臺北市文山區三福街9巷1~30號,0.0,住,1040429,土地0建物1車位1,九層,15.0,住宅大樓(11層含以上有電梯),住家用,鋼筋混凝土造,990929.0,129.83,2,2,1,有,有,有,25000,193.0,坡道平面,35.58,0,,RPPNMLQKNHKFFAA57CC,24.997444,121.5424727
文山區,建物,臺北市文山區羅斯福路五段121~150號,0.0,商,1040511,土地0建物1車位0,一層,6.0,店面(店鋪),商業用,鋼筋混凝土造,760313.0,113.01,0,0,0,無,無,無,38000,336.0,,0.0,0,,RPQNMLQKNHKFFAA67CC,25.00492,121.539091
中山區,建物,臺北市中山區建國北路一段31~60號,0.0,商,1040507,土地0建物1車位0,十層,15.0,住宅大樓(11層含以上有電梯),住家用,鋼筋混凝土造,960913.0,72.3,2,1,1,有,有,有,36000,498.0,,0.0,0,,RPPNMLQKNHKFFCA77CC,25.0478385,121.5393649
中山區,建物,臺北市中山區敬業一路181~210號,0.0,商,1040429,土地0建物1車位0,十一層,11.0,住宅大樓(11層含以上有電梯),商業用,鋼筋混凝土造,970328.0,130.44,2,2,2,有,有,有,60000,460.0,,0.0,0,,RPQNMLQKNHKFFCA87CC,25.0842968,121.5536954
內湖區,房地(土地+建物)+車位,臺北市內湖區瑞光路76巷1~30號,494.41,工,1040515,土地1建物1車位1,一層,6.0,辦公商業大樓,工業用,鋼筋混凝土造,880630.0,312.11,0,0,0,無,有,無,84700,271.0,坡道平面,41.32,0,,RPTNMLQKNHKFFCA18CC,25.0708467,121.5812938
內湖區,建物,臺北市內湖區港墘路181~210號,0.0,其他,1040515,土地0建物1車位0,六層,7.0,辦公商業大樓,見其他登記事項,鋼筋混凝土造,990826.0,552.54,5,2,2,有,有,有,147800,267.0,,0.0,0,,RPWNMLQKNHKFFCA48CC,25.076097,121.5750774
士林區,建物,臺北市士林區忠誠路二段1~30號,15.17,住,1040427,土地0建物1車位0,一層,14.0,店面(店鋪),商業用,鋼筋混凝土造,711231.0,133.54999999999998,0,0,0,無,有,無,140000,1048.0,,0.0,0,,RPPNMLQKNHKFFEA97CC,25.1085999,121.5305816
北投區,建物,臺北市士林區大業路631~660號,44.32,住,1040502,土地0建物1車位0,一層,9.0,店面(店鋪),商業用,鋼筋混凝土造,851021.0,184.03,0,0,0,無,有,無,60000,326.0,,0.0,0,,RPQNMLQKNHKFFEA08CC,25.1371364,121.4984866
松山區,建物,臺北市松山區復興北路481~510號,0.0,住,1040513,土地0建物1車位0,十一層,11.0,住宅大樓(11層含以上有電梯),住家用,鋼筋混凝土造,960216.0,82.85,1,1,1,有,有,有,30000,362.0,,0.0,0,,RPPNMLQKNHKFFDA87CC,25.0649001,121.5445193
松山區,建物,臺北市松山區八德路二段391~420號,0.0,商,1040513,土地0建物1車位0,九層,13.0,住宅大樓(11層含以上有電梯),見其他登記事項,鋼筋混凝土造,950823.0,71.47999999999998,2,2,2,有,有,有,48000,672.0,,0.0,0,,RPQNMLQKNHKFFDA97CC,25.0483677,121.5462852
松山區,建物,臺北市松山區敦化南路一段1~30號,0.0,其他,1040511,土地0建物1車位0,三層,10.0,辦公商業大樓,商業用,鋼筋混凝土造,,330.59,0,0,0,有,有,無,136500,413.0,,0.0,0,本戶承租含公設約100坪,RPRNMLQKNHKFFDA08CC,25.047677,121.549351
信義區,建物,臺北市信義區崇德街31~60號,0.0,住,1040513,土地0建物1車位0,一層,7.0,華廈(10層含以下有電梯),商業用,鋼筋混凝土造,760522.0,222.23,2,0,1,有,無,無,60000,270.0,,0.0,0,,RPSNMLQKNHKFFDA18CC,25.024309,121.554059
南港區,建物,臺北市南港區研究院路一段91~120號,0.0,商,1040504,土地0建物1車位0,六層,18.0,住宅大樓(11層含以上有電梯),住家用,鋼筋混凝土造,871109.0,108.0,3,2,2,有,有,有,28000,259.0,,0.0,0,,RPVNMLQKNHKFFDA48CC,25.052366,121.616392
松山區,建物,臺北市松山區光復南路31~60號,0.0,住,1040513,土地0建物1車位1,四層,11.0,辦公商業大樓,工業用,鋼筋混凝土造,640626.0,720.23,5,0,3,有,有,無,275000,382.0,一樓平面,0.0,0,,RPTNMLSKNHKFFDA48CC,25.046702,121.5577237
松山區,建物,臺北市松山區南京東路五段61~90號,0.0,商,1040504,土地0建物1車位0,六層,12.0,辦公商業大樓,商業用,鋼筋混凝土造,750519.0,84.42,0,0,0,無,有,有,27000,320.0,,0.0,0,,RPWNMLSKNHKFFDA78CC,25.0517366,121.5594407
信義區,建物,臺北市信義區吳興街345巷1~30號,0.0,住,1040516,土地0建物1車位0,一層,5.0,公寓(5樓含以下無電梯),住商用,鋼筋混凝土造,,74.71,0,0,1,有,無,無,28572,382.0,,0.0,0,,RPOOMLSKNHKFFDA08CC,25.0266625,121.5658683
松山區,建物,臺北市松山區延吉街46巷1~30號,0.0,住,1040426,土地0建物1車位0,一層,7.0,華廈(10層含以下有電梯),住商用,鋼筋混凝土造,,105.49,3,2,2,有,有,有,50000,474.0,,0.0,0,,RPUOMLSKNHKFFDA68CC,25.0452797,121.5535632
松山區,建物,臺北市松山區基隆路一段31~60號,0.0,商,1040428,土地0建物1車位0,六層,10.0,辦公商業大樓,商業用,鋼筋混凝土造,830208.0,117.18,1,1,1,有,無,有,32000,273.0,,0.0,0,,RPOPMLSKNHKFFDA18CC,25.0500851,121.569653
信義區,建物,臺北市信義區松山路571~600號,0.0,,1040516,土地0建物1車位0,一層,4.0,公寓(5樓含以下無電梯),住家用,鋼筋混凝土造,630820.0,82.3,0,0,0,無,無,無,49000,595.0,,0.0,0,,RPPPMLSKNHKFFDA28CC,25.037356,121.578375
松山區,建物,臺北市松山區南京東路四段91~120號,9.76,,1040506,土地0建物1車位0,七層,12.0,辦公商業大樓,住家用,鋼筋混凝土造,710429.0,100.61,0,0,0,無,無,有,33409,332.0,,0.0,0,租賃期間自民國104年05月06日起至民國106年05月14日止.合計2年.其中104年05月06日起至104年05月14日止為免租金裝修期.,RPTPMLSKNHKFFDA68CC,25.0518593,121.5542039
士林區,建物,臺北市士林區士林區中山北路六段157巷1~30號,0.0,工,1040420,土地0建物1車位0,八層,15.0,住宅大樓(11層含以上有電梯),見其他登記事項,鋼筋混凝土造,971002.0,92.54,2,1,1,有,有,有,50000,540.0,,0.0,0,含稅，含二代建保,RPWOMLSKNHKFFEA98CC,25.1157822,121.5278027
大同區,建物,臺北市大同區市民大道一段181~210號,0.0,其他,1040415,土地0建物1車位0,十四層,18.0,住宅大樓(11層含以上有電梯),住家用,見其他登記事項,980724.0,72.24000000000002,2,1,1,有,無,有,55000,761.0,,0.0,0,,RPPNMLSKNHKFFBA87CC,25.048493,121.5187377
大同區,建物,臺北市大同區南京西路25巷31~60號,0.0,商,1040415,土地0建物1車位0,六層,7.0,華廈(10層含以下有電梯),住家用,鋼筋混凝土造,970626.0,107.86,2,1,1,有,無,有,42000,389.0,,0.0,0,,RPQNMLSKNHKFFBA97CC,25.0568399,121.5204985
中正區,建物,臺北市中正區信義路二段151~180號,0.0,住,1040512,土地0建物4車位0,見其他登記事項,5.0,公寓(5樓含以下無電梯),,加強磚造,,1306.72,0,0,0,無,無,無,600000,459.0,,0.0,0,,RPVNMLSKNHKFFBA48CC,25.03411,121.528614
中正區,建物,臺北市中正區武昌街一段1~30號,0.0,,1040430,土地0建物1車位0,全,3.0,透天厝,住商用,加強磚造,,73.32,0,0,0,無,無,無,160000,2182.0,,0.0,0,,RPWNMLSKNHKFFBA58CC,25.044166,121.513572
大同區,建物,臺北市大同區迪化街一段181~210號,0.0,住,1040424,土地0建物1車位0,一層,3.0,店面(店鋪),見其他登記事項,加強磚造,,187.26,1,0,2,有,無,有,50000,267.0,,0.0,0,,RPXNMLSKNHKFFBA68CC,25.0589893,121.5096122
內湖區,建物,臺北市內湖區內湖路一段91巷92弄31~60號,0.0,住,1040503,土地0建物1車位0,二層,5.0,公寓(5樓含以下無電梯),住家用,鋼筋混凝土造,771129.0,107.04,3,2,2,有,有,無,26000,243.0,,0.0,0,,RPOOMLSKNHKFFCA97CC,25.088204,121.564985
中山區,建物,臺北市中山區中山北路二段65巷1~30號,0.0,商,1040420,土地0建物1車位0,七層,14.0,住宅大樓(11層含以上有電梯),商業用,鋼筋混凝土造,901112.0,69.36,2,2,1,有,有,有,38000,548.0,,0.0,0,,RPROMLSKNHKFFCA28CC,25.0571759,121.52326
中山區,建物,臺北市中山區中山北路二段77巷1~30號,0.0,商,1040430,土地0建物1車位0,二層,9.0,華廈(10層含以下有電梯),商業用,鋼筋混凝土造,651204.0,161.11,2,1,2,有,無,無,56819,353.0,,0.0,0,含稅，含二代建保契約期間 2年21日,RPWOMLSKNHKFFCA78CC,25.0576603,121.5230347
中山區,建物,臺北市中山區松江路64巷1~30號,0.0,商,1040427,土地0建物0車位0,地下層,5.0,公寓(5樓含以下無電梯),住家用,鋼筋混凝土造,770813.0,81.15,1,1,1,有,無,有,13000,160.0,,0.0,0,此物件只承租地下一樓,RPPPMLSKNHKFFCA18CC,25.0456563,121.5329859
中山區,建物,臺北市中山區錦州街30巷1~30號,0.0,商,1040428,土地0建物1車位0,八層,10.0,華廈(10層含以下有電梯),住家用,鋼筋混凝土造,680613.0,27.97,1,0,1,有,有,有,12500,447.0,,0.0,0,,RPQPMLSKNHKFFCA28CC,25.0601539,121.5249221
士林區,建物,臺北市士林區天母西路1~30號,0.0,商,1040427,土地0建物1車位0,一層,7.0,華廈(10層含以下有電梯),商業用,鋼筋混凝土造,710210.0,76.0,0,0,0,無,無,無,80000,1053.0,,0.0,0,,RPQOMLSKNHKFFEA48DC,25.1185814,121.5295361
大安區,建物,臺北市大安區忠孝東路四段216巷19弄1~30號,0.0,,1040514,土地0建物1車位0,二層,7.0,華廈(10層含以下有電梯),住家用,鋼筋混凝土造,,126.32,2,2,2,有,無,有,38000,301.0,,0.0,0,,RPRNMLSKNHKFFFA48CC,25.0404607,121.5530865
大安區,建物,臺北市大安區麗水街1~30號,0.0,住,1040423,土地0建物1車位0,五層,7.0,住宅大樓(11層含以上有電梯),住家用,鋼筋混凝土造,1000322.0,90.71,1,2,1,有,有,有,40000,441.0,,0.0,0,,RPTNMLSKNHKFFFA68CC,25.0325879,121.529128
大安區,建物,臺北市大安區信義路四段265巷21弄1~30號,0.0,住,1040323,土地0建物1車位0,一層,7.0,華廈(10層含以下有電梯),住家用,鋼筋混凝土造,,113.97,1,1,2,有,無,無,80000,702.0,,0.0,0,,RPVNMLSKNHKFFFA88CC,25.0343286,121.5549859
大安區,建物,臺北市大安區瑞安路142巷1~30號,0.0,住,1040423,土地0建物1車位0,十二層,13.0,住宅大樓(11層含以上有電梯),住家用,鋼筋混凝土造,960623.0,48.64,2,1,1,有,有,有,24000,493.0,,0.0,0,,RPOOMLSKNHKFFFA28CC,25.0295121,121.5420038
大安區,建物,臺北市大安區敦化南路二段81巷31~60號,0.0,住,1040512,土地0建物1車位0,一層,4.0,店面(店鋪),住家用,鋼筋混凝土造,,93.52,0,0,1,有,無,有,115000,1230.0,,0.0,0,,RPQNMLTKNHKFFFA48CC,25.0300712,121.5501083
大安區,建物,臺北市大安區仁愛路四段112巷3弄1~30號,0.0,商,1040515,土地0建物1車位0,一層,7.0,店面(店鋪),商業用,鋼筋混凝土造,720121.0,130.83,0,0,0,無,無,無,95000,726.0,,0.0,0,,RPRNMLTKNHKFFFA58CC,25.0370195,121.5494679
大安區,建物,臺北市大安區通化街61~90號,0.0,商,1040427,土地0建物1車位0,見其他登記事項,3.0,店面(店鋪),,加強磚造,,134.25,0,0,0,無,無,無,230000,1713.0,,0.0,0,,RPSNMLTKNHKFFFA68CC,25.0304635,121.5543416
大安區,建物,臺北市大安區樂業街79巷1~30號,0.0,住,1040515,土地0建物1車位0,二層,6.0,華廈(10層含以下有電梯),住家用,鋼筋混凝土造,850523.0,82.09,2,2,1,有,無,有,20000,244.0,,0.0,0,,RPTNMLTKNHKFFFA78CC,25.0216512,121.5511669
大安區,建物,臺北市大安區通化街200巷1~30號,0.0,住,1040508,土地0建物1車位0,四層,5.0,公寓(5樓含以下無電梯),住家用,鋼筋混凝土造,730614.0,118.57,3,2,2,有,無,有,28000,236.0,,0.0,0,,RPUNMLTKNHKFFFA88CC,25.0263258,121.5524681
大安區,建物,臺北市大安區忠孝東路三段211~240號,120.0,住,1040518,土地0建物1車位0,三層,5.0,公寓(5樓含以下無電梯),住家用,鋼筋混凝土造,601113.0,99.46,2,1,1,有,無,無,30000,302.0,,0.0,0,,RPWNMLTKNHKFFFA09CC,25.041912,121.5395191
士林區,建物,臺北市士林區大西路31~60號,0.0,商,1040515,土地0建物1車位0,一層,3.0,店面(店鋪),住商用,加強磚造,580703.0,41.44,0,0,0,無,無,無,42000,1014.0,,0.0,0,租金含代扣繳租賃所得稅,RPPPMLTKNHKFFEA58DC,25.0905762,121.5243362
中山區,建物,臺北市中山區明水路526巷31~60號,0.0,住,1040511,土地0建物1車位1,九層,9.0,華廈(10層含以下有電梯),住家用,鋼筋混凝土造,930518.0,317.2,3,2,3,有,有,有,160000,504.0,坡道平面,38.33,0,租金內含園丁費用,RPPNMLTKNHKFFCA08CC,25.0793519,121.5533868
中山區,建物,臺北市中山區南京東路二段91~120號,0.0,商,1040507,土地0建物1車位0,八層,18.0,住宅大樓(11層含以上有電梯),住家用,見其他登記事項,990917.0,61.45,1,1,1,有,有,有,36000,586.0,,0.0,0,,RPUNMLTKNHKFFCA58CC,25.0522884,121.5321795
內湖區,建物,臺北市內湖區洲子街61~90號,360.0,商,1040518,土地0建物3車位0,六層,10.0,辦公商業大樓,工業用,鋼筋混凝土造,930601.0,900.9,1,0,0,無,無,有,462925,514.0,,0.0,0,,RPWNMLTKNHKFFCA78CC,25.0796946,121.5729014
中山區,建物,臺北市中山區雙城街25巷1~30號,0.0,商,1040519,土地0建物1車位0,四層,4.0,公寓(5樓含以下無電梯),,加強磚造,,88.7,2,2,1,有,無,有,20000,225.0,,0.0,0,,RPQOMLTKNHKFFCA28CC,25.066379,121.524449
內湖區,房地(土地+建物)+車位,臺北市內湖區新湖二路151~180號,0.0,工,1040421,土地0建物1車位1,二層,6.0,廠辦,工業用,鋼筋混凝土造,910411.0,350.08,0,0,0,無,有,無,70000,200.0,坡道平面,0.0,0,,RPQPMLTKNHKFFCA38CC,25.0616772,121.5777644
內湖區,房地(土地+建物)+車位,臺北市內湖區新湖一路151~180號,0.0,工,1040421,土地0建物1車位4,一層,7.0,廠辦,見其他登記事項,鋼筋混凝土造,980623.0,464.65,0,0,0,無,有,無,135000,291.0,坡道平面,0.0,0,,RPVPMLTKNHKFFCA88CC,25.0584465,121.5774714
中山區,房地(土地+建物),臺北市中山區德惠街1~30號,3.95,商,1040516,土地1建物1車位0,四層,12.0,住宅大樓(11層含以上有電梯),住家用,鋼筋混凝土造,930211.0,40.49,0,0,0,無,無,有,18500,457.0,,0.0,0,,RPOQMLTKNHKFFCA28CC,25.066913,121.5230068
中山區,建物,臺北市中山區民權東路二段121~150號,0.0,商,1040420,土地0建物1車位0,十層,12.0,住宅大樓(11層含以上有電梯),住家用,鋼筋混凝土造,710624.0,59.57,2,1,1,有,有,有,32000,537.0,,0.0,0,含稅，含二代建保,RPSQMLTKNHKFFCA68CC,25.0626361,121.5345646
內湖區,房地(土地+建物),臺北市內湖區內湖路一段661~690號,56.34,住,1040518,土地1建物1車位0,十三層,18.0,住宅大樓(11層含以上有電梯),住家用,見其他登記事項,991123.0,84.98,2,2,1,有,無,有,43000,506.0,,0.0,0,售價包含裝潢或家電。;此物件含管理費2572元及網路第四台1600元租賃範圍不含車位，且無法區分車位面積。含管理費、稅金或水電等費用。,RPUQMLTKNHKFFCA88CC,25.0802328,121.575526
中山區,建物,臺北市中山區中山北路二段91~120號,0.0,商,1040513,土地0建物1車位0,六層,12.0,辦公商業大樓,商業用,鋼筋混凝土造,730326.0,75.21,0,0,0,無,有,無,20000,266.0,,0.0,0,,RPPRMLTKNHKFFCA48CC,25.059308,121.523262
中山區,建物,臺北市中山區德惠街151~180號,0.0,住,1040518,土地0建物1車位0,七層,7.0,華廈(10層含以下有電梯),住家用,鋼筋混凝土造,760916.0,142.05,3,2,2,有,有,有,34000,239.0,,0.0,0,,RPQRMLTKNHKFFCA58CC,25.0666858,121.5307668
大同區,建物,臺北市大同區市民大道一段181~210號,0.0,其他,1040416,土地0建物1車位0,十一層,18.0,住宅大樓(11層含以上有電梯),住家用,見其他登記事項,980724.0,74.69,1,1,1,有,無,有,53000,710.0,,0.0,0,,RPQNMLTKNHKFFBA08CC,25.048493,121.5187377
大同區,建物,臺北市大同區南京西路25巷31~60號,0.0,住,1040424,土地0建物1車位0,四層,7.0,華廈(10層含以下有電梯),住家用,鋼筋混凝土造,970626.0,99.72,2,2,1,有,有,有,40000,401.0,,0.0,0,,RPUNMLTKNHKFFBA48CC,25.0568399,121.5204985
大同區,建物,臺北市大同區承德路三段31~60號,0.0,商,1040511,土地0建物1車位0,六層,12.0,住宅大樓(11層含以上有電梯),住家用,鋼筋混凝土造,720623.0,98.23,1,1,1,有,有,無,26000,265.0,,0.0,0,,RPPOMLTKNHKFFBA08CC,25.0642892,121.518576
中正區,建物,臺北市中正區忠孝西路一段31~60號,0.0,商,1040430,土地0建物4車位0,二十二層,27.0,辦公商業大樓,住家用,鋼骨混凝土造,790815.0,321.37,3,1,2,有,有,有,140000,436.0,,0.0,0,,RPQOMLTKNHKFFBA18CC,25.0460552,121.5187502
中正區,建物,臺北市中正區忠孝西路一段31~60號,0.0,商,1040421,土地0建物1車位0,二十三層,27.0,辦公商業大樓,住家用,鋼骨混凝土造,790815.0,47.51,0,0,0,無,有,無,19000,400.0,,0.0,0,,RPSOMLTKNHKFFBA38CC,25.0460552,121.5187502
萬華區,建物,臺北市萬華區和平西路三段61~90號,0.0,其他,1040517,土地0建物1車位0,十二層,13.0,住宅大樓(11層含以上有電梯),住家用,鋼筋混凝土造,1000315.0,108.81,3,2,1,有,有,有,28000,257.0,,0.0,0,,RPTOMLTKNHKFFBA48CC,25.0353623,121.5023583
中正區,建物,臺北市中正區信義路二段91~120號,0.0,商,1040507,土地0建物1車位0,三層,10.0,華廈(10層含以下有電梯),商業用,鋼筋混凝土造,860515.0,38.04,1,1,1,有,有,有,28000,736.0,,0.0,0,,RPWOMLTKNHKFFBA78CC,25.0344053,121.5269823
大同區,建物,臺北市大同區太原路115巷1~30號,0.0,商,1040512,土地0建物1車位0,一層,5.0,公寓(5樓含以下無電梯),見使用執照,鋼筋混凝土造,820517.0,120.64,0,0,0,無,無,無,40000,332.0,,0.0,0,,RPVPMLTKNHKFFBA78CC,25.0526659,121.516225
北投區,建物,臺北市北投區中和街301~330號,0.0,商,1040429,土地0建物2車位0,見其他登記事項,2.0,店面(店鋪),住家用,磚造,441001.0,129.08,0,0,0,無,無,無,76500,593.0,,0.0,0,,RPSOMLTKNHKFFEA68CC,25.140576,121.500053
北投區,建物,臺北市北投區中和街301~330號,0.0,商,1040429,土地0建物1車位0,一層,2.0,店面(店鋪),住家用,加強磚造,490110.0,74.27,0,0,0,無,無,無,53500,720.0,,0.0,0,,RPTOMLTKNHKFFEA78CC,25.140576,121.500053
北投區,建物,臺北市北投區明德路121~150號,0.0,住,1040505,土地0建物1車位0,一層,4.0,店面(店鋪),住家用,鋼筋混凝土造,650324.0,117.52,0,0,0,無,無,無,113636,967.0,,0.0,0,,RPUOMLTKNHKFFEA88CC,25.1099644,121.5199813
松山區,建物,臺北市松山區富錦街421~450號,0.0,住,1040430,土地0建物1車位0,一層,7.0,店面(店鋪),見使用執照,鋼筋混凝土造,670322.0,147.95000000000005,0,0,0,無,無,無,160000,1081.0,,0.0,0,租賃範圍不含現有停車位,RPTNMLTKNHKFFDA58CC,25.061011,121.561109
松山區,建物,臺北市松山區八德路三段106巷31~60號,0.0,住,1040514,土地0建物1車位0,一層,4.0,店面(店鋪),住家用,鋼筋混凝土造,620227.0,83.52000000000002,0,0,1,有,無,有,58000,694.0,,0.0,0,,RPVNMLTKNHKFFDA78CC,25.0469257,121.5542841
信義區,建物,臺北市信義區110信義路五段150巷1~30號,0.0,商,1040418,土地0建物1車位0,十九層,22.0,辦公商業大樓,見使用執照,鋼骨混凝土造,841124.0,589.29,0,0,0,無,有,無,332660,565.0,,0.0,0,,RPXNMLTKNHKFFDA98CC,25.025725,121.57263
信義區,車位,臺北市信義區和平東路三段151~180號,1.11,住,1040515,土地0建物0車位1,,,其他,,,,38.64,0,0,0,有,無,有,4300,,坡道平面,38.64,4300,,RPOOMLTKNHKFFDA18CC,25.0241941,121.5530874
信義區,建物,臺北市信義區松勤街31~60號,0.0,,1040511,土地0建物1車位1,三層,9.0,華廈(10層含以下有電梯),住家用,鋼筋混凝土造,870422.0,172.17000000000004,1,2,2,有,有,無,40000,232.0,坡道平面,0.0,0,,RPPOMLTKNHKFFDA28CC,25.0320494,121.5623214
信義區,建物,臺北市信義區松勤街1~30號,0.0,其他,1040421,土地0建物1車位0,十七層,19.0,住宅大樓(11層含以上有電梯),住家用,見其他登記事項,961225.0,98.4,2,1,1,有,有,有,100000,1016.0,,0.0,0,租金含?、含二代健保。,RPUNMLKLNHKFFDA87CC,25.0322281,121.5604846
松山區,建物,臺北市松山區南京東路三段241~270號,0.0,商,1040512,土地0建物1車位2,六層,17.0,辦公商業大樓,商業用,鋼筋混凝土造,780214.0,688.98,0,0,0,無,有,無,400000,581.0,坡道平面,78.9,0,,RPSPMLKLNHKFFDA87CC,25.0517696,121.5443012
信義區,建物,臺北市信義區吳興街156巷22弄1~30號,0.0,住,1040520,土地0建物2車位0,一層,7.0,華廈(10層含以下有電梯),商業用,鋼筋混凝土造,811110.0,183.43,4,2,2,有,無,無,37000,202.0,,0.0,0,,RPPQMLKLNHKFFDA67CC,25.0286328,121.560542
信義區,建物,臺北市信義區信義路五段150巷301~330號,0.0,住,1040515,土地0建物1車位0,十二層,13.0,住宅大樓(11層含以上有電梯),住家用,鋼筋混凝土造,980408.0,94.99,2,2,2,有,有,有,51000,537.0,,0.0,0,,RPORMLKLNHKFFDA67CC,25.031659,121.562316
松山區,建物,臺北市松山區慶城街46巷1~30號,0.0,其他,1040519,土地0建物1車位0,四層,7.0,華廈(10層含以下有電梯),住家用,鋼筋混凝土造,711214.0,103.72,3,2,1,有,無,有,35000,337.0,,0.0,0,,RPTRMLKLNHKFFDA18CC,25.0551716,121.5470914
萬華區,建物,臺北市萬華區昆明街31~60號,0.0,商,1040421,土地0建物1車位0,二層,11.0,辦公商業大樓,商業用,鋼筋混凝土造,,600.71,0,0,0,無,有,無,112000,186.0,,0.0,0,,RPPOMLKLNHKFFBA27CC,25.0447063,121.5054649
中正區,建物,臺北市中正區濟南路二段1~30號,0.0,住,1040429,土地0建物1車位0,六層,6.0,華廈(10層含以下有電梯),住家用,鋼筋混凝土造,840509.0,221.48,3,2,2,有,有,有,54000,244.0,,0.0,0,,RPXOMLKLNHKFFBA08CC,25.0416118,121.5264268
中山區,建物,臺北市中山區基湖路157巷1~30號,0.0,住,1040430,土地0建物1車位1,十一層,13.0,住宅大樓(11層含以上有電梯),住家用,鋼筋混凝土造,900227.0,430.62,4,2,4,有,有,無,100000,232.0,坡道平面,96.53,0,,RPTNMLKLNHKFFCA67CC,25.076773,121.563503
中山區,建物,臺北市中山區松江路38巷31~60號,0.0,,1040424,土地0建物1車位0,一層,5.0,華廈(10層含以下有電梯),商業用,鋼筋混凝土造,831205.0,158.79,2,2,2,有,有,無,50000,315.0,,0.0,0,,RPVNMLKLNHKFFCA87CC,25.0476902,121.5308447
中山區,建物,臺北市中山區中山北路一段61~90號,0.0,商,1040421,土地0建物1車位0,十二層,13.0,住宅大樓(11層含以上有電梯),住家用,鋼筋混凝土造,980327.0,39.99,1,1,1,有,有,有,24189,605.0,,0.0,0,租金含稅、含二代健保。,RPWNMLKLNHKFFCA97CC,25.0499695,121.5219583
中山區,建物,臺北市中山區建國北路一段31~60號,0.0,商,1040513,土地0建物1車位0,十一層,15.0,住宅大樓(11層含以上有電梯),住家用,鋼筋混凝土造,960913.0,72.3,1,1,1,有,有,有,38000,526.0,,0.0,0,,RPWPMLKLNHKFFCA18CC,25.0478385,121.5393649
中山區,建物,臺北市中山區敬業一路121~150號,0.0,商,1040513,土地0建物1車位1,五層,9.0,華廈(10層含以下有電梯),商業用,鋼筋混凝土造,940127.0,87.74000000000002,0,0,0,無,有,有,43000,490.0,坡道平面,12.92,0,租金內含管理費,RPRQMLKLNHKFFCA77CC,25.0834859,121.5522877
內湖區,建物,臺北市內湖區瑞光路66巷31~60號,0.0,工,1040423,土地0建物2車位0,地下層,7.0,廠辦,停車空間,鋼筋混凝土造,1000307.0,5965.7,0,0,0,無,有,無,500000,84.0,,0.0,0,,RPWQMLKLNHKFFCA28CC,25.0698304,121.5813807
中山區,建物,臺北市中山區林森北路361~390號,0.0,住,1040426,土地0建物1車位0,十三層,18.0,住宅大樓(11層含以上有電梯),商業用,鋼筋混凝土造,980916.0,66.62,1,2,1,有,有,有,56000,841.0,,0.0,0,,RPXSMLKLNHKFFCA58CC,25.0572804,121.5257191
中山區,建物,臺北市中山區林森北路451~480號,0.0,商,1040520,土地0建物1車位0,四層,14.0,住宅大樓(11層含以上有電梯),住家用,鋼筋混凝土造,920122.0,48.22,2,1,1,有,有,有,22000,456.0,,0.0,0,租金2.2萬含管理費,RPQTMLKLNHKFFCA97CC,25.0605292,121.5257605
松山區,建物,臺北市松山區南京東路五段31~60號,0.0,商,1040513,土地0建物1車位0,八層,12.0,住宅大樓(11層含以上有電梯),住家用,鋼筋混凝土造,790518.0,208.12,3,0,0,無,有,無,65000,312.0,,0.0,0,,RPQNMLKLNHKFFDA57DC,25.0517333,121.5582314
中山區,建物,臺北市中山區南京東路二段61~90號,0.0,商,1040513,土地0建物1車位0,九層,12.0,辦公商業大樓,商業用,鋼筋混凝土造,691001.0,117.55,3,0,0,無,有,無,53000,451.0,,0.0,0,,RPQNMLKLNHKFFCA47DC,25.0522889,121.5298938
中正區,建物,臺北市中正區羅斯福路三段244巷9弄1~30號,0.0,住,1040515,土地0建物1車位2,五層,8.0,華廈(10層含以下有電梯),住家用,鋼筋混凝土造,931203.0,137.74,5,3,3,有,有,有,85000,617.0,坡道平面,0.0,0,,RPPOMLKLNHKFFAA17CC,25.017127,121.530495
大安區,房地(土地+建物),臺北市大安區新生南路一段133巷1~30號,16.53,住,1040519,土地1建物1車位0,二層,5.0,公寓(5樓含以下無電梯),住家用,鋼筋混凝土造,821220.0,64.65,2,2,1,有,無,無,25000,387.0,,0.0,0,,RPRNMLKLNHKFFFA77CC,25.0374382,121.5339595
大安區,建物,臺北市大安區忠孝東路號,0.0,商,1040520,土地0建物1車位0,十一層,12.0,住宅大樓(11層含以上有電梯),住家用,鋼筋混凝土造,780302.0,85.34,0,0,0,無,有,無,40000,469.0,,0.0,0,,RPRNMLLLNHKFFFA87CC,25.0417642,121.5382163
大安區,建物,臺北市大安區敦化南路571~600號,0.0,商,1040505,土地0建物0車位0,八層,12.0,辦公商業大樓,住家用,鋼筋混凝土造,740205.0,21.84,1,0,0,有,有,有,10000,458.0,,0.0,0,,RPOOMLLLNHKFFFA67CC,25.0219721,121.5489334
文山區,建物,臺北市文山區興隆路二段203巷121~150號,0.0,住,1040514,土地0建物1車位0,一層,11.0,住宅大樓(11層含以上有電梯),住家用,鋼筋混凝土造,1030605.0,93.36,2,1,1,有,有,有,30000,321.0,,0.0,0,,RPVNMLLLNHKFFAA77CC,25.0031822,121.546429
大安區,建物,臺北市大安區敦化南路二段61~90號,0.0,其他,1040511,土地0建物1車位0,三層,22.0,辦公商業大樓,商業用,鋼筋混凝土造,730709.0,273.86,0,1,1,有,有,無,100000,365.0,,0.0,0,1.租金含代扣繳租賃所得稅。  2.104年5月16日至104年7月15日為免租裝潢期。  3.第一年到第三年每月租金新台幣壹拾萬元整(含代扣繳及補充保費)、第四年至第五年調整每月租金為新台幣壹拾萬伍仟元整(含代扣繳及補充保費)。,RPPOMLLLNHKFFFA87DC,25.0309497,121.5490142
中山區,建物,臺北市中山區松江路91~120號,0.0,商,1040502,土地0建物0車位0,四層,6.0,華廈(10層含以下有電梯),住家用,鋼筋混凝土造,620612.0,38.62,1,0,1,有,無,有,13500,350.0,,0.0,0,,RPOOMLLLNHKFFCA37CC,25.0496362,121.533209
內湖區,建物,臺北市內湖區瑞光路583巷1~30號,0.0,工,1040506,土地0建物0車位0,五層,7.0,辦公商業大樓,工商用,鋼筋混凝土造,871125.0,19.96,1,0,0,有,有,有,8000,401.0,,0.0,0,,RPPOMLLLNHKFFCA47CC,25.080113,121.5677336
中山區,建物,臺北市中山區民權東路三段1~30號,0.0,商,1040519,土地0建物1車位0,五層,7.0,華廈(10層含以下有電梯),住商用,鋼筋混凝土造,671214.0,36.96,1,1,1,有,有,有,16500,446.0,,0.0,0,,RPROMLLLNHKFFCA67CC,25.063371,121.538864
中山區,房地(土地+建物),臺北市中山區民生東路三段91~120號,0.0,住,1040430,土地0建物1車位0,十四層,15.0,住宅大樓(11層含以上有電梯),見其他登記事項,鋼筋混凝土造,750314.0,131.69,3,2,2,有,有,有,47000,357.0,,0.0,0,,RPXOMLLLNHKFFCA28CC,25.0578409,121.5441466
中山區,房地(土地+建物),臺北市中山區民生東路三段91~120號,0.0,住,1040430,土地0建物1車位0,十四層,15.0,住宅大樓(11層含以上有電梯),見其他登記事項,鋼筋混凝土造,750314.0,131.69,3,2,2,有,有,有,47000,357.0,,0.0,0,,RPOPMLLLNHKFFCA47CC,25.0578409,121.5441466
中山區,建物,臺北市中山區長安東路二段151~180號,0.0,商,1040515,土地0建物1車位0,五層,15.0,住宅大樓(11層含以上有電梯),見其他登記事項,鋼筋混凝土造,1010409.0,70.4,0,0,0,無,無,無,28000,398.0,,0.0,0,,RPRPMLLLNHKFFCA77CC,25.0483536,121.5387141
中正區,房地(土地+建物),臺北市中正區延平南路61~90號,6.96,商,1040520,土地1建物1車位0,九層,10.0,辦公商業大樓,住家用,鋼筋混凝土造,700402.0,59.15000000000001,0,1,1,有,有,有,19800,335.0,,0.0,0,附冷氣租金含租賃所得稅　,RPRNMLLLNHKFFBA47CC,25.044646,121.510461
大同區,建物,臺北市大同區南京西路344巷31~60號,19.58,商,1040330,土地0建物1車位0,一層,9.0,華廈(10層含以下有電梯),商業用,鋼筋混凝土造,820520.0,95.33,1,2,1,有,無,有,40000,420.0,,0.0,0,附屬設備:3台冷氣,RPTNMLLLNHKFFBA67CC,25.0529685,121.5122424
大同區,建物,臺北市大同區承德路三段31~60號,0.0,商,1040504,土地0建物0車位0,十二層,12.0,辦公商業大樓,住家用,鋼筋混凝土造,720623.0,101.86,1,1,1,有,有,有,35000,344.0,,0.0,0,,RPVNMLLLNHKFFBA87CC,25.0642892,121.518576
北投區,建物,臺北市北投區復興路三段201巷6弄1~30號,0.0,其他,1040501,土地0建物1車位0,見其他登記事項,2.0,其他,見使用執照,加強磚造,660720.0,298.82,5,3,3,有,有,有,70000,234.0,,0.0,0,,RPXNMLLLNHKFFEA38CC,25.124436,121.466962
士林區,房地(土地+建物),臺北市士林區延平北路五段151~180號,22.5,商,1040427,土地1建物1車位0,三層,4.0,公寓(5樓含以下無電梯),住家用,加強磚造,560130.0,85.28,3,1,1,有,無,有,17000,199.0,,0.0,0,,RPWOMLLLNHKFFEA38CC,25.0824014,121.5101514
松山區,建物,臺北市松山區民族東路661~690號,26.04,住,1040520,土地0建物1車位0,三層,7.0,華廈(10層含以下有電梯),住家用,鋼筋混凝土造,701223.0,149.55,2,2,2,有,無,有,28000,187.0,,0.0,0,,RPSNMLLLNHKFFDA77CC,25.064091,121.547249
松山區,建物,臺北市松山區健康路241~270號,0.0,住,1040520,土地0建物1車位0,一層,4.0,公寓(5樓含以下無電梯),住家用,加強磚造,570828.0,156.82,3,2,2,有,無,無,100000,638.0,,0.0,0,"租金調漲:第1年10萬元,第2年1萬5仟元,第3年11萬,第4年12萬,第5年13萬",RPWNMLLLNHKFFDA18CC,25.0543457,121.5633928
信義區,建物,臺北市信義區忠孝東路五段361~390號,0.0,其他,1040505,土地0建物1車位0,十層,11.0,住宅大樓(11層含以上有電梯),見其他登記事項,鋼筋混凝土造,940531.0,40.05,1,1,1,有,有,有,25000,624.0,,0.0,0,,RPVOMLLLNHKFFDA18CC,25.0410231,121.5745955
松山區,建物,臺北市松山區八德路四段421~450號,0.0,商,1040508,土地0建物1車位0,十二層,14.0,住宅大樓(11層含以上有電梯),住家用,鋼筋混凝土造,970205.0,38.5,1,1,1,有,有,有,21136,549.0,,0.0,0,,RPXOMLLLNHKFFDA38CC,25.0482494,121.5593222
南港區,建物,臺北市南港區東新街118巷31~60號,0.0,住,1040511,土地0建物1車位0,六層,11.0,住宅大樓(11層含以上有電梯),住家用,鋼筋混凝土造,1010314.0,102.8,3,2,2,有,有,有,30000,292.0,,0.0,0,,RPOPMLLLNHKFFDA57CC,25.0461919,121.588633
松山區,房地(土地+建物),臺北市松山區光復南路13巷1~30號,30.05,住,1040513,土地1建物1車位0,六層,6.0,華廈(10層含以下有電梯),住家用,鋼筋混凝土造,760817.0,136.53,3,2,2,有,有,有,27000,198.0,,0.0,0,,RPSNMLMLNHKFFDA87CC,25.0478511,121.5581528
松山區,建物,臺北市松山區八德路四段631~660號,0.0,商,1040505,土地0建物1車位0,四層,13.0,住宅大樓(11層含以上有電梯),住家用,鋼筋混凝土造,1021216.0,66.62,1,1,1,有,有,有,32500,488.0,,0.0,0,,RPUNMLMLNHKFFDA08CC,25.0501957,121.5750038
松山區,房地(土地+建物)+車位,臺北市松山區慶城街31~60號,0.0,其他,1040514,土地0建物1車位7,十二層,15.0,住宅大樓(11層含以上有電梯),住家用,見其他登記事項,1010903.0,1107.4299999999996,5,3,5,有,有,無,450000,406.0,坡道平面,261.94,0,,RPQOMLMLNHKFFDA77CC,25.054026,121.545534
士林區,建物,臺北市士林區天母東路43巷4弄1~30號,0.0,商,1040508,土地0建物1車位0,二層,6.0,華廈(10層含以下有電梯),住家用,鋼筋混凝土造,850605.0,178.49,3,2,2,有,有,有,60000,336.0,,0.0,0,,RPSNMLMLNHKFFEA97CC,25.118741,121.53248
中山區,建物,臺北市中山區林森北路571~600號,0.0,商,1040516,土地0建物1車位0,四層,13.0,住宅大樓(11層含以上有電梯),住家用,鋼筋混凝土造,1000726.0,88.99000000000002,2,2,2,有,有,有,60000,674.0,,0.0,0,,RPWNMLMLNHKFFCA18CC,25.0649087,121.5256777
中山區,建物,臺北市中山區民生東路一段70巷1~30號,0.0,商,1040506,土地0建物1車位0,六層,8.0,住宅大樓(11層含以上有電梯),住家用,鋼筋混凝土造,961002.0,23.73,1,1,1,有,有,有,17000,716.0,,0.0,0,,RPOOMLMLNHKFFCA47CC,25.0576197,121.5264837
中山區,建物,臺北市中山區南京東路二段91~120號,0.0,商,1040514,土地0建物1車位0,五層,12.0,辦公商業大樓,商業用,鋼筋混凝土造,751218.0,624.26,0,2,1,有,有,無,260000,416.0,,0.0,0,"租金調漲:第1-3年26萬,第4-6年27萬,第6-10年28萬",RPXOMLMLNHKFFCA38CC,25.0522884,121.5321795
中山區,建物,臺北市中山區中山北路二段77巷1~30號,0.0,住,1040430,土地0建物1車位0,十二層,14.0,住宅大樓(11層含以上有電梯),商業用,鋼筋混凝土造,901112.0,54.83,2,2,2,有,有,有,30000,547.0,,0.0,0,,RPQQMLMLNHKFFCA87CC,25.0576603,121.5230347
內湖區,房地(土地+建物)+車位,臺北市內湖區基湖路3巷1~30號,0.0,工,1040424,土地0建物1車位2,六層,8.0,廠辦,工業用,鋼筋混凝土造,980120.0,397.48,0,0,0,無,有,無,120000,302.0,坡道平面,0.0,0,,RPRQMLMLNHKFFCA97CC,25.0813135,121.5657643
內湖區,房地(土地+建物)+車位,臺北市內湖區瑞湖街31~60號,0.0,工,1040427,土地0建物5車位5,見其他登記事項,12.0,廠辦,見其他登記事項,鋼筋混凝土造,970529.0,4588.440000000001,0,0,0,無,有,無,1639551,357.0,坡道平面,0.0,0,,RPTQMLMLNHKFFCA18CC,25.0744217,121.5760564
大安區,房地(土地+建物)+車位,臺北市大安區敦化南路二段81巷1~30號,0.0,其他,1040514,土地0建物1車位3,四層,16.0,住宅大樓(11層含以上有電梯),住家用,見其他登記事項,1001124.0,604.73,3,2,3,有,有,無,229507,380.0,坡道平面,108.96,0,,RPSNMLMLNHKFFFA08CC,25.0300031,121.5493428
大安區,建物,臺北市大安區嘉興街323巷1~30號,0.0,住,1040508,土地0建物1車位1,三層,14.0,住宅大樓(11層含以上有電梯),住家用,鋼筋混凝土造,890626.0,140.72,3,2,2,有,有,有,63000,448.0,坡道平面,17.89,0,,RPOOMLMLNHKFFFA77CC,25.0222139,121.5531242
大安區,建物,臺北市大安區四維路211~240號,0.0,,1040430,土地0建物1車位0,一層,4.0,公寓(5樓含以下無電梯),住家用,加強磚造,590630.0,91.51,2,2,3,有,無,無,78400,857.0,,0.0,0,,RPPOMLMLNHKFFFA87CC,25.0278738,121.5481557
大安區,建物,臺北市大安區忠孝東路四段241~270號,0.0,商,1040429,土地0建物1車位0,一層,12.0,店面(店鋪),商業用,鋼筋混凝土造,,130.29999999999998,0,0,0,無,有,無,180000,1381.0,,0.0,0,,RPSOMLMLNHKFFFA18CC,25.0416575,121.5537996
大安區,建物,臺北市大安區忠孝東路三段241~270號,0.0,商,1040518,土地0建物1車位0,三層,10.0,住宅大樓(11層含以上有電梯),,鋼筋混凝土造,620402.0,170.5,4,1,2,有,有,無,70000,411.0,,0.0,0,,RPPNMLNLNHKFFFA87CC,25.0418842,121.5409379
大安區,建物,臺北市大安區和平東路三段31~60號,0.0,商,1040508,土地0建物1車位0,三層,14.0,辦公商業大樓,商業用,鋼筋混凝土造,,142.18,2,1,2,有,有,有,40000,281.0,,0.0,0,,RPSNMLNLNHKFFFA18CC,25.024754,121.5475913
大安區,建物,臺北市大安區和平東路三段301~330號,30.87,住,1040425,土地0建物1車位0,一層,5.0,店面(店鋪),商業用,鋼筋混凝土造,,119.87,1,1,1,有,無,無,85000,709.0,,0.0,0,,RPTNMLNLNHKFFFA28CC,25.0197882,121.5571416
士林區,房地(土地+建物),臺北市士林區中山北路五段601~630號,103.0,商,1040504,土地1建物1車位0,全,2.0,透天厝,住商用,加強磚造,540105.0,152.04,0,0,0,無,無,無,110000,723.0,,0.0,0,,RPSNMLNLNHKFFEA18DC,25.0962578,121.5275786
內湖區,房地(土地+建物),臺北市內湖區民權東路六段280巷45弄31~60號,10.72,住,1040522,土地1建物1車位0,五層,7.0,華廈(10層含以下有電梯),住家用,鋼筋混凝土造,831221.0,39.55,1,1,1,有,有,無,16000,405.0,,0.0,0,,RPPNMLNLNHKFFCA57CC,25.0707375,121.606196
中山區,建物,臺北市中山區長春路1~30號,0.0,商,1040506,土地0建物0車位0,七層,7.0,辦公商業大樓,商業用,鋼筋混凝土造,680825.0,99.17,1,0,1,有,有,有,32000,323.0,,0.0,0,,RPWNMLNLNHKFFCA28CC,25.0547461,121.5308377
士林區,建物,臺北市士林區基河路396巷1~30號,0.0,住,1040430,土地0建物1車位0,十二層,12.0,住宅大樓(11層含以上有電梯),住家用,鋼骨鋼筋混凝土造,1010410.0,182.28,3,1,2,有,有,有,70000,384.0,,0.0,0,含稅，含二代建保,RPPNMLNLNHKFFEA77CC,25.0863232,121.5250421
士林區,房地(土地+建物),臺北市士林區士東路241~270號,41.45,住,1040518,土地1建物1車位0,一層,5.0,店面(店鋪),住家用,鋼筋混凝土造,690119.0,151.63,2,2,2,有,無,無,45000,297.0,,0.0,0,,RPQNMLNLNHKFFEA87CC,25.1129237,121.5351966
大同區,建物,臺北市大同區寧夏路1~30號,0.0,商,1040506,土地0建物1車位0,三層,14.0,辦公商業大樓,見其他登記事項,鋼筋混凝土造,851028.0,135.45,2,2,1,有,有,有,26000,192.0,,0.0,0,租金包含管理費3000元,RPQNMLNLNHKFFBA57CC,25.0543191,121.5149537
松山區,建物,臺北市松山區南京東路五段123巷1弄1~30號,43.25,商,1040423,土地0建物1車位0,一層,4.0,公寓(5樓含以下無電梯),住家用,鋼筋混凝土造,,119.69,1,1,1,有,無,無,56000,468.0,,0.0,0,,RPSNMLNLNHKFFDA97CC,25.0521844,121.5605231
大安區,建物,臺北市大安區大安路一段31巷31~60號,0.0,,1040522,土地0建物1車位0,四層,4.0,公寓(5樓含以下無電梯),,加強磚造,,98.71,3,1,2,有,無,無,32000,324.0,,0.0,0,,RPSNMLOLNHKFFFA28CC,25.0441018,121.5475349
大安區,建物,臺北市大安區新生南路一段91~120號,0.0,住,1040515,土地0建物1車位2,九層,10.0,辦公商業大樓,商業用,鋼筋混凝土造,731107.0,371.22,0,0,0,無,有,無,160000,431.0,塔式車位,0.0,0,,RPPNMLPLNHKFFFA08CC,25.0414391,121.5330875
大安區,建物,臺北市大安區復興南路一段241~270號,0.0,其他,1040518,土地0建物1車位0,三層,12.0,辦公商業大樓,商業用,鋼筋混凝土造,791017.0,181.6,1,0,1,有,有,無,84000,463.0,,0.0,0,,RPQNMLPLNHKFFFA18CC,25.037263,121.543994
大安區,建物,臺北市大安區信義路四段53巷1~30號,0.0,住,1040507,土地0建物2車位0,見其他登記事項,7.0,店面(店鋪),商業用,鋼筋混凝土造,800716.0,284.93,4,2,1,有,無,無,88000,309.0,,0.0,0,,RPUNMLPLNHKFFFA58CC,25.033576,121.545277
大安區,建物,臺北市大安區忠孝東路三段237巷1~30號,158.0,住,1040525,土地0建物1車位0,四層,4.0,公寓(5樓含以下無電梯),住家用,鋼筋混凝土造,,95.6,3,2,2,有,無,無,25000,262.0,,0.0,0,,RPTOMLPLNHKFFFA58CC,25.0424339,121.5356358
文山區,建物,臺北市文山區興隆路三段91~120號,165.0,住,1040415,土地0建物1車位0,全,3.0,透天厝,住商用,加強磚造,570601.0,296.38,0,0,0,無,無,無,681819,2300.0,,0.0,0,,RPQNMLPLNHKFFAA67CC,24.9996516,121.5568825
中正區,房地(土地+建物),臺北市中正區重慶南路二段1~30號,5.8,住,1040522,土地1建物1車位0,二層,11.0,住宅大樓(11層含以上有電梯),住家用,鋼筋混凝土造,670119.0,47.87,1,1,1,有,有,無,17000,355.0,,0.0,0,,RPTNMLPLNHKFFAA97CC,25.0335871,121.5143356
信義區,車位,臺北市信義區忠孝東路五段211~240號,0.0,商,1040520,土地0建物0車位1,,14.0,其他,停車空間,鋼筋混凝土造,940930.0,27.85,0,0,0,有,有,無,5500,,坡道平面,27.85,5500,,RPPOMLPLNHKFFDA97CC,25.041068,121.5699245
南港區,建物,臺北市南港區東新街61~90號,0.0,,1040520,土地0建物1車位0,一層,1.0,公寓(5樓含以下無電梯),住商用,加強磚造,,74.88,0,0,0,無,無,有,38000,507.0,,0.0,0,,RPQOMLPLNHKFFDA08CC,25.0469746,121.5867838
信義區,建物,臺北市信義區嘉興街175巷2弄1~30號,0.0,住,1040523,土地0建物0車位0,三層,5.0,公寓(5樓含以下無電梯),住家用,鋼筋混凝土造,720115.0,22.48,1,0,1,有,無,有,14500,645.0,,0.0,0,,RPROMLPLNHKFFDA18CC,25.0274561,121.5575762
信義區,車位,臺北市信義區忠孝東路五段211~240號,0.0,商,1040520,土地0建物0車位1,,14.0,其他,停車空間,鋼筋混凝土造,940930.0,29.9,0,0,0,有,有,無,5500,,坡道平面,29.9,5500,,RPUOMLPLNHKFFDA48CC,25.041068,121.5699245
信義區,建物,臺北市信義區忠孝東路四段553巷16弄1~30號,0.0,,1040519,土地0建物1車位0,二層,7.0,華廈(10層含以下有電梯),住家用,鋼筋混凝土造,650504.0,69.99,3,1,1,有,無,有,42000,600.0,,0.0,0,,RPVOMLPLNHKFFDA58CC,25.0428407,121.563084
信義區,建物,臺北市信義區基隆路二段121~150號,0.0,其他,1040511,土地0建物1車位0,六層,12.0,辦公商業大樓,見使用執照,鋼筋混凝土造,761023.0,125.92,3,2,2,有,無,無,31800,253.0,,0.0,0,,RPTPMLPLNHKFFDA48CC,25.0285037,121.5570023
大同區,建物,臺北市大同區承德路一段61~90號,0.0,商,1040519,土地0建物1車位1,八層,18.0,辦公商業大樓,住家用,鋼筋混凝土造,791221.0,198.81,0,0,0,無,有,無,70000,352.0,坡道機械,0.0,0,,RPSNMLPLNHKFFBA97CC,25.051787,121.517521
士林區,建物,臺北市士林區中山北路七段141巷1~30號,0.0,住,1040504,土地0建物1車位0,五層,7.0,公寓(5樓含以下無電梯),住家用,鋼筋混凝土造,681214.0,132.08,3,2,2,有,無,有,24000,182.0,,0.0,0,,RPVNMLPLNHKFFEA58CC,25.1235764,121.5305597
北投區,建物,臺北市北投區中央南路二段31~60號,0.0,工,1040501,土地0建物1車位0,二層,5.0,華廈(10層含以下有電梯),工業用,鋼筋混凝土造,721214.0,135.07,0,0,0,無,無,無,45500,337.0,,0.0,0,,RPROMLPLNHKFFEA28CC,25.1250382,121.500477
北投區,建物,臺北市北投區光明路211~240號,0.0,其他,1040501,土地0建物1車位0,三層,4.0,公寓(5樓含以下無電梯),住家用,加強磚造,580320.0,109.81,0,0,0,無,無,無,20000,182.0,,0.0,0,,RPSOMLPLNHKFFEA38CC,25.13618,121.5037148
北投區,建物,臺北市北投區中央南路二段31~60號,0.0,工,1040501,土地0建物1車位0,三層,5.0,華廈(10層含以下有電梯),工業用,鋼筋混凝土造,721214.0,135.06,0,0,0,無,無,有,40000,296.0,,0.0,0,,RPTOMLPLNHKFFEA48CC,25.1250382,121.500477
北投區,建物,臺北市北投區光明路211~240號,0.0,其他,1040512,土地0建物1車位0,四層,4.0,公寓(5樓含以下無電梯),住家用,加強磚造,580320.0,109.81,0,0,0,無,無,無,26000,237.0,,0.0,0,,RPWOMLPLNHKFFEA78CC,25.13618,121.5037148
士林區,建物,臺北市士林區大北路31~60號,0.0,商,1040501,土地0建物2車位0,一層,4.0,店面(店鋪),住商用,鋼筋混凝土造,610104.0,115.06,0,0,0,無,無,無,65000,565.0,,0.0,0,,RPPOMLQLNHKFFEA18CC,25.0897922,121.5261752
中正區,建物,臺北市中正區懷寧街91~120號,0.0,商,1040428,土地0建物1車位0,全,4.0,透天厝,商業用,鋼筋混凝土造,600605.0,154.93,1,1,1,有,無,無,50000,323.0,,0.0,0,,RPXNMLQLNHKFFBA58CC,25.0423497,121.5140234
萬華區,建物,臺北市萬華區西寧南路31~60號,0.0,商,1040508,土地0建物1車位0,見其他登記事項,3.0,店面(店鋪),商業用,鐵造,,216.24,0,0,0,無,無,無,540000,2497.0,,0.0,0,,RPROMLQLNHKFFBA08CC,25.0477199,121.5075568
信義區,建物,臺北市信義區松德路31~60號,0.0,住,1040515,土地0建物1車位0,一層,4.0,公寓(5樓含以下無電梯),住家用,鋼筋混凝土造,,103.52,0,0,1,有,無,無,70000,676.0,,0.0,0,,RPUNMLQLNHKFFDA48CC,25.0388989,121.577059
松山區,建物,臺北市松山區八德路四段631~660號,0.0,商,1040521,土地0建物1車位0,八層,13.0,住宅大樓(11層含以上有電梯),住家用,鋼筋混凝土造,1021216.0,66.62,1,1,1,有,有,有,29000,435.0,,0.0,0,,RPXNMLQLNHKFFDA78CC,25.0501957,121.5750038
南港區,建物,臺北市南港區松河街271~300號,0.0,商,1040521,土地0建物1車位0,十二層,15.0,住宅大樓(11層含以上有電梯),住家用,鋼筋混凝土造,970306.0,144.70999999999995,4,2,2,有,有,有,48998,339.0,,0.0,0,,RPPOMLQLNHKFFDA08CC,25.0523563,121.5815128
信義區,建物,臺北市信義區永吉路30巷178弄1~30號,0.0,住,1040417,土地0建物0車位0,一層,4.0,店面(店鋪),住家用,鋼筋混凝土造,631014.0,109.1,3,0,1,有,無,無,250000,2291.0,,0.0,0,非整層承租,RPSOMLQLNHKFFDA38CC,25.04492,121.5752274
松山區,建物,臺北市松山區八德路二段331~360號,7.92,商,1040522,土地0建物1車位0,五層,12.0,辦公商業大樓,商業用,鋼筋混凝土造,750819.0,71.02,2,1,1,有,無,有,23000,324.0,,0.0,0,,RPTOMLQLNHKFFDA48CC,25.0479372,121.5458874
松山區,建物,臺北市松山區復興北路1~30號,0.0,商,1040522,土地0建物1車位0,四層,16.0,辦公商業大樓,商業用,鋼筋混凝土造,710707.0,181.82,3,0,2,有,有,無,71500,393.0,,0.0,0,,RPWOMLQLNHKFFDA78CC,25.0479767,121.5444731
信義區,建物,臺北市信義區永吉路31~60號,0.0,商,1040507,土地0建物1車位0,十一層,14.0,住宅大樓(11層含以上有電梯),住家用,鋼筋混凝土造,960524.0,96.01,2,2,2,有,有,有,33000,344.0,,0.0,0,,RPXOMLQLNHKFFDA88CC,25.045894,121.568593
中山區,建物,臺北市中山區中山北路一段105巷1~30號,145.0,商,1040429,土地0建物1車位0,全,3.0,透天厝,,加強磚造,,301.47,0,0,0,無,無,無,80000,265.0,,0.0,0,,RPUNMLQLNHKFFCA38CC,25.050986,121.522477
中山區,建物,臺北市中山區新生北路二段31~60號,0.0,商,1040521,土地0建物1車位0,十五層,17.0,住宅大樓(11層含以上有電梯),住家用,鋼筋混凝土造,850718.0,66.28,2,1,1,有,有,有,38000,573.0,,0.0,0,,RPVNMLQLNHKFFCA48CC,25.0542013,121.5278274
中山區,建物,臺北市中山區中山北路一段83巷31~60號,0.0,商,1040522,土地0建物1車位0,十四層,15.0,住宅大樓(11層含以上有電梯),住家用,鋼筋混凝土造,970314.0,155.98,3,2,2,有,有,有,70000,449.0,,0.0,0,,RPTOMLQLNHKFFCA38CC,25.0500556,121.5243798
內湖區,建物,臺北市內湖區新湖一路61~90號,0.0,工,1040515,土地0建物1車位2,一層,7.0,廠辦,見其他登記事項,鋼筋混凝土造,1010626.0,258.66,0,0,0,無,有,無,115000,445.0,坡道平面,0.0,0,,RPVOMLQLNHKFFCA58CC,25.0582581,121.5750636
中山區,房地(土地+建物),臺北市中山區長春路301~330號,10.78,商,1040508,土地1建物1車位0,一層,12.0,辦公商業大樓,商業用,鋼筋混凝土造,890705.0,97.54,0,0,0,無,有,無,56500,579.0,,0.0,0,,RPPPMLQLNHKFFCA08CC,25.0547671,121.542456
內湖區,建物,臺北市內湖區內湖路一段91巷23弄1~30號,0.0,工,1040522,土地0建物1車位0,二層,4.0,工廠,工業用,鋼筋混凝土造,761207.0,313.24,1,1,2,有,有,無,99500,,,0.0,0,,RPQPMLQLNHKFFCA18CC,25.0865652,121.5624865
中山區,房地(土地+建物),臺北市中山區遼寧街209巷31~60號,7.04,商,1040508,土地1建物1車位0,一層,12.0,辦公商業大樓,商業用,鋼筋混凝土造,890705.0,68.39,0,0,0,無,有,無,39500,578.0,,0.0,0,,RPRPMLQLNHKFFCA28CC,25.0551135,121.543182
中山區,建物,臺北市中山區復興北路1~30號,0.0,,1040520,土地0建物1車位0,十層,14.0,辦公商業大樓,商業用,鋼筋混凝土造,720903.0,159.08,3,1,2,有,有,無,65000,409.0,,0.0,0,,RPVPMLQLNHKFFCA68CC,25.0479767,121.5444731
中山區,建物,臺北市中山區南京東路三段1~30號,0.0,,1040522,土地0建物1車位0,四層,11.0,辦公商業大樓,商業用,鋼筋混凝土造,,198.36,2,1,0,有,有,無,80000,403.0,,0.0,0,"權狀140.5坪,只承租60坪.",RPXPMLQLNHKFFCA88CC,25.0522466,121.537375
大安區,建物,臺北市大安區安和路二段211~240號,0.0,住,1040521,土地0建物1車位0,八層,17.0,住宅大樓(11層含以上有電梯),住家用,鋼筋混凝土造,740612.0,135.12,2,0,1,有,有,有,50000,370.0,,0.0,0,,RPRNMLQLNHKFFFA38CC,25.0261029,121.550246
大安區,建物,臺北市大安區忠孝東路四段101巷61~90號,0.0,住,1040523,土地0建物1車位0,三層,7.0,華廈(10層含以下有電梯),住家用,鋼筋混凝土造,740604.0,114.21,3,2,2,有,有,有,42000,368.0,,0.0,0,,RPTNMLQLNHKFFFA58CC,25.043785,121.5481055
大安區,建物,臺北市大安區忠孝東路四段91~120號,0.0,其他,1040518,土地0建物1車位0,三層,15.0,店面(店鋪),商業用,鋼筋混凝土造,770121.0,55.99,0,0,0,無,無,無,16800,300.0,,0.0,0,,RPXNMLQLNHKFFFA98CC,25.041778,121.547781
大安區,建物,臺北市大安區復興南路一段121~150號,0.0,商,1040520,土地0建物1車位0,五層,16.0,住宅大樓(11層含以上有電梯),見使用執照,鋼筋混凝土造,771115.0,179.73,3,2,2,有,有,有,72000,401.0,,0.0,0,,RPSOMLQLNHKFFFA58CC,25.0434198,121.5440402
大安區,建物,臺北市大安區信義路三段134巷1~30號,0.0,住,1040520,土地0建物1車位0,五層,6.0,華廈(10層含以下有電梯),住家用,鋼筋混凝土造,610908.0,123.23,4,2,2,有,有,有,39000,316.0,,0.0,0,,RPTOMLQLNHKFFFA68CC,25.0292693,121.5395725
大安區,建物,臺北市大安區大安路一段151~180號,0.0,住,1040522,土地0建物1車位0,二層,7.0,華廈(10層含以下有電梯),住家用,鋼筋混凝土造,,71.12,2,2,1,有,有,有,41000,576.0,,0.0,0,,RPVOMLQLNHKFFFA88CC,25.0376557,121.546102
大安區,建物,臺北市大安區光復南路240巷31~60號,0.0,住,1040519,土地0建物1車位0,地下一層,7.0,華廈(10層含以下有電梯),見使用執照,鋼筋混凝土造,,99.11,1,1,1,有,無,有,50000,504.0,,0.0,0,,RPOPMLQLNHKFFFA28CC,25.0406358,121.556075
大安區,建物,臺北市大安區青田街2巷1~30號,59.7,住,1040508,土地0建物1車位0,三層,7.0,華廈(10層含以下有電梯),住家用,鋼筋混凝土造,960731.0,268.4,0,0,0,無,無,無,85000,317.0,坡道平面,0.0,0,,RPXOMLQLNHKFFFA56DC,25.028619,121.531809
大安區,建物,臺北市大安區泰順街40巷1~30號,0.0,住,1040527,土地0建物1車位0,一層,4.0,公寓(5樓含以下無電梯),,鋼筋混凝土造,,53.52,0,0,0,無,無,無,44000,822.0,,0.0,0,,RPUNMLRLNHKFFFA78CC,25.02436,121.531209
中正區,建物,臺北市中正區廈門街123巷1~30號,0.0,住,1040519,土地0建物1車位0,五層,5.0,公寓(5樓含以下無電梯),住家用,鋼筋混凝土造,730814.0,71.93,4,2,2,有,無,有,29000,403.0,,0.0,0,,RPVNMLRLNHKFFAA38CC,25.021568,121.5185688
北投區,建物,臺北市北投區西安街二段361~390號,11.07,住,1040310,土地0建物1車位0,四層,11.0,住宅大樓(11層含以上有電梯),住家用,鋼筋混凝土造,820511.0,118.05,3,1,1,有,無,有,15000,127.0,,0.0,0,,RPUNMLRLNHKFFEA78DC,25.1151305,121.5148063
中山區,建物,臺北市中山區長安東路二段1~30號,0.0,商,1040507,土地0建物1車位0,全,4.0,透天厝,,加強磚造,,102.57,0,0,0,無,無,無,75000,731.0,,0.0,0,只租一樓,RPXNMLRLNHKFFCA78CC,25.0486369,121.5302099
中山區,建物,臺北市中山區中山北路二段151~180號,0.0,商,1040521,土地0建物1車位0,五層,14.0,住宅大樓(11層含以上有電梯),住家用,鋼骨鋼筋混凝土造,951129.0,62.77,2,1,1,有,有,有,40000,637.0,,0.0,0,,RPPOMLRLNHKFFCA08CC,25.0620063,121.5229569
中山區,建物,臺北市中山區復興北路391~420號,0.0,商,1040526,土地0建物1車位0,十五層,18.0,住宅大樓(11層含以上有電梯),住家用,鋼筋混凝土造,751125.0,94.87,2,1,1,有,有,有,48000,506.0,,0.0,0,,RPQOMLRLNHKFFCA18CC,25.0617911,121.5444188
中山區,建物,臺北市中山區合江街100巷1~30號,0.0,住,1040504,土地0建物1車位0,四層,7.0,住宅大樓(11層含以上有電梯),住家用,鋼筋混凝土造,740718.0,132.38,3,2,2,有,有,有,55000,415.0,,0.0,0,,RPSOMLRLNHKFFCA38CC,25.0583612,121.5389949
中山區,建物,臺北市中山區新生北路二段68巷1~30號,0.0,住,1040521,土地0建物1車位0,八層,13.0,住宅大樓(11層含以上有電梯),住家用,鋼筋混凝土造,971229.0,71.64,2,2,1,有,有,有,40000,558.0,,0.0,0,,RPVOMLRLNHKFFCA68CC,25.056545,121.5260897
內湖區,房地(土地+建物)+車位,臺北市內湖區陽光街271~300號,0.0,工,1040501,土地0建物1車位3,六層,9.0,廠辦,工業用,見使用執照,910506.0,2598.42,0,0,0,無,有,無,864622,333.0,坡道平面,0.0,0,,RPOPMLRLNHKFFCA08CC,25.0741203,121.5806079
松山區,建物,臺北市松山區民生東路三段121~150號,0.0,,1040519,土地0建物1車位0,三層,7.0,華廈(10層含以下有電梯),見使用執照,鋼筋混凝土造,711026.0,134.05,1,1,2,有,有,無,50000,373.0,,0.0,0,本租金含稅5%,RPSNMLRLNHKFFDA38CC,25.0580549,121.546978
信義區,建物,臺北市信義區松勇路53巷61~90號,0.0,住,1040511,土地0建物1車位1,十八層,18.0,住宅大樓(11層含以上有電梯),住家用,鋼筋混凝土造,950315.0,276.68,4,2,2,有,有,有,112000,472.0,坡道平面,52.2,6000,,RPUNMLRLNHKFFDA58CC,25.0340717,121.5699072
信義區,建物,臺北市信義區基隆路一段1~30號,0.0,商,1040504,土地0建物1車位0,十一層,13.0,住宅大樓(11層含以上有電梯),住家用,鋼筋混凝土造,1021107.0,118.36,3,2,2,有,有,無,39000,330.0,,0.0,0,,RPTOMLRLNHKFFDA58CC,25.0469316,121.5676258
南港區,房地(土地+建物),臺北市南港區經貿二路255巷31~60號,33.22,住,1040519,土地1建物1車位0,一層,7.0,店面(店鋪),見其他登記事項,鋼筋混凝土造,981002.0,138.0,0,0,0,無,無,無,44800,325.0,,0.0,0,,RPWOMLRLNHKFFDA88CC,25.0620972,121.6147677
松山區,建物,臺北市松山區復興北路481~510號,0.0,住,1040519,土地0建物1車位0,三層,11.0,住宅大樓(11層含以上有電梯),住家用,鋼筋混凝土造,960216.0,44.36,0,0,0,無,有,有,20000,451.0,,0.0,0,內含管理費2013元/月,RPOPMLRLNHKFFDA18CC,25.0649001,121.5445193
南港區,建物,臺北市南港區八德路四段871~900號,0.0,商,1040427,土地0建物1車位0,二層,16.0,辦公商業大樓,商業用,鋼筋混凝土造,841219.0,34.55,0,0,0,無,有,無,6000,174.0,,0.0,0,1.租期：自民國104年06月01日起至民國106年05月31日止。2.每月租金：新台幣6000元整是內含10％租賃稅，經雙方同意租賃稅及二代健保補充保費先從每個月應付租金扣除後；再由乙方負責給付扣繳稅款向稅捐稽徵機關辦理申報，出租人每月租金實際上收取新台幣5280元整。,RPQPMLRLNHKFFDA38CC,25.0511569,121.580386
南港區,建物,臺北市南港區八德路四段871~900號,0.0,商,1040512,土地0建物1車位0,一層,16.0,辦公商業大樓,商業用,鋼筋混凝土造,841219.0,50.87000000000001,0,0,0,無,有,無,10000,197.0,,0.0,0,1.租期：自民國104年05月20日起至民國105年05月19日止。2.每月租金：新台幣10000元整是內含10％租賃稅，經雙方同意租賃稅及二代健保補充保費先從每個月應付租金扣除後；再由乙方負責給付扣繳稅款向稅捐稽徵機關辦理申報，出租人每月租金實際上收取新台幣8800元整,RPRPMLRLNHKFFDA48CC,25.0511569,121.580386
松山區,建物,臺北市松山區南京東路五段1及1~30號,0.0,商,1040430,土地0建物1車位2,十層,13.0,辦公商業大樓,見使用執照,見使用執照,910726.0,575.3299999999998,0,0,0,無,有,無,313272,545.0,坡道平面,0.0,0,,RPSPMLRLNHKFFDA58CC,25.0524869,121.5603268
中正區,建物,臺北市中正區信義路二段31~60號,0.0,商,1040509,土地0建物1車位0,八層,12.0,住宅大樓(11層含以上有電梯),住家用,鋼筋混凝土造,700616.0,140.53,4,2,2,有,有,無,50000,356.0,,0.0,0,,RPUNMLRLNHKFFBA38CC,25.034965,121.525835
中正區,建物,臺北市中正區忠孝東路一段31~60號,0.0,住,1040517,土地0建物1車位0,十層,13.0,住宅大樓(11層含以上有電梯),住家用,鋼筋混凝土造,950926.0,82.92,2,2,1,有,有,有,51000,615.0,,0.0,0,,RPXOMLRLNHKFFBA78CC,25.0445321,121.5255064
中正區,建物,臺北市中正區懷寧街91~120號,0.0,商,1040428,土地0建物2車位0,五層,8.0,辦公商業大樓,,鋼筋混凝土造,,152.26000000000005,2,1,1,有,無,有,42000,276.0,,0.0,0,,RPOPMLRLNHKFFBA97CC,25.0423497,121.5140234
士林區,建物,臺北市士林區士東路200巷1~30號,0.0,住,1040503,土地0建物1車位0,全,2.0,透天厝,住家用,加強磚造,611102.0,65.8,0,0,0,無,無,無,30000,456.0,,0.0,0,,RPRNMLRLNHKFFEA38CC,25.1125015,121.5337256
士林區,建物,臺北市士林區劍潭路1~30號,0.0,住,1040526,土地0建物1車位0,五層,13.0,住宅大樓(11層含以上有電梯),住家用,鋼筋混凝土造,871211.0,154.47,3,1,2,有,有,有,52000,337.0,,0.0,0,,RPPOMLSLNHKFFEA38CC,25.0827934,121.5197882
士林區,建物,臺北市士林區天母東路61~90號,0.0,住,1040527,土地0建物1車位0,三層,7.0,華廈(10層含以下有電梯),住家用,鋼筋混凝土造,740910.0,164.74,4,2,2,有,有,有,59000,358.0,,0.0,0,,RPROMLSLNHKFFEA58CC,25.118234,121.533898
士林區,建物,臺北市士林區中山北路七段81巷1~30號,0.0,住,1040522,土地0建物1車位1,十層,13.0,住宅大樓(11層含以上有電梯),住家用,鋼筋混凝土造,940223.0,178.81,3,2,2,有,無,無,90000,503.0,坡道平面,31.17,0,,RPSPMLSLNHKFFEA78CC,25.1216193,121.5310804
大同區,車位,臺北市大同區承德路一段1~30號,2.32,其他,1040106,土地0建物0車位1,,,其他,,,,19.59,0,0,0,有,有,無,3000,,坡道平面,15.51,3000,,RPUOMLSLNHKFFBA58CC,25.049308,121.5171935
中正區,建物,臺北市中正區開封街一段1~30號,0.0,商,1040527,土地0建物1車位0,一層,7.0,華廈(10層含以下有電梯),商業用,鋼筋混凝土造,620907.0,88.17,1,1,1,有,有,有,160000,1815.0,,0.0,0,,RPXOMLSLNHKFFBA88CC,25.0460985,121.5148152
信義區,建物,臺北市信義區和平東路三段331~360號,0.0,住,1040526,土地0建物1車位0,一層,4.0,公寓(5樓含以下無電梯),住家用,鋼筋混凝土造,,64.84,0,0,0,無,無,無,50000,771.0,,0.0,0,,RPVNMLSLNHKFFDA78CC,25.0210386,121.5563474
南港區,建物,臺北市南港區重陽路263巷1~30號,0.0,工,1040305,土地0建物1車位0,二層,4.0,廠辦,工業用,鋼筋混凝土造,770613.0,760.88,0,0,0,無,無,無,157500,207.0,,0.0,0,,RPPOMLSLNHKFFDA28CC,25.0577999,121.6034795
信義區,建物,臺北市信義區基隆路二段181~210號,0.0,商,1040430,土地0建物1車位0,三層,21.0,辦公商業大樓,見使用執照,鋼筋混凝土造,860221.0,115.05,4,1,1,有,有,有,47000,409.0,,0.0,0,建物租金為含稅價。,RPROMLSLNHKFFDA48CC,25.0249938,121.5534894
南港區,建物,臺北市南港區忠孝東路六段81巷1~30號,0.0,商,1040306,土地0建物1車位0,一層,4.0,公寓(5樓含以下無電梯),工業用,鋼筋混凝土造,,131.62,0,0,0,無,無,有,55000,418.0,,0.0,0,,RPVOMLSLNHKFFDA88CC,25.047979,121.5844214
信義區,建物,臺北市信義區信義路五段121~150號,0.0,其他,1040523,土地0建物1車位0,十八層,19.0,住宅大樓(11層含以上有電梯),住家用,見其他登記事項,951229.0,91.97,2,2,1,有,有,有,51500,560.0,,0.0,0,,RPWOMLSLNHKFFDA98CC,25.0336571,121.5738977
信義區,建物,臺北市信義區基隆路一段331~360號,0.0,商,1040520,土地0建物0車位0,二十二層,36.0,辦公商業大樓,見使用執照,鋼筋混凝土造,770329.0,197.62,0,0,0,無,有,無,182030,921.0,,0.0,0,含5%營業稅。,RPOPMLSLNHKFFDA28CC,25.035774,121.560874
松山區,建物,臺北市松山區光復北路91~120號,0.0,商,1040520,土地0建物1車位1,七層,12.0,辦公商業大樓,商業用,鋼筋混凝土造,801211.0,446.79,0,0,0,無,有,無,153000,374.0,坡道平面,46.05,3000,含12%稅。,RPPPMLSLNHKFFDA38CC,25.0507034,121.5580138
中山區,建物,臺北市中山區松江路121~150號,0.0,其他,1040501,土地0建物1車位0,七層,17.0,辦公商業大樓,見其他登記事項,見其他登記事項,1011116.0,457.8,0,0,0,無,有,無,276960,605.0,,0.0,0,,RPPNMLSLNHKFFCA08CC,25.0528258,121.5333503
中山區,建物,臺北市中山區林森北路107巷61~90號,0.0,商,1040512,土地0建物1車位0,七層,7.0,華廈(10層含以下有電梯),住家用,鋼筋混凝土造,751009.0,40.29,1,1,1,有,有,有,13000,323.0,,0.0,0,,RPTNMLSLNHKFFCA48CC,25.0499592,121.5271009
中山區,建物,臺北市中山區建國北路一段61~90號,0.0,住,1040526,土地0建物1車位0,十層,13.0,住宅大樓(11層含以上有電梯),住家用,鋼筋混凝土造,1020708.0,135.61,2,1,2,有,有,有,58271,430.0,,0.0,0,,RPSOMLSLNHKFFCA48CC,25.0506409,121.5371102
北投區,建物,臺北市北投區永興路二段1~30號,28.47,住,1040305,土地0建物1車位0,一層,5.0,公寓(5樓含以下無電梯),住家用,鋼筋混凝土造,740809.0,108.53,4,2,2,有,無,有,25000,230.0,,0.0,0,,RPXNMLSLNHKFFEA56DC,25.139901,121.501098
中正區,建物,臺北市中正區忠孝東路一段61~90號,0.0,商,1040429,土地0建物1車位0,十三層,21.0,辦公商業大樓,商業用,鋼筋混凝土造,780829.0,88.11,0,0,0,無,有,無,37500,426.0,,0.0,0,,RPQOMLSLNHKFFBA28DC,25.0443399,121.5262168
中山區,建物,臺北市中山區民權東路一段31~60號,0.0,商,1040525,土地0建物1車位0,十層,12.0,辦公商業大樓,住家用,鋼筋混凝土造,730622.0,103.8,0,0,0,無,有,無,34650,334.0,,0.0,0,,RPUOMLSLNHKFFCA78DC,25.0629946,121.5241052
中山區,建物,臺北市中山區長安東路二段121~150號,0.0,商,1040519,土地0建物1車位0,六層,12.0,住宅大樓(11層含以上有電梯),住商用,鋼筋混凝土造,670121.0,72.15,0,0,0,無,有,無,33500,464.0,,0.0,0,,RPXOMLSLNHKFFCA09DC,25.0485388,121.5356513
中正區,房地(土地+建物),臺北市中正區寧波西街22巷1~30號,35.58,住,1040509,土地1建物1車位0,三層,4.0,公寓(5樓含以下無電梯),住家用,鋼筋混凝土造,,85.83,3,2,2,有,無,有,18000,210.0,,0.0,0,,RPTNMLSLNHKFFAA28CC,25.0309709,121.5185382
大安區,建物,臺北市大安區延吉街151~180號,0.0,其他,1040527,土地0建物1車位0,十一層,14.0,住宅大樓(11層含以上有電梯),住家用,鋼筋混凝土造,721130.0,168.29,3,2,2,有,有,有,60000,357.0,,0.0,0,,RPUNMLSLNHKFFFA88CC,25.0410759,121.5545557
大安區,建物,臺北市大安區仁愛路三段121~150號,0.0,住,1040507,土地0建物1車位0,八層,12.0,辦公商業大樓,住家用,鋼筋混凝土造,700127.0,188.69,0,0,0,無,有,無,72222,383.0,,0.0,0,,RPPNMLTLNHKFFFA48CC,25.0382972,121.54191
大安區,建物,臺北市大安區復興南路二段180巷1~30號,0.0,住,1040511,土地0建物2車位0,見其他登記事項,7.0,店面(店鋪),住家用,鋼筋混凝土造,741101.0,245.08,2,2,2,有,無,無,75000,306.0,,0.0,0,"租金分段第1-3年75000元,第4-5年78750元",RPQNMLTLNHKFFFA58CC,25.0274619,121.5430763
大安區,建物,臺北市大安區和平東路一段75巷1~30號,0.0,商,1040525,土地0建物1車位0,九層,12.0,住宅大樓(11層含以上有電梯),商業用,鋼筋混凝土造,730710.0,81.12,0,0,0,無,有,無,36000,444.0,,0.0,0,,RPTNMLTLNHKFFFA88CC,25.0272203,121.525111
大安區,建物,臺北市大安區和平東路一段61~90號,0.0,商,1040526,土地0建物1車位0,十一層,12.0,住宅大樓(11層含以上有電梯),住家用,鋼筋混凝土造,751224.0,143.65,3,2,2,有,有,無,38000,265.0,,0.0,0,,RPUNMLTLNHKFFFA98CC,25.0271676,121.5245613
大安區,建物,臺北市大安區安和路二段181~210號,0.0,住,1040429,土地0建物2車位1,一層,17.0,辦公商業大樓,商業用,鋼筋混凝土造,800105.0,595.96,0,0,0,無,無,無,769952,1292.0,坡道平面,0.0,0,,RPOOMLTLNHKFFFA48CC,25.027532,121.5500307
中正區,建物,臺北市中正區和平西路一段55巷1~30號,0.0,住,1040514,土地0建物1車位0,三層,7.0,華廈(10層含以下有電梯),住家用,鋼筋混凝土造,990903.0,125.13,2,2,1,有,有,有,70000,559.0,,0.0,0,,RPPOMLTLNHKFFAA08CC,25.0269987,121.5199051
信義區,建物,臺北市信義區松德路151~180號,0.0,商,1040429,土地0建物1車位0,三層,30.0,辦公商業大樓,商業用,鋼骨混凝土造,820524.0,161.91,0,0,0,無,無,無,60000,371.0,,0.0,0,,RPQQMLTLNHKFFDA78DC,25.036644,121.574876
信義區,建物,臺北市信義區基隆路一段391~420號,0.0,商,1040430,土地0建物1車位0,十層,12.0,辦公商業大樓,住家用,鋼筋混凝土造,751110.0,244.39,0,0,0,無,有,無,58000,237.0,,0.0,0,,RPRQMLTLNHKFFDA88DC,25.0478566,121.5687426
中山區,建物,臺北市中山區中山北路二段27巷1~30號,0.0,商,1040529,土地0建物1車位0,五層,8.0,華廈(10層含以下有電梯),住家用,鋼骨鋼筋混凝土造,920401.0,148.45,3,2,2,有,無,有,61000,411.0,,0.0,0,,RPURMLTLNHKFFCA09CC,25.0532887,121.5232274
內湖區,房地(土地+建物),臺北市內湖區大湖山莊街176巷1~30號,14.17,住,1040501,土地1建物1車位0,七層,14.0,住宅大樓(11層含以上有電梯),住家用,鋼筋混凝土造,971127.0,95.53,1,1,1,有,有,有,24500,256.0,,0.0,0,,RPPSMLTLNHKFFCA68CC,25.0878127,121.5993501
中山區,建物,臺北市中山區敬業二路69巷31~60號,0.0,商,1040521,土地0建物1車位0,七層,10.0,華廈(10層含以下有電梯),見其他登記事項,鋼筋混凝土造,961218.0,49.28,1,1,1,有,有,有,24000,487.0,,0.0,0,租金內含管理費,RPRSMLTLNHKFFCA88CC,25.0821405,121.5533893
中山區,建物,臺北市中山區天祥路61~90號,0.0,商,1040516,土地0建物1車位0,十層,14.0,住宅大樓(11層含以上有電梯),住家用,鋼筋混凝土造,931203.0,49.08,1,1,1,有,有,有,25000,509.0,,0.0,0,,RPSSMLTLNHKFFCA98CC,25.0634041,121.5208454
中山區,建物,臺北市中山區松江路90巷1~30號,0.0,住,1040508,土地0建物1車位0,四層,7.0,華廈(10層含以下有電梯),住家用,鋼筋混凝土造,760107.0,202.99,3,2,2,有,無,有,50000,246.0,,0.0,0,租期1年又14天,RPUSMLTLNHKFFCA56CC,25.0506573,121.5324261
中山區,建物,臺北市中山區復興南路一段1~30號,0.0,住,1040429,土地0建物1車位5,一層,14.0,辦公商業大樓,商業用,鋼筋混凝土造,860714.0,1113.37,0,0,0,無,有,無,1069898,961.0,坡道平面,0.0,0,,RPWSMLTLNHKFFCA76CC,25.0463819,121.5434881
南港區,建物,臺北市南港區重陽路1~30號,0.0,住,1031223,土地0建物1車位0,四層,5.0,公寓(5樓含以下無電梯),住家用,鋼筋混凝土造,,93.87,3,2,2,有,無,有,22500,240.0,,0.0,0,,RPXOMLTLNHKFFDA56CC,25.06035,121.610562
松山區,建物,臺北市松山區南京東路五段91~120號,17.21,,1040527,土地0建物1車位0,十層,11.0,辦公商業大樓,住家用,鋼筋混凝土造,660323.0,164.89,3,1,1,有,無,有,50000,303.0,,0.0,0,租賃期間自民國104年6月1日起至106年5月31日止,RPQPMLTLNHKFFDA58CC,25.0516995,121.5601849
松山區,建物,臺北市松山區南京東路五段151~180號,0.0,,1040529,土地0建物1車位0,七層,17.0,辦公商業大樓,商業用,鋼筋混凝土造,731106.0,130.89,3,1,2,有,無,有,43500,332.0,,0.0,0,,RPRPMLTLNHKFFDA68CC,25.051669,121.562161
信義區,建物,臺北市信義區忠孝東路四段553巷1~30號,33.0,住,1040430,土地0建物1車位0,一層,4.0,公寓(5樓含以下無電梯),住商用,鋼筋混凝土造,600705.0,96.05,0,1,0,有,無,無,75000,781.0,,0.0,0,104/6/5起租，104/5/15-104/6/4裝潢期20天免收租金,RPSPMLTLNHKFFDA78CC,25.0429319,121.56291
