district,type,address,land_size,purpose,date,pen,level,floor_num,build_state,use,material,complete_yr,total_size,room,hall,health,compartmented,manage,furniture,PRICE,unit_PRICE,berth,berth_size,berth_price,note,serial_num,lat,lng
信義區,房地(土地+建物),臺北市信義區吳興街364巷31~60號,25.78,住,1041004,土地1建物1車位0,一層,5.0,公寓(5樓含以下無電梯),住家用,鋼筋混凝土造,0700306,83.25,3,2,2,有,無,無,18000,216.0,,0.0,0,,RPSNMLLJJIKFFDA27CC,25.0249278,121.5659526
信義區,房地(土地+建物),臺北市信義區信義路五段150巷445弄1~30號,28.04,住,1041015,土地1建物1車位0,三層,5.0,公寓(5樓含以下無電梯),住家用,鋼筋混凝土造,0730830,91.53,3,2,2,有,無,無,22000,240.0,,0.0,0,,RPTNMLLJJIKFFDA37CC,25.023192,121.572229
信義區,房地(土地+建物),臺北市信義區吳興街281巷1~30號,30.0,住,1041013,土地1建物1車位0,一層,4.0,店面(店鋪),住家用,鋼筋混凝土造,,78.0,0,0,0,無,無,無,50000,641.0,,0.0,0,,RPUNMLLJJIKFFDA47CC,25.0266004,121.5643225
松山區,建物,臺北市松山區復興北路1~30號,0.0,商,1041021,土地0建物1車位0,七層,15.0,住宅大樓(11層含以上有電梯),住家用,鋼筋混凝土造,0670817,134.98000000000002,3,2,2,有,有,有,55000,407.0,,0.0,0,租金含管理費,RPQNMLMJJIKFFDA17CC,25.0479767,121.5444731
松山區,建物,臺北市松山區南京東路五段151~180號,0.0,,1041026,土地0建物1車位0,十五層,16.0,住宅大樓(11層含以上有電梯),住家用,鋼筋混凝土造,0760526,125.0,0,0,0,無,有,無,38600,309.0,,0.0,0,,RPRNMLMJJIKFFDA27CC,25.051669,121.562161
信義區,房地(土地+建物),臺北市信義區信義路五段91~120號,32.99,住,1041021,土地1建物1車位0,十二層,12.0,住宅大樓(11層含以上有電梯),住家用,鋼筋混凝土造,0860926,63.88,2,1,1,有,有,有,27500,430.0,,0.0,0,,RPSNMLMJJIKFFDA37CC,25.0326825,121.5651137
松山區,建物,臺北市松山區敦化南路一段100巷7弄1~30號,0.0,住,1041018,土地0建物0車位0,全,1.0,透天厝,,加強磚造,,66.62,0,0,0,無,無,無,49000,736.0,,0.0,0,,RPUNMLMJJIKFFDA57CC,25.0456638,121.5480694
松山區,建物,臺北市松山區民生東路五段69巷1~30號,0.0,其他,1041028,土地0建物1車位0,七層,7.0,華廈(10層含以下有電梯),住家用,鋼筋混凝土造,0660407,73.43,3,2,2,有,有,有,45206,616.0,,0.0,0,,RPPOMLMJJIKFFDA17CC,25.0587629,121.5571904
信義區,建物,臺北市信義區永吉路31~60號,0.0,商,1041027,土地0建物1車位0,七層,14.0,住宅大樓(11層含以上有電梯),住家用,鋼筋混凝土造,0960524,96.01,2,1,2,有,有,有,70000,729.0,,0.0,0,租期為柒個月又貳拾伍天，租金內含有線電視、ADSL費用,RPQOMLMJJIKFFDA27CC,25.045894,121.568593
信義區,建物,臺北市松山區吳興街284巷59弄1~30號,0.0,住,1041019,土地0建物1車位1,四層,13.0,住宅大樓(11層含以上有電梯),住家用,鋼筋混凝土造,0970128,194.76,2,2,2,有,無,有,125000,642.0,坡道平面,116.39,0,,RPSOMLMJJIKFFDA47CC,25.022339,121.563496
松山區,建物,臺北市松山區八德路二段331~360號,0.0,商,1041006,土地0建物1車位0,十三層,14.0,住宅大樓(11層含以上有電梯),住家用,鋼筋混凝土造,0980123,49.0,1,1,1,有,有,有,30000,612.0,,0.0,0,含稅,RPVOMLMJJIKFFDA77CC,25.0479372,121.5458874
萬華區,建物,臺北市萬華區武昌街二段121~150號,0.0,商,1040930,土地0建物1車位0,一層,10.0,店面(店鋪),商業用,鋼筋混凝土造,0671218,76.36,0,0,0,無,有,無,33000,432.0,,0.0,0,,RPPNMLMJJIKFFBA86CC,25.0457618,121.5028797
萬華區,建物,臺北市萬華區大理街91~120號,0.0,其他,1040930,土地0建物1車位0,九層,12.0,住宅大樓(11層含以上有電梯),住家用,鋼筋混凝土造,0960504,160.8,3,2,2,有,有,有,34000,211.0,坡道平面,38.07,0,,RPVNMLMJJIKFFBA47CC,25.0343493,121.4985342
中正區,建物,臺北市中正區忠孝東路二段134巷1~30號,0.0,住,1041028,土地0建物1車位1,四層,14.0,住宅大樓(11層含以上有電梯),住家用,鋼骨鋼筋混凝土造,0941111,296.92,3,2,2,有,有,有,136958,461.0,坡道平面,20.51,0,,RPQPMLMJJIKFFBA17CC,25.0416762,121.531817
大同區,建物,臺北市大同區承德路三段241~270號,0.0,商,1041022,土地0建物1車位1,五層,12.0,辦公商業大樓,住家用,鋼筋混凝土造,1010918,154.18,0,0,0,無,有,無,56000,363.0,坡道平面,27.66,0,,RPRPMLMJJIKFFBA27CC,25.071054,121.518774
萬華區,建物,臺北市萬華區萬大路211~240號,0.0,住,1040930,土地0建物1車位0,全,3.0,透天厝,,加強磚造,,131.71,0,0,0,無,有,無,78000,592.0,,0.0,0,,RPWPMLMJJIKFFBA77CC,25.0268845,121.5005075
士林區,建物,臺北市士林區中山北路六段405巷31~60號,0.0,住,1041030,土地0建物1車位0,四層,7.0,華廈(10層含以下有電梯),住家用,鋼筋混凝土造,0731109,150.77,3,2,2,有,無,有,56000,371.0,,0.0,0,,RPXNMLMJJIKFFEA97CC,25.114697,121.5255797
北投區,建物,臺北市北投區尊賢街230巷1~30號,0.0,住,1041030,土地0建物1車位0,五層,5.0,公寓(5樓含以下無電梯),住家用,鋼筋混凝土造,0660114,80.9,3,2,1,有,無,無,16000,198.0,,0.0,0,,RPOOMLMJJIKFFEA17CC,25.1164205,121.5083683
中山區,建物,臺北市中山區建國北路一段33巷31~60號,0.0,商,1041006,土地0建物1車位0,六層,6.0,華廈(10層含以下有電梯),住家用,鋼筋混凝土造,0701230,114.09,3,2,2,有,無,有,28000,245.0,,0.0,0,租金內含管理費,RPQNMLMJJIKFFCA07CC,25.0478385,121.5393649
內湖區,建物,臺北市內湖區內湖路二段253巷31~60號,0.0,住,1041028,土地0建物1車位1,一層,11.0,住宅大樓(11層含以上有電梯),住家用,鋼筋混凝土造,0980923,341.04,3,2,4,有,有,有,150000,440.0,坡道平面,43.91,0,,RPWNMLMJJIKFFCA67CC,25.083569,121.5891165
內湖區,建物,臺北市內湖區金豐街31~60號,0.0,商,1041031,土地0建物1車位0,二層,10.0,華廈(10層含以下有電梯),見其他登記事項,鋼筋混凝土造,0991124,112.36,2,2,1,有,有,有,31000,276.0,,0.0,0,租金含車位及管理費,RPXNMLMJJIKFFCA77CC,25.0656346,121.5871547
內湖區,建物,臺北市內湖區南京東路六段451巷31~60號,0.0,商,1041004,土地0建物1車位1,四層,14.0,住宅大樓(11層含以上有電梯),商業用,鋼筋混凝土造,0971205,84.73,1,1,1,有,有,有,25000,295.0,坡道機械,16.52,0,,RPOOMLMJJIKFFCA96CC,25.0614954,121.587052
內湖區,土地,潭美段三小段91~120地號,115.0,工,1041009,土地1建物0車位0,,,其他,,,,0.0,0,0,0,有,無,有,15000,130.0,,0.0,0,,RPQOMLMJJIKFFCA17CC,25.054466,121.577885
中山區,建物,臺北市中山區長安東路一段30巷8弄1~30號,0.0,商,1041028,土地0建物1車位0,三層,11.0,住宅大樓(11層含以上有電梯),住家用,鋼筋混凝土造,1000222,168.09,2,1,2,有,有,有,60000,357.0,,0.0,0,,RPROMLMJJIKFFCA27CC,25.0479922,121.5260316
中山區,建物,臺北市中山區松江路77巷1~30號,0.0,住,1041031,土地0建物1車位0,十一層,11.0,住宅大樓(11層含以上有電梯),商業用,鋼筋混凝土造,0931224,60.02,2,1,2,有,有,無,50000,833.0,,0.0,0,,RPSOMLMJJIKFFCA37CC,25.0496307,121.534381
中山區,建物,臺北市中山區長安東路二段211~240號,0.0,商,1041023,土地0建物1車位0,二層,12.0,辦公商業大樓,商業用,鋼筋混凝土造,0740418,122.18,0,0,0,無,有,無,40000,327.0,,0.0,0,,RPTOMLMJJIKFFCA47CC,25.0481587,121.5431253
內湖區,建物,臺北市內湖區文德路61~90號,0.0,住,1041021,土地0建物1車位1,七層,17.0,住宅大樓(11層含以上有電梯),住家用,鋼筋混凝土造,0981224,255.08,4,2,2,有,有,有,50000,196.0,坡道平面,12.38,0,僅租一個車位，車位編號28號，車位樓層5層，管理費6978元/月,RPUOMLMJJIKFFCA57CC,25.0786893,121.5817652
內湖區,建物,臺北市內湖區星雲街168巷1~30號,0.0,住,1041006,土地0建物1車位1,三層,13.0,住宅大樓(11層含以上有電梯),住家用,鋼筋混凝土造,0841116,163.17000000000004,3,2,1,有,有,有,34000,208.0,坡道平面,13.4,0,租金含管理費及車位清潔費,RPWOMLMJJIKFFCA77CC,25.0805676,121.5966782
大安區,建物,臺北市大安區延吉街97巷1~30號,0.0,住,1041022,土地0建物1車位0,三層,6.0,華廈(10層含以下有電梯),住家用,鋼筋混凝土造,0740722,106.69,3,2,2,有,無,有,39300,368.0,,0.0,0,租金含管理費,RPQNMLMJJIKFFFA37CC,25.0431777,121.5550425
大安區,房地(土地+建物),臺北市大安區復興南路一段61~90號,18.3,商,1040917,土地1建物2車位0,一層,5.0,店面(店鋪),商業用,鋼筋混凝土造,,103.59,0,0,0,無,無,無,160000,1545.0,,0.0,0,,RPRNMLMJJIKFFFA47CC,25.0438035,121.5442264
大安區,建物,臺北市大安區忠孝東路四段91~120號,0.0,商,1041030,土地0建物1車位0,十二層,12.0,住宅大樓(11層含以上有電梯),住家用,鋼筋混凝土造,,61.42999999999999,2,1,1,有,有,有,48000,781.0,,0.0,0,,RPWNMLMJJIKFFFA97CC,25.041778,121.547781
文山區,建物,臺北市文山區景文街91~120號,0.0,商,1041006,土地0建物1車位0,地下層,4.0,公寓(5樓含以下無電梯),見使用執照,鋼筋混凝土造,,407.02,0,0,0,無,無,有,120000,295.0,,0.0,0,,RPSNMLMJJIKFFAA07CC,24.991033,121.541392
中正區,建物,臺北市中正區南昌路一段24巷1~30號,0.0,住,1041018,土地0建物1車位0,七層,7.0,華廈(10層含以下有電梯),住家用,鋼筋混凝土造,0970509,67.62,1,1,1,有,有,有,28000,414.0,,0.0,0,,RPPOMLMJJIKFFAA86CC,25.0318759,121.5159895
中正區,建物,臺北市中正區南昌路二段61~90號,0.0,商,1041026,土地0建物1車位0,九層,12.0,住宅大樓(11層含以上有電梯),住家用,鋼筋混凝土造,0711111,89.07,2,1,1,有,有,無,25000,281.0,,0.0,0,,RPQOMLMJJIKFFAA96CC,25.02755,121.52039
中正區,建物,臺北市中正區羅斯福路四段121~150號,0.0,商,1041012,土地0建物1車位0,一層,4.0,店面(店鋪),,加強磚造,,76.73,0,0,0,無,無,有,95000,1238.0,,0.0,0,,RPSOMLMJJIKFFAA17CC,25.0132495,121.5357364
萬華區,建物,臺北市萬華區中華路一段211~240號,0.0,商,1041021,土地0建物1車位0,五層,15.0,住宅大樓(11層含以上有電梯),住家用,鋼筋混凝土造,1010705,216.11,3,2,1,有,有,無,45000,208.0,,0.0,0,,RPUOMLMJJIKFFBA57DC,25.0376119,121.5067908
士林區,建物,臺北市士林區士商路121~150號,0.0,住,1041022,土地0建物1車位0,一層,12.0,住宅大樓(11層含以上有電梯),商業用,鋼筋混凝土造,0930504,67.73,0,0,0,無,有,無,39772,587.0,,0.0,0,租金含代扣繳租賃所得及二代健保,RPQNMLMJJIKFFEA37DC,25.0928088,121.5183464
大安區,房地(土地+建物),臺北市大安區大安路一段16巷1~30號,0.0,住,1041029,土地0建物1車位0,一層,7.0,店面(店鋪),商業用,鋼筋混凝土造,0730216,38.9,1,1,1,有,有,無,68200,1753.0,,0.0,0,租金含代扣繳租賃所得稅。民國104年10月29日起至民國104年11月12日止為免租裝潢期,RPWNMLNJJIKFFFA18DC,25.0441692,121.5460752
大安區,房地(土地+建物),臺北市大安區安和路二段69巷1~30號,0.0,住,1041027,土地0建物1車位0,四層,8.0,套房(1房1廳1衛),住家用,鋼筋混凝土造,0941201,45.22,1,1,1,有,有,有,22000,487.0,,0.0,0,租金含代扣繳租賃所得稅。民國104年10月27日至104年10月31日為搬遷期間，不收取租金,RPXNMLNJJIKFFFA28DC,25.0306205,121.5526981
中正區,建物,臺北市中正區寧波西街1~30號,0.0,住,1041018,土地0建物1車位0,四層,11.0,套房(1房1廳1衛),見其他登記事項,鋼筋混凝土造,0940607,34.370000000000005,1,1,1,有,有,有,28000,815.0,,0.0,0,,RPTNMLNJJIKFFAA27CC,25.0315748,121.5188063
中正區,建物,臺北市中正區羅斯福路三段316巷1~30號,0.0,商,1041014,土地0建物1車位0,八層,10.0,套房(1房1廳1衛),見其他登記事項,鋼筋混凝土造,1010626,53.39,1,1,1,有,有,有,28200,528.0,,0.0,0,租金內含管理費,RPXNMLNJJIKFFAA67CC,25.015757,121.532347
大安區,建物,臺北市大安區永康街37巷1~30號,0.0,住,1041028,土地0建物1車位0,三層,4.0,公寓(5樓含以下無電梯),住家用,鋼筋混凝土造,0611002,64.52,2,1,1,有,有,有,38000,589.0,,0.0,0,,RPRNMLNJJIKFFFA57CC,25.0310669,121.531013
大安區,建物,臺北市大安區安和路二段91~120號,6686.0,住,1041027,土地0建物1車位1,十五層,25.0,住宅大樓(11層含以上有電梯),住家用,鋼筋混凝土造,0780810,228.25,3,2,3,有,有,有,85000,372.0,坡道平面,18.13,0,,RPTNMLNJJIKFFFA77CC,25.0299057,121.5519876
大安區,建物,臺北市大安區瑞安街208巷35弄1~30號,0.0,住,1041021,土地0建物1車位0,四層,5.0,華廈(10層含以下有電梯),住家用,鋼筋混凝土造,0820611,80.17,2,2,1,有,有,有,30000,374.0,,0.0,0,,RPUNMLNJJIKFFFA87CC,25.0296852,121.5408401
大安區,建物,臺北市大安區復興南路二段31~60號,0.0,商,1041030,土地0建物1車位0,十二層,12.0,套房(1房1廳1衛),住家用,鋼筋混凝土造,0691024,76.44,1,1,1,有,有,有,41000,536.0,,0.0,0,,RPTOMLNJJIKFFFA87CC,25.0320891,121.5438444
大安區,建物,臺北市大安區安和路二段121~150號,0.0,住,1041028,土地0建物1車位0,三層,7.0,華廈(10層含以下有電梯),住家用,鋼筋混凝土造,0721114,114.84,2,2,2,有,有,有,42000,366.0,,0.0,0,,RPUOMLNJJIKFFFA97CC,25.0293028,121.551372
內湖區,建物,臺北市內湖區金湖路121~150號,0.0,住,1041008,土地0建物1車位0,十四層,26.0,住宅大樓(11層含以上有電梯),住家用,見其他登記事項,1011121,269.51,3,2,2,有,有,有,130000,482.0,,0.0,0,租金含管理費及平面車位,RPQNMLNJJIKFFCA17CC,25.0800554,121.5986539
內湖區,建物,臺北市內湖區星雲街121~150號,0.0,住,1041027,土地0建物1車位1,三層,14.0,住宅大樓(11層含以上有電梯),住家用,鋼筋混凝土造,0931222,88.82,2,2,1,有,有,有,33000,372.0,坡道平面,26.12,0,,RPOOMLNJJIKFFCA07CC,25.0800801,121.5949485
中山區,建物,臺北市中山區基湖路112巷1~30號,0.0,住,1041013,土地0建物1車位1,三層,7.0,華廈(10層含以下有電梯),住家用,鋼骨鋼筋混凝土造,0920211,308.14,3,2,2,有,有,有,70000,227.0,坡道平面,80.58,0,,RPWPMLNJJIKFFCA97CC,25.079395,121.5627844
中山區,建物,臺北市中山區松江路1~30號,17.25,商,1041029,土地0建物1車位0,一層,12.0,店面(店鋪),商業用,鋼筋混凝土造,0720328,164.32,0,0,0,無,有,無,125000,761.0,,0.0,0,,RPOQMLNJJIKFFCA27CC,25.0456563,121.5329859
內湖區,建物,臺北市內湖區民權東路六段180巷72弄1~30號,0.0,,1041030,土地0建物1車位1,七層,10.0,華廈(10層含以下有電梯),住家用,鋼筋混凝土造,0970904,154.31,3,2,2,有,有,有,46000,298.0,坡道平面,48.3,0,,RPPQMLNJJIKFFCA37CC,25.0674367,121.5927097
中山區,建物,臺北市中山區敬業二路69巷1~30號,0.0,商,1041021,土地0建物1車位0,五層,8.0,華廈(10層含以下有電梯),商業用,鋼筋混凝土造,0921121,90.03,3,2,2,有,有,有,65000,722.0,,0.0,0,,RPQQMLNJJIKFFCA47CC,25.0821405,121.5533893
中山區,建物,臺北市中山區明水路475巷1~30號,0.0,住,1041022,土地0建物1車位1,八層,9.0,華廈(10層含以下有電梯),住家用,鋼筋混凝土造,0870122,148.51,1,2,2,有,有,有,55000,370.0,坡道平面,0.0,0,,RPRQMLNJJIKFFCA57CC,25.078218,121.551313
內湖區,房地(土地+建物),臺北市內湖區環山路一段24巷31~60號,23.42,其他,1041031,土地1建物1車位0,三層,6.0,華廈(10層含以下有電梯),住家用,鋼筋混凝土造,0850805,77.87,1,1,1,有,有,無,20000,257.0,,0.0,0,,RPSQMLNJJIKFFCA67CC,25.0845289,121.5642534
中山區,建物,臺北市中山區八德路二段61~90號,0.0,住,1041027,土地0建物1車位0,三層,11.0,套房(1房1廳1衛),商業用,鋼筋混凝土造,0950323,33.09,1,1,1,有,有,有,23000,695.0,,0.0,0,,RPVQMLNJJIKFFCA97CC,25.0452175,121.5348345
中山區,建物,臺北市中山區林森北路571~600號,0.0,商,1041022,土地0建物1車位0,四層,13.0,住宅大樓(11層含以上有電梯),住家用,鋼筋混凝土造,1000726,90.47,2,1,1,有,有,有,45000,497.0,,0.0,0,,RPWQMLNJJIKFFCA08CC,25.0649087,121.5256777
中山區,建物,臺北市中山區農安街1~30號,0.0,商,1041030,土地0建物1車位0,十二層,14.0,住宅大樓(11層含以上有電梯),住家用,鋼筋混凝土造,0980622,66.43,1,1,1,有,有,有,39000,587.0,,0.0,0,,RPORMLNJJIKFFCA37CC,25.065211,121.5293055
中山區,建物,臺北市中山區中山北路二段16巷1~30號,0.0,商,1041101,土地0建物1車位0,四層,7.0,華廈(10層含以下有電梯),住家用,鋼筋混凝土造,0610814,188.61,3,2,2,有,有,有,70000,371.0,,0.0,0,,RPPRMLNJJIKFFCA47CC,25.0530928,121.5219752
中山區,建物,臺北市中山區長春路181~210號,0.0,商,1041102,土地0建物1車位0,七層,14.0,住宅大樓(11層含以上有電梯),住家用,鋼筋混凝土造,0990324,203.66,4,1,2,有,有,有,63000,309.0,,0.0,0,,RPQRMLNJJIKFFCA57CC,25.054863,121.537651
內湖區,建物,臺北市內湖區康寧路一段271~300號,0.0,住,1041030,土地0建物1車位0,二層,12.0,住宅大樓(11層含以上有電梯),住家用,鋼筋混凝土造,0801021,39.17,0,0,1,有,有,有,12500,319.0,,0.0,0,租金內含管理費,RPSRMLNJJIKFFCA77CC,25.0790332,121.598936
內湖區,建物,臺北市內湖區民權東路六段180巷121~150號,0.0,,1041021,土地0建物1車位0,十層,11.0,住宅大樓(11層含以上有電梯),住家用,鋼筋混凝土造,1000221,212.87,3,2,2,有,有,有,57718,271.0,,0.0,0,,RPTRMLNJJIKFFCA87CC,25.0691137,121.5927226
中山區,建物,臺北市中山區新生北路三段1~30號,0.0,商,1041004,土地0建物1車位0,十層,12.0,套房(1房1廳1衛),商業用,鋼筋混凝土造,0700703,31.770000000000003,1,0,1,有,有,有,11000,346.0,,0.0,0,,RPVRMLNJJIKFFCA08CC,25.0628897,121.5281771
中山區,建物,臺北市中山區長春路258巷1~30號,0.0,其他,1041015,土地0建物1車位0,六層,10.0,套房(1房1廳1衛),商業用,鋼筋混凝土造,0850924,66.42,1,1,1,有,有,有,25000,376.0,,0.0,0,,RPWRMLNJJIKFFCA18CC,25.0536589,121.53897
北投區,建物,臺北市士林區中央北路三段40巷34弄1~30號,0.0,住,1041027,土地0建物1車位0,四層,21.0,住宅大樓(11層含以上有電梯),住家用,鋼筋混凝土造,1010731,147.11,3,2,2,有,無,有,39000,265.0,,0.0,0,,RPRNMLNJJIKFFEA47CC,25.1395359,121.4850091
北投區,建物,臺北市北投區立農街二段202巷1~30號,0.0,住,1041020,土地0建物1車位1,九層,9.0,華廈(10層含以下有電梯),住家用,鋼筋混凝土造,0881130,198.74,4,2,2,有,有,有,45200,227.0,一樓平面,30.53,0,租金內含車位租金及車位清潔費及機車位清潔費及 管理費,RPPOMLNJJIKFFEA37CC,25.1184144,121.514144
士林區,建物,臺北市士林區中山北路六段195巷1~30號,0.0,住,1041019,土地0建物1車位0,一層,5.0,公寓(5樓含以下無電梯),住家用,鋼筋混凝土造,0680625,217.65,2,2,1,有,無,有,37000,170.0,,0.0,0,,RPSOMLNJJIKFFEA67CC,25.1078258,121.5247221
士林區,建物,臺北市士林區後街21巷1~30號,0.0,住,1041023,土地0建物1車位0,五層,7.0,套房(1房1廳1衛),住家用,鋼筋混凝土造,1030618,57.6,1,1,1,有,有,有,27500,477.0,,0.0,0,,RPVOMLNJJIKFFEA97CC,25.098922,121.525074
士林區,房地(土地+建物)+車位,臺北市士林區故宮路1~30號,1550.26,住,1041102,土地1建物1車位1,四層,5.0,華廈(10層含以下有電梯),住家用,鋼筋混凝土造,1020607,331.61,4,2,3,有,有,有,118000,356.0,坡道平面,0.0,0,,RPPPMLNJJIKFFEA47CC,25.0976963,121.5467816
士林區,建物,臺北市士林區劍潭路61~90號,0.0,住,1041012,土地0建物1車位0,九層,14.0,住宅大樓(11層含以上有電梯),住家用,鋼筋混凝土造,0960122,153.0,3,2,2,有,有,有,47000,307.0,,0.0,0,,RPRPMLNJJIKFFEA67CC,25.0833776,121.521353
大同區,建物,臺北市大同區酒泉街10巷1~30號,0.0,商,1041031,土地0建物1車位0,五層,10.0,華廈(10層含以下有電梯),住家用,鋼筋混凝土造,1010403,157.25,3,2,2,有,有,有,45000,286.0,,0.0,0,,RPQNMLNJJIKFFBA07CC,25.0704996,121.5198081
中正區,建物,臺北市中正區忠孝東路一段61~90號,0.0,商,1041015,土地0建物1車位0,十二層,12.0,辦公商業大樓,住家用,鋼筋混凝土造,0711116,138.82999999999998,3,1,0,有,有,有,90000,648.0,,0.0,0,建物租金為含稅價。,RPROMLNJJIKFFBA27CC,25.0443399,121.5262168
松山區,建物,臺北市松山區八德路三段158巷20弄1~30號,0.0,住,1041029,土地0建物1車位0,三層,7.0,華廈(10層含以下有電梯),住家用,鋼筋混凝土造,0661019,147.24,4,2,2,有,有,有,48000,326.0,,0.0,0,,RPQNMLNJJIKFFDA27CC,25.0472663,121.555033
松山區,建物,臺北市松山區八德路四段631~660號,0.0,商,1041030,土地0建物1車位0,十二層,13.0,套房(1房1廳1衛),住家用,鋼筋混凝土造,1021216,42.61,1,1,1,有,有,有,30000,704.0,,0.0,0,,RPRNMLNJJIKFFDA37CC,25.0501957,121.5750038
松山區,建物,臺北市松山區八德路四段631~660號,0.0,商,1041027,土地0建物1車位0,六層,13.0,套房(1房1廳1衛),住家用,鋼筋混凝土造,1021216,47.72,1,1,1,有,有,有,27000,566.0,,0.0,0,,RPQOMLNJJIKFFDA37CC,25.0501957,121.5750038
信義區,建物,臺北市信義區忠孝東路五段236巷37弄1~30號,0.0,住,1041005,土地0建物1車位0,三層,4.0,套房(1房1廳1衛),住家用,鋼筋混凝土造,0860515,116.97,1,1,1,有,有,有,40000,342.0,,0.0,0,,RPROMLNJJIKFFDA47CC,25.038182,121.57206
信義區,建物,臺北市信義區永吉路31~60號,0.0,商,1041023,土地0建物1車位0,九層,14.0,套房(1房1廳1衛),住家用,鋼筋混凝土造,0960524,86.25,1,1,1,有,有,有,43000,499.0,,0.0,0,,RPUPMLNJJIKFFDA87CC,25.045894,121.568593
信義區,建物,臺北市信義區基隆路一段37巷1~30號,0.0,住,1041030,土地0建物1車位0,二層,2.0,公寓(5樓含以下無電梯),住家用,加強磚造,,47.7,4,2,3,有,無,有,15000,314.0,,0.0,0,,RPWPMLNJJIKFFDA08CC,25.043104,121.5646621
松山區,建物,臺北市松山區敦化北路91~120號,0.0,其他,1041013,土地0建物1車位0,三層,14.0,辦公商業大樓,商業用,鋼筋混凝土造,0730211,806.0699999999998,10,1,0,有,無,有,225000,279.0,,0.0,0,建物租金為含稅價，都市土地使用分區為敦化南北路特定專用區(A區)。,RPXPMLNJJIKFFDA18CC,25.0541345,121.5517354
松山區,建物,臺北市松山區八德路二段331~360號,0.0,商,1041022,土地0建物1車位0,四層,14.0,住宅大樓(11層含以上有電梯),住家用,鋼筋混凝土造,0980123,76.02,2,1,1,有,有,有,45000,592.0,,0.0,0,,RPPQMLNJJIKFFDA47CC,25.0479372,121.5458874
信義區,建物,臺北市信義區基隆路一段37巷1~30號,0.0,住,1041030,土地0建物1車位0,一層,2.0,公寓(5樓含以下無電梯),住家用,加強磚造,,47.7,0,0,0,無,無,無,18000,377.0,,0.0,0,,RPQNMLOJJIKFFDA37CC,25.043104,121.5646621
信義區,建物,臺北市信義區基隆路一段37巷1~30號,0.0,住,1041030,土地0建物1車位0,見其他登記事項,2.0,其他,住家用,加強磚造,,47.7,2,1,2,有,無,無,10000,210.0,,0.0,0,,RPRNMLOJJIKFFDA47CC,25.043104,121.5646621
信義區,房地(土地+建物)+車位,臺北市信義區信義路五段121~150號,300.77,其他,1040929,土地2建物1車位1,十四層,25.0,住宅大樓(11層含以上有電梯),住家用,見其他登記事項,0931130,231.67,2,2,3,有,無,無,160000,691.0,坡道平面,36.43,0,,RPTNMLOJJIKFFDA67CC,25.0336571,121.5738977
松山區,建物,臺北市松山區復興北路481~510號,0.0,住,1041029,土地0建物1車位0,十層,11.0,住宅大樓(11層含以上有電梯),住家用,鋼筋混凝土造,0960216,41.42,0,0,0,無,有,有,23000,555.0,,0.0,0,,RPXNMLOJJIKFFDA08CC,25.0649001,121.5445193
南港區,建物,臺北市南港區興南街151~180號,0.0,住,1041004,土地0建物1車位1,九層,12.0,住宅大樓(11層含以上有電梯),住家用,鋼筋混凝土造,1010813,254.33,4,2,3,有,有,有,55000,216.0,坡道平面,44.37,0,,RPUOMLOJJIKFFDA87CC,25.0544487,121.5976047
松山區,建物,臺北市松山區民權東路三段106巷3弄61~90號,0.0,住,1041020,土地0建物1車位0,二層,7.0,華廈(10層含以下有電梯),住家用,鋼筋混凝土造,0740301,124.06,3,2,2,有,有,有,54000,435.0,,0.0,0,,RPXOMLOJJIKFFDA18CC,25.0613287,121.5483936
大同區,建物,臺北市大同區承德路一段31~60號,0.0,商,1041030,土地0建物1車位0,三層,12.0,辦公商業大樓,商業用,鋼筋混凝土造,0721111,219.97,0,0,0,無,有,無,67000,305.0,,0.0,0,前兩年租金67000/月，後三年租金72000/月,RPVNMLOJJIKFFBA67CC,25.050939,121.517386
大同區,建物,臺北市大同區市民大道一段181~210號,0.0,其他,1041014,土地0建物1車位0,十二層,18.0,住宅大樓(11層含以上有電梯),住家用,見其他登記事項,0980724,137.03,3,2,2,有,有,有,70000,511.0,,0.0,0,,RPOOMLOJJIKFFBA07CC,25.048493,121.5187377
大同區,建物,臺北市大同區市民大道一段181~210號,0.0,其他,1041017,土地0建物1車位0,十三層,18.0,住宅大樓(11層含以上有電梯),住家用,見其他登記事項,0980724,77.10000000000002,2,2,1,有,有,有,53000,687.0,,0.0,0,含管理費。,RPQOMLOJJIKFFBA27CC,25.048493,121.5187377
士林區,建物,臺北市士林區忠誠路二段91~120號,0.0,,1041030,土地0建物1車位0,十三層,14.0,住宅大樓(11層含以上有電梯),住家用,鋼筋混凝土造,0750812,142.15,2,2,2,有,無,無,38000,267.0,,0.0,0,,RPWOMLOJJIKFFEA18CC,25.1160009,121.5338529
北投區,建物,臺北市北投區東華街二段31~60號,0.0,住,1041010,土地0建物1車位0,九層,14.0,住宅大樓(11層含以上有電梯),住家用,鋼筋混凝土造,0970722,190.87,3,2,2,有,有,有,62000,325.0,,0.0,0,,RPPPMLOJJIKFFEA57CC,25.1166303,121.5143344
士林區,建物,臺北市士林區天母東路91~120號,0.0,住,1041014,土地0建物1車位0,七層,7.0,華廈(10層含以下有電梯),住家用,鋼筋混凝土造,0740313,163.47,4,2,2,有,有,有,70000,428.0,,0.0,0,含管理費。,RPQPMLOJJIKFFEA67CC,25.1181687,121.5357737
中山區,建物,臺北市中山區明水路397巷18弄1~30號,0.0,住,1041007,土地0建物1車位2,十二層,15.0,住宅大樓(11層含以上有電梯),住家用,鋼筋混凝土造,0960919,181.37,3,2,2,有,有,有,120000,662.0,坡道平面,64.06,0,,RPQNMLOJJIKFFCA27CC,25.0787761,121.5494063
內湖區,建物,臺北市內湖區康寧路一段271~300號,0.0,住,1041006,土地0建物1車位0,十一層,12.0,套房(1房1廳1衛),住家用,鋼筋混凝土造,0801021,40.49,1,0,1,有,有,有,15000,370.0,,0.0,0,,RPTPMLOJJIKFFCA77CC,25.0790332,121.598936
內湖區,建物,臺北市內湖區瑞光路253巷1~30號,0.0,住,1041015,土地0建物1車位0,九層,10.0,華廈(10層含以下有電梯),住家用,鋼筋混凝土造,0860214,112.03,3,2,2,有,無,有,38000,339.0,,0.0,0,,RPUPMLOJJIKFFCA87CC,25.07497,121.5776415
中山區,建物,臺北市中山區雙城街18巷1~30號,0.0,商,1041015,土地0建物1車位0,八層,13.0,住宅大樓(11層含以上有電梯),住家用,鋼筋混凝土造,0951031,80.58,2,2,1,有,有,有,30000,372.0,,0.0,0,,RPVPMLOJJIKFFCA97CC,25.0654896,121.5240762
中山區,建物,臺北市中山區雙城街13巷1~30號,0.0,商,1041017,土地0建物1車位0,十五層,15.0,住宅大樓(11層含以上有電梯),住家用,鋼筋混凝土造,1010327,209.44,3,2,2,有,有,有,100000,477.0,,0.0,0,含管理費,RPXPMLOJJIKFFCA18CC,25.06417,121.5245646
中山區,建物,臺北市中山區中山北路二段65巷1~30號,0.0,商,1041019,土地0建物1車位0,十一層,14.0,住宅大樓(11層含以上有電梯),商業用,鋼筋混凝土造,0901112,81.22999999999998,2,2,1,有,有,有,40000,492.0,,0.0,0,,RPOQMLOJJIKFFCA37CC,25.0571759,121.52326
中山區,建物,臺北市中山區長春路91~120號,0.0,商,1041007,土地0建物1車位0,全,3.0,透天厝,,加強磚造,,71.7,0,0,0,無,無,無,60000,837.0,,0.0,0,,RPPQMLOJJIKFFCA47CC,25.0548889,121.5288284
大安區,建物,臺北市大安區復興南路二段271~300號,0.0,商,1041021,土地0建物1車位0,三層,12.0,辦公商業大樓,商業用,鋼筋混凝土造,0731228,160.22,0,0,0,無,有,無,66000,412.0,,0.0,0,,RPVNMLOJJIKFFFA08CC,25.025259,121.543739
大安區,房地(土地+建物),臺北市大安區復興南路一段61~90號,10.23,商,1041029,土地1建物1車位0,十五層,16.0,住宅大樓(11層含以上有電梯),住家用,鋼筋混凝土造,0701230,144.75,4,2,2,有,有,有,60000,415.0,,0.0,0,,RPWNMLOJJIKFFFA18CC,25.0438035,121.5442264
大安區,建物,臺北市大安區延吉街91~120號,0.0,商,1041027,土地0建物1車位0,六層,7.0,華廈(10層含以下有電梯),住家用,鋼筋混凝土造,0750522,51.17,2,1,1,有,有,有,25000,489.0,,0.0,0,,RPXNMLOJJIKFFFA28CC,25.0434386,121.5540539
大安區,建物,臺北市大安區大安路一段96巷1~30號,0.0,住,1041028,土地0建物1車位0,二層,8.0,華廈(10層含以下有電梯),住家用,鋼筋混凝土造,0940420,194.9,5,2,2,有,有,有,43000,221.0,,0.0,0,續租。,RPPOMLOJJIKFFFA57CC,25.0407239,121.545759
大安區,房地(土地+建物),臺北市大安區信義路二段61~90號,0.0,商,1041012,土地0建物1車位0,九層,11.0,辦公商業大樓,商業用,鋼筋混凝土造,,128.4,0,0,0,有,無,無,49010,382.0,,0.0,0,,RPQOMLOJJIKFFFA67CC,25.033939,121.526851
大安區,建物,臺北市大安區復興南路二段78巷30弄1~30號,0.0,住,1041012,土地0建物1車位0,七層,15.0,住宅大樓(11層含以上有電梯),住家用,鋼筋混凝土造,0760707,153.26,3,2,2,有,有,有,60000,391.0,,0.0,0,,RPROMLOJJIKFFFA77CC,25.0306398,121.541996
大安區,房地(土地+建物),臺北市大安區信義路二段61~90號,0.0,商,1041012,土地0建物1車位0,九層,11.0,辦公商業大樓,商業用,鋼筋混凝土造,,113.94,0,1,1,有,無,無,42000,369.0,,0.0,0,,RPSOMLOJJIKFFFA87CC,25.033939,121.526851
中正區,建物,臺北市中正區愛國東路116巷23弄1~30號,0.0,住,1041031,土地0建物1車位0,六層,12.0,住宅大樓(11層含以上有電梯),見其他登記事項,鋼筋混凝土造,0741022,100.23,3,2,2,有,有,無,28000,279.0,,0.0,0,,RPVNMLOJJIKFFAA57CC,25.0317395,121.5209523
中正區,建物,臺北市中正區寧波東街1~30號,0.0,住,1041019,土地0建物1車位0,一層,5.0,店面(店鋪),商業用,鋼筋混凝土造,0810626,107.37,0,0,0,無,無,無,36360,339.0,,0.0,0,,RPWNMLOJJIKFFAA67CC,25.0318808,121.5193721
士林區,房地(土地+建物),臺北市士林區中庸一路14巷12弄1~30號,472.16,住,1041019,土地1建物1車位0,見其他登記事項,2.0,其他,住家用,鋼筋混凝土造,0700803,457.78,5,2,3,有,無,無,150000,328.0,,0.0,0,,RPSNMLOJJIKFFEA77DC,25.133407,121.5494995
大安區,建物,臺北市大安區敦化南路一段181~210號,0.0,商,1041101,土地0建物1車位0,八層,14.0,辦公商業大樓,商業用,鋼筋混凝土造,,84.43,0,0,0,無,有,無,43000,509.0,,0.0,0,,RPQNMLPJJIKFFFA77DC,25.042916,121.5494161
松山區,建物,臺北市松山區南京東路四段151~180號,0.0,商,1041010,土地0建物1車位0,五層,12.0,辦公商業大樓,商業用,鋼筋混凝土造,0711111,107.87,0,0,0,無,有,無,55000,510.0,,0.0,0,,RPQNMLPJJIKFFDA57DC,25.0518383,121.5556829
中山區,建物,臺北市中山區長春路361~390號,0.0,商,1041015,土地0建物1車位0,五層,16.0,辦公商業大樓,商業用,鋼筋混凝土造,0850710,149.94,0,0,0,無,有,無,63000,420.0,,0.0,0,,RPPNMLPJJIKFFCA37DC,25.054587,121.5434512
中山區,建物,臺北市中山區松江路211~240號,0.0,商,1041020,土地0建物1車位0,八層,11.0,辦公商業大樓,商業用,鋼筋混凝土造,0640530,112.4,0,0,0,無,有,無,45900,408.0,,0.0,0,,RPQNMLPJJIKFFCA47DC,25.0573328,121.5333792
大安區,建物,臺北市大安區仁愛路四段345巷5弄1~30號,0.0,住,1041009,土地0建物1車位0,一層,7.0,店面(店鋪),住商用,鋼筋混凝土造,,159.45,0,0,0,無,無,無,50000,314.0,,0.0,0,分租店面,RPRNMLPJJIKFFFA77CC,25.0384082,121.55425
大安區,建物,臺北市大安區忠孝東路四段121~150號,0.0,商,1041007,土地0建物1車位0,五層,12.0,辦公商業大樓,商業用,鋼筋混凝土造,0710209,74.49000000000002,0,0,0,無,有,無,32000,430.0,,0.0,0,,RPWNMLPJJIKFFFA28CC,25.0416949,121.548408
大安區,建物,臺北市大安區敦化南路二段31~60號,0.0,商,1041029,土地0建物1車位0,十四層,20.0,辦公商業大樓,商業用,鋼筋混凝土造,0720714,149.38,4,1,0,有,有,無,80000,536.0,,0.0,0,,RPOOMLPJJIKFFFA57CC,25.0322761,121.5491635
大安區,建物,臺北市大安區敦化南路一段187巷31~60號,191.0,住,1041022,土地0建物1車位0,三層,4.0,公寓(5樓含以下無電梯),,加強磚造,,97.07,3,2,2,有,無,無,35000,361.0,,0.0,0,,RPSOMLPJJIKFFFA97CC,25.0425769,121.5507807
大安區,房地(土地+建物),臺北市大安區忠孝東路三段61~90號,13.12,住,1041031,土地1建物1車位0,四層,11.0,住宅大樓(11層含以上有電梯),商業用,鋼筋混凝土造,0830609,109.73,1,1,1,有,有,有,40000,365.0,,0.0,0,,RPTOMLPJJIKFFFA08CC,25.0417755,121.5374896
中山區,建物,臺北市中山區長安東路二段151~180號,0.0,商,1041102,土地0建物1車位0,十二層,14.0,住宅大樓(11層含以上有電梯),商業用,鋼筋混凝土造,0900326,72.42,2,1,1,有,有,有,35000,483.0,,0.0,0,2房中含1和室，租金內含大樓管理費,RPSNMLPJJIKFFCA57CC,25.0483536,121.5387141
中山區,建物,臺北市中山區敬業一路31~60號,0.0,商,1041103,土地0建物1車位1,四層,7.0,華廈(10層含以下有電梯),商業用,鋼筋混凝土造,0961130,202.44,3,2,2,有,有,有,68861,340.0,坡道平面,47.1,0,租期為1年10個月又28天。,RPTNMLPJJIKFFCA67CC,25.0810634,121.5525721
內湖區,建物,臺北市內湖區民權東路六段123巷1~30號,0.0,商,1041015,土地0建物1車位0,五層,14.0,辦公商業大樓,商業用,鋼筋混凝土造,0890106,108.73,0,0,0,無,有,無,38000,349.0,,0.0,0,,RPROMLPJJIKFFCA57CC,25.0694119,121.5928933
中山區,建物,臺北市中山區松江路181~210號,0.0,商,1041007,土地0建物1車位0,十一層,14.0,套房(1房1廳1衛),商業用,鋼筋混凝土造,0671219,28.85,1,1,1,有,有,有,20000,693.0,,0.0,0,租金含管理費。,RPVOMLPJJIKFFCA97CC,25.0563544,121.5333334
北投區,建物,臺北市北投區中正街61~90號,0.0,商,1041026,土地0建物1車位0,一層,29.0,店面(店鋪),見其他登記事項,鋼骨鋼筋混凝土造,0961119,75.22999999999998,0,1,1,有,有,無,48000,638.0,,0.0,0,,RPRNMLPJJIKFFEA67CC,25.1322076,121.5000773
士林區,房地(土地+建物)+車位,臺北市士林區仰德大道三段47巷1~30號,66.0,住,1041016,土地1建物1車位1,全,2.0,透天厝,住家用,鋼筋混凝土造,0720708,417.89,5,3,5,有,無,無,120000,287.0,坡道平面,0.0,0,,RPUNMLPJJIKFFEA97CC,25.118385,121.552073
士林區,房地(土地+建物)+車位,臺北市士林區中山北路六段441巷31~60號,0.0,住,1041102,土地0建物1車位1,十層,14.0,住宅大樓(11層含以上有電梯),住家用,鋼骨鋼筋混凝土造,0970909,225.91,3,2,2,有,有,無,155000,686.0,坡道平面,0.0,0,,RPVNMLPJJIKFFEA08CC,25.1034688,121.524989
萬華區,建物,臺北市萬華區中華路一段151~180號,0.0,商,1041005,土地0建物1車位0,十四層,15.0,住宅大樓(11層含以上有電梯),住家用,鋼筋混凝土造,1020104,154.55,3,2,2,有,有,有,53000,343.0,,0.0,0,,RPPNMLPJJIKFFBA17CC,25.040241,121.506849
大同區,建物,臺北市大同區市民大道一段181~210號,0.0,其他,1041103,土地0建物1車位0,五層,18.0,住宅大樓(11層含以上有電梯),住家用,見其他登記事項,0980724,137.03,3,2,2,有,無,有,50000,365.0,,0.0,0,,RPQNMLPJJIKFFBA27CC,25.048493,121.5187377
萬華區,建物,臺北市萬華區峨眉街121~150號,0.0,商,1041005,土地0建物1車位0,全,5.0,透天厝,,鋼筋混凝土造,,175.38,0,0,0,無,無,無,55000,314.0,,0.0,0,做店面使用,RPRNMLPJJIKFFBA37CC,25.0445107,121.5028541
大同區,建物,臺北市大同區承德路一段1~30號,0.0,商,1041029,土地0建物1車位0,九層,12.0,住宅大樓(11層含以上有電梯),住家用,鋼筋混凝土造,0730629,109.67,3,2,2,有,有,無,32000,292.0,,0.0,0,,RPXOMLPJJIKFFBA08CC,25.049308,121.5171935
中正區,房地(土地+建物),臺北市中正區延平南路61~90號,7.38,商,1041020,土地1建物1車位0,六層,10.0,辦公商業大樓,住家用,鋼筋混凝土造,0700402,61.78,1,0,1,有,有,有,19900,322.0,,0.0,0,含稅附家具,RPOPMLPJJIKFFBA27CC,25.044646,121.510461
信義區,建物,臺北市信義區松勇路31~60號,0.0,住,1041103,土地0建物1車位2,五層,13.0,住宅大樓(11層含以上有電梯),住家用,鋼筋混凝土造,0921009,436.36,3,2,3,有,有,有,185000,424.0,坡道平面,87.0,0,,RPUNMLPJJIKFFDA87CC,25.0368853,121.5700912
信義區,建物,臺北市信義區信義路五段121~150號,0.0,其他,1041030,土地0建物1車位0,九層,19.0,住宅大樓(11層含以上有電梯),住家用,鋼筋混凝土造,0980702,49.09,1,1,1,有,有,有,25500,519.0,,0.0,0,,RPPOMLPJJIKFFDA47CC,25.0336571,121.5738977
松山區,建物,臺北市松山區光復南路57巷1~30號,0.0,住,1041006,土地0建物1車位0,五層,5.0,公寓(5樓含以下無電梯),住家用,鋼筋混凝土造,,105.53,2,0,1,有,無,有,15000,142.0,,0.0,0,實際是租 此門牌的 項樓加蓋。租金含第四台。,RPXOMLPJJIKFFDA28CC,25.0458657,121.558104
信義區,建物,臺北市信義區基隆路一段37巷1~30號,0.0,住,1041105,土地0建物1車位0,二層,2.0,公寓(5樓含以下無電梯),住家用,加強磚造,,61.33,3,1,2,有,無,有,16000,261.0,,0.0,0,,RPSNMLQJJIKFFDA77CC,25.043104,121.5646621
松山區,建物,臺北市松山區民族東路661~690號,26.04,住,1041101,土地0建物1車位0,三層,7.0,華廈(10層含以下有電梯),住家用,鋼筋混凝土造,0701223,149.55,2,2,2,有,無,有,28000,187.0,,0.0,0,,RPVNMLQJJIKFFDA08CC,25.064091,121.547249
松山區,建物,臺北市松山區光復北路230巷1~30號,0.0,住,1041008,土地0建物1車位0,十四層,18.0,住宅大樓(11層含以上有電梯),見其他登記事項,鋼筋混凝土造,0910320,115.68,3,2,1,有,有,有,33600,290.0,,0.0,0,租金含管理費。,RPSOMLQJJIKFFDA87CC,25.0563398,121.5531603
信義區,房地(土地+建物),臺北市信義區信義路四段十三樓之1~30號,12.81,住,1041106,土地6建物1車位0,十三層,14.0,辦公商業大樓,商業用,鋼筋混凝土造,,165.2,0,0,0,無,有,無,63000,381.0,,0.0,0,,RPXOMLQJJIKFFDA38CC,25.0337705,121.5591024
信義區,建物,臺北市信義區信義路五段121~150號,0.0,其他,1041023,土地0建物1車位0,五層,25.0,住宅大樓(11層含以上有電梯),住家用,見其他登記事項,0931130,110.98,1,1,1,有,有,有,60000,541.0,,0.0,0,,RPOPMLQJJIKFFDA57CC,25.0336571,121.5738977
信義區,建物,臺北市信義區基隆路二段151~180號,0.0,商,1041102,土地0建物1車位0,十五層,15.0,套房(1房1廳1衛),住家用,鋼筋混凝土造,0990901,99.52,1,1,1,有,有,有,40000,402.0,,0.0,0,續約,RPQPMLQJJIKFFDA77CC,25.0260187,121.5546122
信義區,建物,臺北市信義區基隆路一段37巷1~30號,0.0,住,1041105,土地0建物1車位0,見其他登記事項,2.0,公寓(5樓含以下無電梯),住家用,加強磚造,,61.33,3,1,2,有,無,有,16000,261.0,,0.0,0,,RPTPMLQJJIKFFDA08CC,25.043104,121.5646621
大同區,建物,臺北市大同區民權西路91~120號,0.0,商,1041006,土地0建物0車位0,八層,13.0,辦公商業大樓,商業用,鋼筋混凝土造,0710713,156.7,2,0,0,有,有,無,55000,351.0,,0.0,0,,RPVNMLQJJIKFFBA87CC,25.0630764,121.5188695
大同區,建物,臺北市大同區市民大道一段181~210號,0.0,其他,1041007,土地0建物1車位0,十層,18.0,住宅大樓(11層含以上有電梯),住家用,見其他登記事項,0980724,72.24000000000002,2,1,1,有,有,有,40000,554.0,,0.0,0,含稅，含二代建保,RPUOMLQJJIKFFBA87CC,25.048493,121.5187377
士林區,房地(土地+建物)+車位,臺北市士林區中山北路七段81巷1~30號,55.86,住,1040915,土地1建物1車位1,十一層,19.0,住宅大樓(11層含以上有電梯),住家用,鋼筋混凝土造,0811124,328.21,5,2,3,有,無,有,180000,548.0,坡道平面,9.9,0,,RPTOMLQJJIKFFEA08CC,25.1216193,121.5310804
士林區,建物,臺北市士林區中山北路六段195巷1~30號,0.0,住,1041008,土地0建物1車位0,九層,14.0,住宅大樓(11層含以上有電梯),住家用,鋼筋混凝土造,0970506,85.38,2,2,1,有,有,有,43000,504.0,,0.0,0,租金含管理費。,RPPQMLQJJIKFFEA87CC,25.1078258,121.5247221
士林區,建物,臺北市士林區天母北路31~60號,0.0,住,1041021,土地0建物1車位0,五層,7.0,華廈(10層含以下有電梯),住家用,鋼筋混凝土造,0910425,173.37,3,2,2,有,有,有,68000,392.0,,0.0,0,,RPSQMLQJJIKFFEA18CC,25.1202139,121.5266031
北投區,建物,臺北市北投區榮華三路31~60號,0.0,住,1041103,土地0建物1車位0,一層,4.0,公寓(5樓含以下無電梯),住家用,鋼筋混凝土造,0620131,81.16,2,2,1,有,無,有,32000,394.0,,0.0,0,,RPWQMLQJJIKFFEA58CC,25.1138909,121.5208202
士林區,房地(土地+建物),臺北市士林區中山北路七段151~180號,108.0,商,1041105,土地1建物1車位0,一層,4.0,店面(店鋪),商業用,鋼筋混凝土造,0610925,35.42,0,0,0,無,無,有,34091,962.0,,0.0,0,,RPORMLQJJIKFFEA87CC,25.1234456,121.5321256
內湖區,建物,臺北市內湖區南京東路六段331~360號,0.0,工,1041105,土地0建物1車位0,二層,12.0,住宅大樓(11層含以上有電梯),見其他登記事項,鋼筋混凝土造,0970407,87.32,1,2,1,有,有,有,23000,263.0,,0.0,0,租金已含管理費,RPVNMLQJJIKFFCA97CC,25.0583026,121.5844348
中山區,房地(土地+建物),臺北市中山區林森北路361~390號,0.0,住,1041026,土地0建物1車位0,十六層,18.0,住宅大樓(11層含以上有電梯),商業用,鋼筋混凝土造,0980916,141.27,2,2,1,有,有,有,63000,446.0,,0.0,0,"含管理費(NT＄5,657)。",RPSOMLQJJIKFFCA77CC,25.0572804,121.5257191
中山區,建物,臺北市中山區林森北路631~660號,0.0,住,1041013,土地0建物1車位0,六層,9.0,華廈(10層含以下有電梯),住家用,鋼筋混凝土造,0961024,110.15,3,2,2,有,有,有,45000,409.0,,0.0,0,,RPWOMLQJJIKFFCA18CC,25.0671654,121.5259185
中山區,建物,臺北市中山區雙成街13巷1~30號,0.0,商,1041010,土地0建物1車位0,九層,14.0,住宅大樓(11層含以上有電梯),住家用,鋼筋混凝土造,0941207,96.06,2,1,1,有,有,有,57000,593.0,,0.0,0,含稅，租賃期間1年6個月1天,RPWPMLQJJIKFFCA28CC,25.06417,121.5245646
大安區,建物,臺北市大安區信義路二段91~120號,0.0,商,1041012,土地0建物1車位0,全,4.0,透天厝,,加強磚造,,335.1,0,0,0,無,無,無,200000,597.0,,0.0,0,,RPRNMLQJJIKFFFA87CC,25.0344053,121.5269823
大安區,建物,臺北市大安區和平東路二段118巷54弄1~30號,0.0,住,1041103,土地0建物1車位0,三層,4.0,公寓(5樓含以下無電梯),住家用,鋼筋混凝土造,,111.46,3,2,2,有,無,無,23000,206.0,,0.0,0,,RPUNMLQJJIKFFFA18CC,25.0220383,121.5426945
大安區,建物,臺北市大安區麗水街1~30號,0.0,住,1041020,土地0建物1車位0,五層,7.0,華廈(10層含以下有電梯),住家用,鋼筋混凝土造,1000322,90.71,1,2,1,有,有,有,45000,496.0,,0.0,0,內含管理費。,RPWNMLQJJIKFFFA38CC,25.0325879,121.529128
中山區,建物,臺北市中山區南京東路二段91~120號,0.0,商,1041028,土地0建物1車位0,十層,12.0,辦公商業大樓,商業用,鋼筋混凝土造,0670111,212.11,0,0,0,無,有,無,60000,283.0,,0.0,0,,RPTNMLQJJIKFFCA87DC,25.0522884,121.5321795
中山區,建物,臺北市中山區中山北路三段1~30號,0.0,商,1041023,土地0建物1車位0,十一層,14.0,辦公商業大樓,商業用,鋼筋混凝土造,,70.48,0,0,0,無,有,無,29000,411.0,,0.0,0,,RPUNMLQJJIKFFCA97DC,25.0639349,121.522626
中山區,建物,臺北市中山區民權東路二段1~30號,0.0,商,1041106,土地0建物1車位0,八層,12.0,辦公商業大樓,住家用,鋼筋混凝土造,0730406,62.59,0,0,0,無,有,有,29000,463.0,,0.0,0,,RPOOMLQJJIKFFCA47DC,25.0628844,121.5280983
信義區,建物,臺北市信義區忠孝東路五段661~690號,0.0,商,1041006,土地0建物1車位0,十層,10.0,辦公商業大樓,商業用,鋼筋混凝土造,0811006,87.49,2,1,0,有,有,有,55000,629.0,,0.0,0,,RPXNMLQJJIKFFDA38DC,25.041961,121.579489
中正區,建物,臺北市中正區羅斯福路一段58巷1~30號,0.0,,1041017,土地0建物1車位0,二層,9.0,華廈(10層含以下有電梯),住家用,鋼筋混凝土造,0810611,135.23,4,2,2,有,有,有,35000,259.0,,0.0,0,,RPWOMLQJJIKFFAA97CC,25.030735,121.5192355
松山區,房地(土地+建物),臺北市松山區敦化北路199巷1~30號,45.16,住,1041010,土地1建物1車位0,八層,12.0,住宅大樓(11層含以上有電梯),住家用,鋼筋混凝土造,0830716,174.65,3,2,2,有,有,有,48000,275.0,,0.0,0,,RPSNMLRJJIKFFDA97DC,25.0559119,121.550794
中正區,建物,臺北市中正區同安街31~60號,0.0,住,1041027,土地0建物1車位0,全,2.0,透天厝,,磚造,,110.36,0,2,1,有,無,無,70000,634.0,,0.0,0,,RPUNMLTJJIKFFAA97CC,25.025421,121.52251
大安區,建物,臺北市大安區信義路四段181~210號,0.0,商,1040913,土地0建物1車位0,九層,12.0,辦公商業大樓,商業用,鋼筋混凝土造,0850705,44.94,1,1,1,有,有,有,25000,556.0,,0.0,0,,RPTNMLTJJIKFFFA38CC,25.033616,121.550768
大安區,建物,臺北市大安區忠孝東路四段101巷1~30號,0.0,,1041103,土地0建物1車位0,一層,14.0,店面(店鋪),商業用,鋼筋混凝土造,,141.18,0,0,0,無,無,無,300000,2125.0,,0.0,0,,RPPOMLTJJIKFFFA08CC,25.0419004,121.5440748
大安區,建物,臺北市大安區忠孝東路四段61~90號,0.0,商,1041030,土地0建物0車位0,一層,12.0,店面(店鋪),商業用,鋼筋混凝土造,,9.59,0,0,0,無,有,無,86000,8968.0,,0.0,0,承租面積2.9坪,RPQOMLTJJIKFFFA18CC,25.0418045,121.5459871
中山區,房地(土地+建物),臺北市中山區長安東路一段53巷1~30號,14.7,住,1041027,土地1建物1車位0,三層,7.0,華廈(10層含以下有電梯),住家用,鋼筋混凝土造,0761223,71.42,2,2,1,有,有,有,25000,350.0,,0.0,0,,RPWNMLTJJIKFFCA38CC,25.048973,121.526644
中山區,建物,臺北市中山區樂群二路271~300號,0.0,其他,1041015,土地0建物1車位0,一層,11.0,店面(店鋪),商業用,鋼筋混凝土造,0970603,115.37,0,0,0,無,有,無,70000,607.0,,0.0,0,,RPROMLTJJIKFFCA97CC,25.0799454,121.5606201
內湖區,建物,臺北市內湖區內湖路一段120巷15弄1~30號,0.0,工,1041021,土地0建物1車位0,二層,9.0,廠辦,見其他登記事項,鋼筋混凝土造,0960613,121.16,0,0,0,無,有,無,50000,413.0,,0.0,0,分租c戶面積36.65坪約121.16平方公尺,RPVOMLTJJIKFFCA38CC,25.0864375,121.5573647
內湖區,建物,臺北市內湖區內湖路一段120巷15弄1~30號,0.0,工,1041030,土地0建物1車位0,四層,9.0,廠辦,見其他登記事項,鋼筋混凝土造,0960613,652.49,0,0,0,無,有,無,180000,276.0,,0.0,0,,RPQPMLTJJIKFFCA97CC,25.0864375,121.5573647
士林區,房地(土地+建物),臺北市士林區天母北路31~60號,0.0,住,1041022,土地0建物1車位0,四層,7.0,華廈(10層含以下有電梯),住家用,鋼筋混凝土造,0910425,173.37,4,2,2,有,有,有,65000,375.0,,0.0,0,內含管理費。,RPOOMLTJJIKFFEA87CC,25.1202139,121.5266031
士林區,建物,臺北市士林區忠誠路一段171巷12弄1~30號,0.0,住,1041028,土地0建物1車位0,十層,12.0,住宅大樓(11層含以上有電梯),住家用,鋼筋混凝土造,0981231,206.37,4,2,2,有,有,有,60000,291.0,,0.0,0,,RPQOMLTJJIKFFEA08CC,25.1063602,121.5311623
士林區,建物,臺北市士林區磺溪街88巷1~30號,0.0,住,1041105,土地0建物1車位0,五層,7.0,華廈(10層含以下有電梯),住家用,鋼筋混凝土造,0970721,157.87,2,1,2,有,有,有,71500,453.0,,0.0,0,,RPPPMLTJJIKFFEA08CC,25.1084873,121.5234458
士林區,建物,臺北市士林區天玉街91~120號,0.0,住,1041102,土地0建物1車位0,三層,8.0,套房(1房1廳1衛),住家用,鋼筋混凝土造,0840619,43.45,1,1,1,有,有,有,19000,437.0,,0.0,0,含管理費,RPOQMLTJJIKFFEA08CC,25.1233607,121.5313467
中正區,房地(土地+建物)+車位,臺北市中正區信義路二段121~150號,17.25,商,1041007,土地1建物1車位1,五層,13.0,住宅大樓(11層含以上有電梯),住家用,鋼骨鋼筋混凝土造,0950804,209.6,4,2,2,有,有,無,85000,479.0,坡道平面,46.9,7000,(含稅及二代健保+每月管理費5522元),RPQNMLTJJIKFFBA67CC,25.0340741,121.5277376
大同區,建物,臺北市大同區鄭州路29巷1~30號,0.0,商,1041007,土地0建物1車位0,全,4.0,透天厝,,加強磚造,,45.42,3,1,1,有,無,無,18000,396.0,,0.0,0,,RPRNMLTJJIKFFBA77CC,25.0496549,121.514308
大同區,建物,臺北市大同區承德路一段1~30號,0.0,其他,1041007,土地0建物1車位0,十一層,20.0,辦公商業大樓,商業用,鋼筋混凝土造,0781103,159.55,0,0,0,無,有,無,83000,520.0,,0.0,0,,RPUNMLTJJIKFFBA08CC,25.049308,121.5171935
大同區,建物,臺北市大同區長安西路31~60號,0.0,商,1041020,土地0建物1車位0,五層,12.0,辦公商業大樓,商業用,鋼筋混凝土造,0780801,120.09,3,1,2,有,有,無,40000,333.0,,0.0,0,,RPWNMLTJJIKFFBA28CC,25.0503705,121.5197986
松山區,建物,臺北市松山區八德路二段331~360號,0.0,,1041011,土地0建物1車位0,四層,14.0,住宅大樓(11層含以上有電梯),住家用,鋼筋混凝土造,0980123,47.5,1,1,1,有,有,有,23000,484.0,,0.0,0,,RPVOMLTJJIKFFDA48CC,25.0479372,121.5458874
信義區,房地(土地+建物),臺北市信義區基隆路一段121~150號,4.38,住,1041106,土地1建物1車位0,十層,18.0,住宅大樓(11層含以上有電梯),見其他登記事項,見其他登記事項,0950126,68.33,0,1,1,有,無,有,27000,395.0,,0.0,0,,RPOPMLTJJIKFFDA87CC,25.0447812,121.5669716
南港區,建物,臺北市南港區園區街1~30號,0.0,工,1041102,土地0建物1車位0,七層,21.0,辦公商業大樓,見其他登記事項,見其他登記事項,0920530,2689.74,12,0,0,有,有,有,1057745,393.0,,0.0,0,,RPQPMLTJJIKFFDA08CC,25.0589059,121.6120912
松山區,房地(土地+建物),臺北市松山區延壽街31~60號,28.88,住,1041109,土地1建物1車位0,五層,7.0,華廈(10層含以下有電梯),見其他登記事項,鋼筋混凝土造,0811008,115.45,3,2,2,有,有,有,30000,260.0,,0.0,0,,RPXNMLKKJIKFFDA77CC,25.0574249,121.5681491
松山區,房地(土地+建物),臺北市松山區民生東路五段138巷1~30號,20.42,商,1041106,土地1建物1車位0,二層,12.0,住宅大樓(11層含以上有電梯),住家用,鋼筋混凝土造,,95.81,3,2,1,有,有,無,34000,355.0,,0.0,0,,RPOOMLKKJIKFFDA96CC,25.0585503,121.5616507
南港區,建物,臺北市南港區經貿二路235巷1~30號,0.0,住,1040930,土地0建物1車位4,二十層,21.0,住宅大樓(11層含以上有電梯),住家用,鋼骨鋼筋混凝土造,1031204,674.0899999999998,4,2,4,有,有,有,310986,461.0,坡道平面,110.28,0,"含12%稅金及二代健保，管理費28781, 全室傢俱",RPPOMLKKJIKFFDA07CC,25.0560908,121.61759
松山區,建物,臺北市松山區撫遠街195巷1~30號,0.0,住,1041106,土地0建物1車位0,六層,7.0,華廈(10層含以下有電梯),住家用,鋼筋混凝土造,0690728,147.32999999999996,4,2,2,有,有,有,38000,258.0,,0.0,0,,RPROMLKKJIKFFDA27CC,25.0599066,121.5682133
信義區,建物,臺北市信義區忠孝東路五段451~480號,0.0,商,1041020,土地0建物1車位0,十一層,11.0,住宅大樓(11層含以上有電梯),見其他登記事項,鋼筋混凝土造,0941006,36.27,1,1,1,有,有,有,32000,882.0,,0.0,0,,RPOPMLKKJIKFFDA07CC,25.0411038,121.5762524
南港區,建物,臺北市南港區向陽路196巷1~30號,0.0,住,1041020,土地0建物1車位0,二層,9.0,華廈(10層含以下有電梯),住家用,鋼筋混凝土造,1000708,176.25,3,2,2,有,有,有,33000,187.0,,0.0,0,,RPQPMLKKJIKFFDA27CC,25.0557847,121.5944366
信義區,建物,臺北市信義區忠孝東路五段361~390號,0.0,其他,1041020,土地0建物1車位0,六層,11.0,住宅大樓(11層含以上有電梯),見其他登記事項,鋼筋混凝土造,0940531,38.3,1,1,1,有,有,有,36000,940.0,,0.0,0,,RPTPMLKKJIKFFDA57CC,25.0410231,121.5745955
南港區,建物,臺北市南港區東明街31~60號,0.0,住,1041020,土地0建物1車位0,六層,13.0,住宅大樓(11層含以上有電梯),住家用,鋼筋混凝土造,0971110,77.66,2,2,1,有,有,有,34000,438.0,,0.0,0,,RPUPMLKKJIKFFDA67CC,25.0561803,121.6046533
信義區,建物,臺北市信義區信義路五段150巷1~30號,0.0,住,1041109,土地0建物1車位0,八層,30.0,住宅大樓(11層含以上有電梯),住家用,鋼骨鋼筋混凝土造,0861024,157.1,3,2,2,有,有,有,45000,286.0,,0.0,0,,RPQQMLKKJIKFFDA37CC,25.0335054,121.5607789
大同區,建物,臺北市大同區市民大道一段181~210號,0.0,其他,1041103,土地0建物1車位0,十三層,18.0,住宅大樓(11層含以上有電梯),住家用,見其他登記事項,0980724,118.12,1,1,2,有,有,有,60000,508.0,,0.0,0,,RPUNMLKKJIKFFBA27CC,25.048493,121.5187377
士林區,建物,臺北市士林區中山北路六段441巷1~30號,0.0,住,1041105,土地0建物1車位0,五層,14.0,住宅大樓(11層含以上有電梯),住家用,鋼骨鋼筋混凝土造,0990517,206.8,3,2,3,有,有,有,105000,508.0,,0.0,0,,RPROMLKKJIKFFEA37CC,25.117334,121.525577
士林區,建物,臺北市士林區天母東路31~60號,26.67,商,1041104,土地0建物1車位0,二層,5.0,公寓(5樓含以下無電梯),商業用,鋼筋混凝土造,0671117,118.08,0,0,0,無,無,無,55000,466.0,,0.0,0,,RPQPMLKKJIKFFEA37CC,25.1182213,121.5319856
中山區,建物,臺北市中山區樂群二路271~300號,0.0,其他,1041103,土地0建物2車位1,十一層,11.0,住宅大樓(11層含以上有電梯),商業用,鋼筋混凝土造,0970603,125.1,2,2,2,有,有,有,42511,340.0,坡道平面,19.67,0,兩戶打通,RPVNMLKKJIKFFCA47CC,25.0799454,121.5606201
中山區,建物,臺北市中山區復興北路151~180號,0.0,商,1041103,土地0建物1車位0,十三層,16.0,住宅大樓(11層含以上有電梯),商業用,鋼筋混凝土造,0851205,44.42,1,1,1,有,有,有,20000,450.0,,0.0,0,租期為11個月又10天,RPWNMLKKJIKFFCA57CC,25.0536429,121.544471
中山區,建物,臺北市中山區中山北路一段1~30號,0.0,商,1041105,土地0建物1車位0,三層,18.0,辦公商業大樓,商業用,鋼骨鋼筋混凝土造,0860630,358.36,4,0,2,有,有,無,140000,391.0,,0.0,0,,RPVOMLKKJIKFFCA57CC,25.080659,121.526509
中山區,建物,臺北市中山區南京東路三段91~120號,0.0,商,1040901,土地0建物1車位0,五層,11.0,辦公商業大樓,商業用,鋼筋混凝土造,0920220,611.61,0,0,0,無,有,無,333000,544.0,,0.0,0,,RPXOMLKKJIKFFCA77CC,25.0521478,121.5390652
中山區,建物,臺北市中山區農安街1~30號,0.0,住,1041110,土地0建物0車位0,十二層,14.0,住宅大樓(11層含以上有電梯),住家用,鋼筋混凝土造,0920618,89.53,2,2,1,有,有,有,42843,479.0,,0.0,0,急出租急承租。租賃範圍不含車位，且無法區分車位面積。含管理費、稅金或水電等費用。,RPRPMLKKJIKFFCA27CC,25.065211,121.5293055
中山區,車位,臺北市中山區雙城街13巷1~30號,0.0,住,1041106,土地0建物0車位1,,,其他,,,,3.34,0,0,0,有,無,有,2300,,升降機械,3.34,2300,,RPSPMLKKJIKFFCA37CC,25.06417,121.5245646
中山區,建物,臺北市中山區林森北路310巷1~30號,0.0,商,1041012,土地0建物1車位0,二層,12.0,住宅大樓(11層含以上有電梯),商業用,鋼筋混凝土造,0880928,49.99,2,1,1,有,有,有,25000,500.0,,0.0,0,,RPWPMLKKJIKFFCA77CC,25.0562092,121.5243368
中山區,建物,臺北市中山區新生北路二段123巷1~30號,0.0,住,1041013,土地0建物1車位0,三層,3.0,公寓(5樓含以下無電梯),住家用,加強磚造,,65.38,2,1,1,有,無,有,28000,428.0,,0.0,0,,RPXPMLKKJIKFFCA87CC,25.0594616,121.5280237
大安區,建物,臺北市大安區基隆路二段241~270號,0.0,住,1041031,土地0建物1車位1,八層,13.0,住宅大樓(11層含以上有電梯),住家用,鋼筋混凝土造,1001130,405.73,3,2,4,有,有,有,125000,308.0,坡道平面,38.9,0,,RPQNMLKKJIKFFFA27CC,25.0226316,121.5506748
大安區,建物,臺北市大安區新生南路一段97巷1~30號,0.0,住,1041020,土地0建物1車位0,四層,6.0,華廈(10層含以下有電梯),住家用,鋼筋混凝土造,0730126,127.96,3,2,2,有,無,有,65000,508.0,,0.0,0,,RPSNMLKKJIKFFFA47CC,25.0412648,121.5340794
大安區,建物,臺北市大安區羅斯福路三段271~300號,0.0,住,1041030,土地0建物1車位0,一層,6.0,店面(店鋪),住家用,鋼筋混凝土造,,90.54,0,0,0,無,有,無,70000,773.0,,0.0,0,,RPVNMLKKJIKFFFA77CC,25.018672,121.530625
中正區,建物,臺北市中正區南昌路二段1~30號,0.0,商,1041109,土地0建物1車位0,五層,13.0,住宅大樓(11層含以上有電梯),住家用,鋼筋混凝土造,1020315,175.93,3,2,2,有,有,有,50000,284.0,,0.0,0,,RPXPMLKKJIKFFAA67CC,25.027387,121.520033
文山區,建物,臺北市文山區羅斯福路六段142巷61~90號,0.0,住,1041105,土地0建物1車位0,二層,8.0,華廈(10層含以下有電梯),住家用,鋼筋混凝土造,0800710,138.06,3,2,2,有,有,無,30000,217.0,,0.0,0,,RPUOMLLKJIKFFAA37CC,24.9959275,121.5412225
中正區,建物,臺北市中正區羅斯福路二段1~30號,0.0,商,1041015,土地0建物1車位0,見其他登記事項,12.0,住宅大樓(11層含以上有電梯),見其他登記事項,鋼筋混凝土造,1020809,78.98,0,0,0,無,無,無,57200,724.0,升降機械,0.0,0,,RPVOMLLKJIKFFAA47CC,25.0296105,121.5208404
松山區,房地(土地+建物),臺北市松山區光復北路26巷1~30號,7.54,商,1041110,土地2建物2車位0,六層,10.0,華廈(10層含以下有電梯),商業用,鋼筋混凝土造,0830324,70.0,2,1,1,有,無,有,25000,357.0,,0.0,0,,RPWNMLLKJIKFFDA87DC,25.0491543,121.5574164
中山區,建物,臺北市中山區建國北路一段1~30號,0.0,住,1041013,土地0建物1車位0,十一層,14.0,住宅大樓(11層含以上有電梯),住家用,鋼筋混凝土造,0930416,36.45,1,1,1,有,有,有,18000,494.0,,0.0,0,,RPRNMLLKJIKFFCA17CC,25.046334,121.537031
中山區,建物,臺北市中山區錦西街31~60號,0.0,商,1041012,土地0建物1車位0,一層,7.0,店面(店鋪),商業用,鋼筋混凝土造,0660608,304.3400000000001,0,1,1,有,無,有,110000,361.0,,0.0,0,,RPSNMLLKJIKFFCA27CC,25.0604519,121.5207306
內湖區,房地(土地+建物),臺北市內湖區洲子街61~90號,124.96,工,1041020,土地1建物1車位0,八層,11.0,廠辦,見其他登記事項,鋼筋混凝土造,0990416,124.96,0,0,0,無,無,無,54810,439.0,,0.0,0,,RPXNMLLKJIKFFCA77CC,25.0796946,121.5729014
內湖區,房地(土地+建物),臺北市內湖區瑞光路571~600號,226.25,工,1041104,土地1建物1車位0,三層,9.0,廠辦,工業用,鋼筋混凝土造,0880806,226.25,0,0,0,無,有,無,71500,316.0,,0.0,0,,RPPOMLLKJIKFFCA07CC,25.0799077,121.5680042
士林區,建物,臺北市士林區文林路751~780號,93.09,商,1041104,土地0建物1車位0,一層,11.0,住宅大樓(11層含以上有電梯),商業用,鋼筋混凝土造,0700204,93.09,1,1,1,有,有,無,40000,430.0,,0.0,0,,RPXNMLLKJIKFFEA97CC,25.1032438,121.5195204
士林區,建物,臺北市士林區中山北路七段14巷1~30號,0.0,商,1041109,土地0建物1車位0,二層,7.0,華廈(10層含以下有電梯),住家用,鋼筋混凝土造,0711116,147.2,4,2,2,有,有,無,28000,190.0,,0.0,0,,RPQOMLLKJIKFFEA37CC,25.1195978,121.5325851
北投區,建物,臺北市北投區石牌路一段1~30號,0.0,商,1041110,土地0建物1車位2,八層,12.0,住宅大樓(11層含以上有電梯),住家用,鋼筋混凝土造,1021108,288.43,3,2,2,有,有,有,60000,208.0,坡道平面,51.03,0,,RPROMLLKJIKFFEA47CC,25.1127524,121.5094273
士林區,建物,臺北市士林區中山北路六段211~240號,0.0,住,1041027,土地0建物1車位0,五層,14.0,住宅大樓(11層含以上有電梯),住家用,鋼骨鋼筋混凝土造,0930518,166.37,3,2,2,有,有,有,70000,421.0,,0.0,0,,RPVOMLLKJIKFFEA87CC,25.1083439,121.525036
松山區,建物,臺北市松山區敦化北路301~330號,0.0,其他,1041109,土地0建物1車位0,六層,11.0,住宅大樓(11層含以上有電梯),住家用,鋼筋混凝土造,0630912,147.56,3,2,2,有,有,有,53000,359.0,,0.0,0,,RPPOMLLKJIKFFDA17CC,25.0583141,121.5496202
松山區,建物,臺北市松山區富錦街91~120號,0.0,住,1041107,土地0建物1車位0,四層,4.0,公寓(5樓含以下無電梯),住家用,鋼筋混凝土造,,100.0,3,2,1,有,無,有,32000,320.0,,0.0,0,,RPUNMLMKJIKFFDA67CC,25.06003,121.552183
松山區,建物,臺北市松山區南京東路五段250巷36弄31~60號,0.0,住,1041111,土地0建物1車位0,五層,5.0,公寓(5樓含以下無電梯),住家用,鋼筋混凝土造,0750306,127.31,2,2,1,有,無,有,29000,228.0,,0.0,0,,RPPOMLMKJIKFFDA27CC,25.0498711,121.5677072
信義區,建物,臺北市信義區忠孝東路五段236巷3弄1~30號,0.0,其他,1041105,土地0建物1車位0,六層,14.0,住宅大樓(11層含以上有電梯),住家用,鋼筋混凝土造,,79.59,2,2,1,有,有,有,26000,327.0,,0.0,0,,RPQOMLMKJIKFFDA37CC,25.04251,121.578983
信義區,建物,臺北市信義區松山路465巷31~60號,0.0,住,1041028,土地0建物1車位0,四層,4.0,公寓(5樓含以下無電梯),住家用,鋼筋混凝土造,,88.08,2,2,2,有,無,有,27000,307.0,,0.0,0,,RPTOMLMKJIKFFDA67CC,25.040366,121.579662
松山區,建物,臺北市松山區敦化北路91~120號,0.0,商,1041027,土地0建物1車位0,十層,,辦公商業大樓,,,,392.7,0,0,0,無,有,無,178500,455.0,,0.0,0,,RPWOMLMKJIKFFDA97CC,25.0541345,121.5517354
士林區,建物,臺北市士林區社子十二街61~90號,0.0,其他,1041020,土地0建物1車位0,四層,4.0,公寓(5樓含以下無電梯),住家用,鋼筋混凝土造,0601208,78.3,2,2,1,有,無,有,14000,179.0,,0.0,0,,RPRNMLMKJIKFFEA47CC,25.0899183,121.5101308
大同區,建物,臺北市大同區蘭州街124巷1~30號,0.0,住,1041014,土地0建物0車位0,全,4.0,透天厝,住家用,鋼筋混凝土造,0750519,19.83,1,0,1,有,無,有,8500,429.0,,0.0,0,此為分租套房,RPQNMLMKJIKFFBA07CC,25.0655847,121.5154946
萬華區,建物,臺北市萬華區中華路一段151~180號,0.0,商,1041012,土地0建物1車位1,五層,14.0,住宅大樓(11層含以上有電梯),住家用,鋼筋混凝土造,0941007,168.8,1,1,2,有,有,無,40000,237.0,升降機械,0.0,0,租金含1車位,RPVNMLMKJIKFFBA57CC,25.040241,121.506849
中正區,建物,臺北市中正區重慶南路一段31~60號,0.0,商,1041028,土地0建物1車位0,十一層,14.0,辦公商業大樓,見使用執照,鋼筋混凝土造,0910723,34.02,1,1,1,有,有,有,17000,500.0,,0.0,0,,RPQPMLMKJIKFFBA27CC,25.045451,121.513395
中正區,建物,臺北市中正區延平南路61~90號,0.0,商,1041012,土地0建物1車位0,二層,9.0,辦公商業大樓,商業用,鋼筋混凝土造,0690902,75.98,0,0,0,無,有,有,23600,311.0,,0.0,0,,RPUPMLMKJIKFFBA67CC,25.044646,121.510461
中正區,建物,臺北市中正區新生南路一段160巷1~30號,0.0,住,1041109,土地0建物1車位0,五層,9.0,華廈(10層含以下有電梯),住家用,鋼筋混凝土造,1020523,204.99,3,2,2,有,有,有,75000,366.0,升降機械,11.73,0,,RPOQMLMKJIKFFBA17CC,25.0346931,121.5320244
中山區,建物,臺北市中山區林森北路259巷1~30號,0.0,商,1041018,土地0建物1車位0,七層,7.0,套房(1房1廳1衛),住家用,鋼筋混凝土造,0730922,31.07,1,0,1,有,有,有,12500,402.0,,0.0,0,,RPQNMLMKJIKFFCA17CC,25.0543839,121.5261346
中山區,建物,臺北市中山區錦州街241~270號,0.0,住,1041030,土地0建物1車位0,二層,4.0,公寓(5樓含以下無電梯),,加強磚造,,88.47,3,2,2,有,無,無,28000,316.0,,0.0,0,,RPRNMLMKJIKFFCA27CC,25.0603308,121.5337591
中山區,建物,臺北市中山區雙城街17巷31~60號,0.0,商,1041025,土地0建物1車位0,一層,14.0,店面(店鋪),商業用,鋼筋混凝土造,0941207,43.82,1,1,1,有,有,無,37000,844.0,,0.0,0,,RPVNMLMKJIKFFCA67CC,25.064475,121.5256695
內湖區,建物,臺北市內湖區安泰街65巷1~30號,0.0,住,1041025,土地0建物0車位0,四層,5.0,公寓(5樓含以下無電梯),住家用,鋼筋混凝土造,0690818,20.69,1,0,1,有,無,有,8000,387.0,,0.0,0,此物件為分租套房,RPXNMLMKJIKFFCA87CC,25.0749819,121.6169136
中山區,建物,臺北市中山區吉林路161巷1~30號,0.0,住,1041023,土地0建物1車位0,三層,4.0,公寓(5樓含以下無電梯),,加強磚造,,82.6,3,2,1,有,無,有,20000,242.0,,0.0,0,,RPROMLMKJIKFFCA37CC,25.0590134,121.530724
中山區,建物,臺北市中山區吉林路241~270號,0.0,商,1041026,土地0建物0車位0,五層,7.0,辦公商業大樓,商業用,鋼筋混凝土造,0720204,36.44,1,0,0,有,有,有,13650,375.0,,0.0,0,此物件為分租辦公室,RPVOMLMKJIKFFCA77CC,25.0611653,121.5304091
中山區,建物,臺北市中山區敬業三路161巷1~30號,0.0,,1041110,土地0建物1車位0,一層,7.0,套房(1房1廳1衛),商業用,鋼筋混凝土造,0950124,75.85,0,2,2,有,無,有,43000,567.0,,0.0,0,,RPXOMLMKJIKFFCA97CC,25.0794229,121.555967
中山區,建物,臺北市中山區松江路511~540號,0.0,住,1041102,土地0建物1車位0,七層,7.0,辦公商業大樓,住家用,鋼筋混凝土造,0731208,137.47,0,0,0,無,有,無,26000,189.0,,0.0,0,,RPOPMLMKJIKFFCA17CC,25.069435,121.533849
中山區,建物,臺北市中山區農安街1~30號,0.0,商,1041027,土地0建物0車位0,三層,9.0,華廈(10層含以下有電梯),商業用,鋼筋混凝土造,0780712,26.9,1,0,1,有,無,有,11000,409.0,,0.0,0,此物件為分租套房,RPSPMLMKJIKFFCA57CC,25.065211,121.5293055
中山區,建物,臺北市中山區中山北路二段84巷31~60號,0.0,商,1041026,土地0建物0車位0,四層,4.0,公寓(5樓含以下無電梯),住家用,鋼筋混凝土造,0650325,26.45,1,0,1,有,無,有,11000,416.0,,0.0,0,1.此物件為分租套房2.房東不提供契約書,RPTPMLMKJIKFFCA67CC,25.0572925,121.521682
內湖區,建物,臺北市內湖區內湖路二段331~360號,0.0,住,1041104,土地0建物1車位0,一層,14.0,店面(店鋪),見其他登記事項,鋼筋混凝土造,1031023,74.71000000000002,0,0,0,無,有,無,36000,482.0,,0.0,0,,RPUPMLMKJIKFFCA77CC,25.083277,121.591515
中山區,建物,臺北市中山區建國北路二段1~30號,0.0,住,1041105,土地0建物1車位1,十四層,14.0,住宅大樓(11層含以上有電梯),商業用,鋼筋混凝土造,0950713,98.11,1,1,1,有,有,有,50000,510.0,坡道平面,0.0,0,,RPQQMLMKJIKFFCA47CC,25.0523809,121.5371887
文山區,建物,臺北市文山區羅斯福路六段92巷1~30號,0.0,商,1041102,土地0建物1車位0,一層,5.0,公寓(5樓含以下無電梯),住家用,鋼筋混凝土造,0740913,112.21,1,2,1,有,無,無,32000,285.0,,0.0,0,租金含增建部分,RPUNMLMKJIKFFAA37CC,24.998124,121.540097
大安區,房地(土地+建物),臺北市大安區安和路二段171巷1~30號,34.44,住,1041016,土地1建物1車位0,十六層,17.0,住宅大樓(11層含以上有電梯),住家用,鋼筋混凝土造,0750131,308.31,3,3,3,有,有,有,120000,389.0,,0.0,0,,RPSNMLMKJIKFFFA67CC,25.0281759,121.5507617
大安區,建物,臺北市大安區信義路四段151~180號,0.0,,1041101,土地0建物1車位0,六層,21.0,住宅大樓(11層含以上有電梯),商業用,鋼筋混凝土造,,155.42,3,2,2,有,無,無,56000,360.0,,0.0,0,,RPTNMLMKJIKFFFA77CC,25.0334437,121.54982
大安區,建物,臺北市大安區信義路四段265巷31~60號,0.0,,1041028,土地0建物1車位0,六層,7.0,華廈(10層含以下有電梯),住家用,鋼筋混凝土造,0681231,160.87,3,2,2,有,無,無,61000,379.0,,0.0,0,,RPUNMLMKJIKFFFA87CC,25.0345656,121.5552668
大安區,建物,臺北市大安區敦化南路661~690號,0.0,商,1041030,土地0建物0車位0,十五層,15.0,辦公商業大樓,商業用,鋼筋混凝土造,0720714,125.62,0,0,0,無,有,有,57000,454.0,,0.0,0,,RPROMLMKJIKFFFA67CC,25.0219721,121.5489334
中正區,房地(土地+建物),臺北市中正區南昌路一段31~60號,9.8,商,1041111,土地2建物1車位0,二層,10.0,華廈(10層含以下有電梯),商業用,鋼筋混凝土造,0780720,86.38,0,0,0,無,有,無,32000,370.0,,0.0,0,,RPSNMLNKJIKFFAA27CC,25.031672,121.5168693
信義區,建物,臺北市信義區信義路五段121~150號,0.0,其他,1041104,土地0建物1車位1,十六層,25.0,住宅大樓(11層含以上有電梯),住家用,見其他登記事項,0931130,225.86,1,2,2,有,有,有,210000,930.0,坡道平面,0.0,0,,RPTOMLNKJIKFFDA87DC,25.0336571,121.5738977
中山區,建物,臺北市中山區雙誠街19巷1~30號,0.0,,1041016,土地0建物1車位0,五層,7.0,華廈(10層含以下有電梯),住家用,鋼筋混凝土造,0720301,30.25,1,0,1,有,有,有,16500,545.0,,0.0,0,,RPVNMLNKJIKFFCA77CC,25.065313,121.5245371
中山區,建物,臺北市中山區中山北路二段77巷1~30號,0.0,,1041110,土地0建物1車位0,一層,11.0,住宅大樓(11層含以上有電梯),商業用,鋼筋混凝土造,,64.25,0,0,0,無,有,無,28000,436.0,,0.0,0,,RPTOMLNKJIKFFCA67CC,25.0576603,121.5230347
中山區,建物,臺北市中山區長春路1~30號,0.0,商,1041016,土地0建物1車位0,四層,12.0,套房(1房1廳1衛),商業用,鋼筋混凝土造,0731128,59.88,1,1,1,有,有,有,23000,384.0,,0.0,0,租金含管理費。,RPSPMLNKJIKFFCA67CC,25.0547461,121.5308377
大同區,建物,臺北市大同區南京西路61~90號,0.0,商,1041016,土地0建物1車位0,十層,12.0,辦公商業大樓,見使用執照,鋼筋混凝土造,0870119,218.24,0,0,0,無,無,有,83000,380.0,升降平面,41.68,0,建物租金為含稅價。,RPSNMLNKJIKFFBA37CC,25.0530963,121.5191378
大同區,建物,臺北市大同區南京西路61~90號,0.0,商,1041016,土地0建物1車位0,十層,12.0,辦公商業大樓,見使用執照,鋼筋混凝土造,0870119,278.08,0,0,0,無,無,有,108000,388.0,升降平面,41.68,0,建物租金為含稅價。,RPTNMLNKJIKFFBA47CC,25.0530963,121.5191378
士林區,建物,臺北市士林區忠誠路二段10巷1~30號,0.0,商,1041021,土地0建物1車位0,一層,5.0,公寓(5樓含以下無電梯),住家用,鋼筋混凝土造,0661215,124.07,3,2,2,有,無,無,30000,242.0,,0.0,0,,RPSOMLNKJIKFFEA77CC,25.1088042,121.5298473
北投區,建物,臺北市北投區北投區裕民二路61~90號,0.0,商,1041031,土地0建物1車位0,三層,19.0,住宅大樓(11層含以上有電梯),見其他登記事項,鋼筋混凝土造,1021108,111.11,2,2,1,有,有,有,53000,477.0,,0.0,0,,RPTPMLNKJIKFFEA97CC,25.1142414,121.5164232
信義區,房地(土地+建物),臺北市信義區虎林街252巷61~90號,30.75,住,1041111,土地1建物1車位0,一層,4.0,公寓(5樓含以下無電梯),住家用,鋼筋混凝土造,0600603,70.8,0,0,0,無,無,無,40000,565.0,,0.0,0,,RPVNMLNKJIKFFDA87CC,25.035419,121.576389
信義區,建物,臺北市信義區永吉路1~30號,0.0,商,1041111,土地0建物1車位0,六層,12.0,住宅大樓(11層含以上有電梯),住家用,鋼筋混凝土造,0961106,94.62,2,2,1,有,有,有,70000,740.0,,0.0,0,租金內含有線電視費、ADSL費,RPQOMLNKJIKFFDA47CC,25.04492,121.5752274
南港區,房地(土地+建物)+車位,臺北市南港區經貿二路157巷36弄91~120號,0.0,住,1041013,土地0建物1車位1,九層,21.0,住宅大樓(11層含以上有電梯),住家用,鋼筋混凝土造,1030306,338.21,3,2,3,有,有,無,150000,444.0,坡道平面,45.17,0,,RPXOMLNKJIKFFDA18CC,25.0623546,121.6144649
信義區,建物,臺北市信義區基隆路二段121~150號,0.0,住,1041029,土地0建物1車位0,四層,12.0,辦公商業大樓,商業用,鋼筋混凝土造,0790119,137.75,2,1,1,有,有,有,55000,399.0,,0.0,0,,RPRPMLNKJIKFFDA67CC,25.0285037,121.5570023
松山區,建物,臺北市松山區南京東路四段1~30號,0.0,商,1041016,土地0建物1車位0,十一層,15.0,住宅大樓(11層含以上有電梯),住家用,鋼筋混凝土造,0971205,55.88,1,1,1,有,有,有,35000,626.0,,0.0,0,含稅，含二代建保租賃期間8個月15天,RPVPMLNKJIKFFDA08CC,25.0519742,121.5495307
信義區,房地(土地+建物)+車位,臺北市松山區信義路五段91~120號,8.04,其他,1041015,土地1建物1車位1,十四層,19.0,住宅大樓(11層含以上有電梯),住家用,鋼筋混凝土造,0980702,47.79,1,1,1,有,有,有,27500,0.0,坡道平面,59.69,0,,RPWPMLNKJIKFFDA18CC,25.0326825,121.5651137
松山區,建物,臺北市松山區民生東路三段121~150號,0.0,商,1041112,土地0建物1車位0,七層,14.0,辦公商業大樓,商業用,鋼筋混凝土造,0751129,233.34,8,0,0,有,有,無,113636,487.0,,0.0,0,,RPPNMLOKJIKFFDA37CC,25.0580549,121.546978
松山區,建物,臺北市松山區民權東路三段106巷15弄1~30號,0.0,住,1041112,土地0建物1車位0,六層,7.0,華廈(10層含以下有電梯),住家用,鋼筋混凝土造,0740817,425.96,0,0,1,有,無,無,107100,251.0,,0.0,0,,RPQNMLOKJIKFFDA47CC,25.0600211,121.5450892
北投區,建物,臺北市北投區裕民六路121~150號,0.0,商,1041104,土地0建物1車位0,十一層,14.0,住宅大樓(11層含以上有電梯),住家用,鋼筋混凝土造,1040305,146.51,3,1,2,有,有,有,77000,526.0,,0.0,0,,RPPNMLOKJIKFFEA47CC,25.1137919,121.5172288
大同區,建物,臺北市大同區市民大道一段181~210號,0.0,其他,1041103,土地0建物1車位0,十七層,18.0,住宅大樓(11層含以上有電梯),住家用,見其他登記事項,0980724,91.13,2,1,1,有,有,有,50000,549.0,,0.0,0,含稅，含二代建保,RPQNMLOKJIKFFBA27CC,25.048493,121.5187377
大同區,建物,臺北市大同區市民大道一段181~210號,0.0,其他,1041023,土地0建物1車位0,十四層,18.0,住宅大樓(11層含以上有電梯),住家用,見其他登記事項,0980724,83.26,2,2,1,有,有,有,50000,601.0,,0.0,0,含管理費。,RPRNMLOKJIKFFBA37CC,25.048493,121.5187377
中山區,建物,臺北市中山區雙城街18巷1~30號,25.38,商,1041112,土地0建物1車位0,三層,4.0,公寓(5樓含以下無電梯),住家用,鋼筋混凝土造,,73.22,2,2,1,有,無,有,19000,259.0,,0.0,0,,RPPNMLOKJIKFFCA27CC,25.0654896,121.5240762
中山區,建物,臺北市中山區松江路301~330號,0.0,商,1041111,土地0建物0車位0,四層,12.0,辦公商業大樓,住家用,鋼筋混凝土造,0661208,119.03,0,0,0,無,有,無,55000,462.0,,0.0,0,本戶承租含公設36坪,RPQNMLOKJIKFFCA37CC,25.0611915,121.5334002
中山區,建物,臺北市中山區中山北路二段115巷31~60號,39.2,商,1041030,土地0建物1車位0,一層,8.0,華廈(10層含以下有電梯),商業用,鋼筋混凝土造,0810229,179.57,0,0,0,無,無,無,73864,411.0,,0.0,0,,RPRNMLOKJIKFFCA47CC,25.0609967,121.5241841
中山區,建物,臺北市中山區林森北路361~390號,0.0,商,1041109,土地0建物0車位0,六層,10.0,辦公商業大樓,商業用,鋼筋混凝土造,0610929,190.07,2,0,0,有,有,無,63250,333.0,,0.0,0,本戶承租含公設57.5坪,RPSNMLOKJIKFFCA57CC,25.0572804,121.5257191
中山區,建物,臺北市中山區長安東路一段52巷1~30號,0.0,商,1041021,土地0建物1車位0,十一層,12.0,住宅大樓(11層含以上有電梯),住家用,鋼筋混凝土造,1000322,229.03,3,2,2,有,有,有,95000,415.0,,0.0,0,含管理費,RPVNMLOKJIKFFCA87CC,25.0468527,121.5299559
中山區,建物,臺北市中山區林森北路631~660號,0.0,商,1041022,土地0建物1車位0,六層,9.0,華廈(10層含以下有電梯),住家用,鋼筋混凝土造,0961024,128.5,3,2,2,有,有,有,50000,389.0,,0.0,0,,RPWNMLOKJIKFFCA97CC,25.0671654,121.5259185
內湖區,建物,臺北市內湖區金湖路391~420號,86.28,商,1041113,土地0建物1車位0,二層,9.0,華廈(10層含以下有電梯),商業用,鋼筋混凝土造,0881202,327.89,0,0,0,無,無,無,186667,569.0,,0.0,0,,RPUNMLQKJIKFFCA97CC,25.073379,121.6037535
中山區,建物,臺北市中山區長春路331~360號,101.0,商,1041112,土地0建物1車位0,一層,4.0,公寓(5樓含以下無電梯),,加強磚造,,80.09,0,0,0,無,無,有,70000,874.0,,0.0,0,,RPXNMLQKJIKFFCA28CC,25.0545726,121.5439986
中山區,建物,臺北市中山區長安東路二段61~90號,0.0,商,1041102,土地0建物1車位0,二層,9.0,辦公商業大樓,商業用,鋼筋混凝土造,0681108,265.84000000000003,0,0,0,無,有,無,94500,355.0,,0.0,0,,RPOOMLQKJIKFFCA47CC,25.0484255,121.5303443
中山區,建物,臺北市中山區中山北路二段115巷1~30號,0.0,商,1041115,土地0建物1車位0,九層,17.0,住宅大樓(11層含以上有電梯),商業用,鋼筋混凝土造,0791019,93.55,2,2,1,有,有,有,25000,267.0,,0.0,0,,RPPPMLQKJIKFFCA67CC,25.0609764,121.523467
中山區,建物,臺北市中山區林森北路361~390號,0.0,商,1041107,土地0建物1車位0,十三層,18.0,住宅大樓(11層含以上有電梯),商業用,鋼筋混凝土造,0980916,66.62,1,1,1,有,有,有,51500,773.0,,0.0,0,,RPRPMLQKJIKFFCA87CC,25.0572804,121.5257191
內湖區,房地(土地+建物),臺北市內湖區內湖路一段1巷9弄31~60號,53.89,住,1041101,土地1建物1車位0,二層,5.0,公寓(5樓含以下無電梯),住家用,鋼筋混凝土造,0790621,180.05,0,0,0,無,有,有,45000,250.0,,0.0,0,,RPSQMLQKJIKFFCA08CC,25.086215,121.5577659
中山區,建物,臺北市中山區松江路77巷1~30號,0.0,商,1041019,土地0建物1車位0,五層,11.0,住宅大樓(11層含以上有電梯),商業用,鋼筋混凝土造,0931224,44.63,1,1,1,有,有,有,40000,896.0,,0.0,0,含稅,RPWQMLQKJIKFFCA48CC,25.0496307,121.534381
松山區,房地(土地+建物),臺北市松山區南京東路四段91~120號,389.0,商,1041030,土地1建物1車位0,六層,12.0,辦公商業大樓,商業用,鋼筋混凝土造,0701230,158.44,2,1,2,有,有,無,52272,330.0,,0.0,0,,RPUOMLQKJIKFFDA18CC,25.0518593,121.5542039
信義區,房地(土地+建物),臺北市信義區基隆路一段421~450號,1675.0,商,1041102,土地1建物1車位0,十三層,15.0,辦公商業大樓,住家用,鋼筋混凝土造,,105.44,0,0,0,無,有,無,40000,379.0,,0.0,0,,RPVOMLQKJIKFFDA28CC,25.0338078,121.5599196
信義區,建物,臺北市信義區松德路61~90號,0.0,住,1041019,土地0建物1車位0,三層,12.0,辦公商業大樓,商業用,鋼筋混凝土造,0810609,159.35,2,1,0,有,有,有,65000,408.0,,0.0,0,建物租金為含稅價，建號2636之坪數為0.00162平方公尺，故登錄0平方公尺。,RPWOMLQKJIKFFDA38CC,25.0385547,121.5767865
信義區,建物,臺北市信義區忠孝東路五段275巷7弄1~30號,19.76,住,1041115,土地0建物1車位0,八層,10.0,華廈(10層含以下有電梯),住家用,鋼筋混凝土造,0940426,218.29,4,2,2,有,有,有,100000,458.0,,0.0,0,,RPXOMLQKJIKFFDA48CC,25.04251,121.578983
文山區,建物,臺北市文山區興隆路一段70巷11弄1~30號,0.0,住,1041028,土地0建物1車位0,一層,4.0,公寓(5樓含以下無電梯),住家用,鋼筋混凝土造,,48.73,0,1,1,有,無,無,14000,287.0,,0.0,0,續約,RPXNMLQKJIKFFAA08CC,25.0025794,121.5404149
中正區,建物,臺北市中正區和平西路一段61~90號,0.0,商,1041024,土地0建物1車位0,九層,28.0,住宅大樓(11層含以上有電梯),住家用,見其他登記事項,0930120,234.7,4,2,2,有,有,有,80000,341.0,,0.0,0,含管理費,RPPNMLRKJIKFFAA37CC,25.0269487,121.5193842
大安區,建物,臺北市大安區和平東路三段406巷1~30號,0.0,住,1041101,土地0建物1車位0,一層,5.0,店面(店鋪),住家用,鋼筋混凝土造,0680704,111.1,0,0,0,無,無,無,50000,450.0,,0.0,0,,RPUNMLRKJIKFFFA48DC,25.0271164,121.5467498
大安區,建物,臺北市大安區信義路四段241~270號,0.0,商,1041116,土地0建物1車位0,八層,15.0,套房(1房1廳1衛),住商用,鋼筋混凝土造,0711106,55.98,1,1,1,有,有,有,29000,518.0,,0.0,0,,RPQNMLRKJIKFFFA97CC,25.0334328,121.5535568
大安區,建物,臺北市大安區羅斯福路三段283巷14弄1~30號,0.0,商,1041112,土地0建物1車位0,一層,7.0,店面(店鋪),,鋼筋混凝土造,0710317,217.69,0,0,0,無,有,有,100000,459.0,,0.0,0,,RPRNMLRKJIKFFFA08CC,25.0185519,121.5318482
大安區,建物,臺北市大安區信義路四段265巷10弄1~30號,0.0,住,1041105,土地0建物1車位0,三層,7.0,華廈(10層含以下有電梯),住家用,鋼筋混凝土造,0740109,214.32,4,2,3,有,有,有,55000,257.0,,0.0,0,,RPOOMLRKJIKFFFA87CC,25.0339185,121.5541004
大安區,建物,臺北市大安區忠孝東路四段121~150號,0.0,商,1041110,土地0建物1車位0,十層,12.0,住宅大樓(11層含以上有電梯),住家用,鋼筋混凝土造,0581022,187.68,4,1,3,有,有,有,94500,504.0,,0.0,0,,RPQOMLRKJIKFFFA08CC,25.0416949,121.548408
松山區,建物,臺北市松山區長春路481~510號,0.0,住,1041112,土地0建物1車位0,五層,7.0,華廈(10層含以下有電梯),住家用,鋼筋混凝土造,0741128,159.97000000000003,4,2,3,有,有,有,60000,375.0,,0.0,0,,RPPNMLRKJIKFFDA67CC,25.0544628,121.5480941
松山區,建物,臺北市松山區八德路二段331~360號,0.0,商,1041114,土地0建物1車位0,九層,14.0,套房(1房1廳1衛),住家用,鋼筋混凝土造,0980123,32.83,1,1,1,有,有,有,20000,609.0,,0.0,0,,RPQNMLRKJIKFFDA77CC,25.0479372,121.5458874
中正區,建物,臺北市中正區信義路二段151~180號,0.0,商,1041024,土地0建物1車位0,六層,13.0,住宅大樓(11層含以上有電梯),住家用,鋼骨鋼筋混凝土造,0970820,118.17,2,2,2,有,有,有,70000,592.0,,0.0,0,,RPUNMLRKJIKFFBA97CC,25.03411,121.528614
中正區,建物,臺北市中正區連雲街6巷1~30號,0.0,住,1041017,土地0建物0車位0,三層,4.0,公寓(5樓含以下無電梯),,加強磚造,,39.66,0,0,0,無,有,有,20000,504.0,,0.0,0,,RPUOMLRKJIKFFBA08CC,25.0377651,121.531116
中正區,建物,臺北市中正區開封街一段61~90號,0.0,商,1041023,土地0建物1車位0,全,5.0,透天厝,,鋼筋混凝土造,,288.54,0,5,3,有,無,無,180000,624.0,,0.0,0,,RPWOMLRKJIKFFBA28CC,25.0461249,121.512042
大同區,建物,臺北市大同區南京西路31~60號,0.0,商,1041015,土地0建物2車位0,二層,13.0,店面(店鋪),見其他登記事項,見其他登記事項,0941208,175.4,0,0,0,無,無,無,126000,718.0,,0.0,0,二戶打通,RPPPMLRKJIKFFBA67CC,25.0528814,121.5200451
北投區,房地(土地+建物),臺北市北投區天母北路61~90號,24.07,住,1041101,土地1建物1車位0,七層,7.0,華廈(10層含以下有電梯),住家用,鋼筋混凝土造,0670411,126.27,2,2,2,有,有,有,28100,223.0,,0.0,0,,RPSNMLRKJIKFFEA08CC,25.1237214,121.5266808
士林區,房地(土地+建物)+車位,臺北市士林區中山北路七段190巷91~120號,36.73,住,1041106,土地1建物1車位1,全,2.0,透天厝,住家用,加強磚造,0670222,290.92,5,2,3,有,無,有,230000,791.0,一樓平面,0.0,0,,RPUNMLRKJIKFFEA28CC,25.12567,121.5362035
北投區,建物,臺北市北投區行義路186巷1~30號,0.0,住,1041116,土地0建物1車位0,三層,3.0,公寓(5樓含以下無電梯),住家用,鋼筋混凝土造,0780131,115.41,3,2,2,有,無,無,18000,156.0,,0.0,0,,RPQPMLRKJIKFFEA08CC,25.132623,121.528973
士林區,建物,臺北市士林區承德路四段195巷1~30號,0.0,住,1041113,土地0建物1車位0,八層,12.0,住宅大樓(11層含以上有電梯),住家用,鋼筋混凝土造,0970925,216.67,3,2,2,有,有,有,50000,231.0,,0.0,0,,RPSPMLRKJIKFFEA28CC,25.0892059,121.5201095
北投區,建物,臺北市北投區明德路271~300號,0.0,住,1041019,土地0建物1車位0,四層,10.0,套房(1房1廳1衛),住家用,鋼筋混凝土造,0890426,39.77,1,1,1,有,有,有,15000,377.0,,0.0,0,,RPOQMLRKJIKFFEA97CC,25.1145719,121.5222782
中山區,建物,臺北市中山區新生北路二段31~60號,0.0,住,1041023,土地0建物1車位0,十層,19.0,住宅大樓(11層含以上有電梯),住家用,鋼骨鋼筋混凝土造,0980916,208.43,3,2,2,有,有,有,77000,369.0,,0.0,0,含管理費。,RPPNMLRKJIKFFCA57CC,25.0542013,121.5278274
中山區,建物,臺北市中山區樂群二路30巷38弄31~60號,0.0,住,1041112,土地0建物1車位2,三層,5.0,華廈(10層含以下有電梯),住家用,鋼筋混凝土造,0970908,198.64,2,2,2,有,有,有,77000,388.0,坡道平面,33.91,0,,RPPPMLRKJIKFFCA77CC,25.0787856,121.5548366
內湖區,建物,臺北市內湖區文湖街21巷15弄1~30號,0.0,住,1041030,土地0建物1車位1,見其他登記事項,5.0,華廈(10層含以下有電梯),住家用,鋼筋混凝土造,0770202,150.86999999999995,3,2,1,有,有,有,56000,371.0,坡道平面,0.0,0,,RPQPMLRKJIKFFCA87CC,25.0877827,121.560077
中山區,建物,臺北市中山區林森北路481~510號,0.0,商,1041019,土地0建物1車位0,二層,14.0,套房(1房1廳1衛),住家用,鋼筋混凝土造,0920122,48.12,1,1,1,有,有,有,18000,374.0,,0.0,0,,RPSPMLRKJIKFFCA08CC,25.0611317,121.5257123
中山區,建物,臺北市中山區長安東路一段31~60號,0.0,商,1041021,土地0建物1車位1,五層,13.0,住宅大樓(11層含以上有電梯),住家用,鋼筋混凝土造,0960810,153.95,3,1,2,有,有,有,61000,396.0,坡道平面,0.0,0,含稅，含二代建保租賃期間2年21天,RPVPMLRKJIKFFCA38CC,25.0493739,121.5239959
中山區,建物,臺北市中山區農安街1~30號,0.0,商,1041025,土地0建物1車位0,十二層,14.0,住宅大樓(11層含以上有電梯),住家用,鋼筋混凝土造,0980622,51.86,1,1,1,有,有,有,32000,617.0,,0.0,0,含稅，含二代建保,RPOQMLRKJIKFFCA77CC,25.065211,121.5293055
中山區,房地(土地+建物),臺北市中山區民生東路一段70巷1~30號,8.29,商,1041023,土地1建物1車位0,四層,7.0,套房(1房1廳1衛),住家用,鋼筋混凝土造,0960919,29.1,1,1,1,有,有,有,22000,756.0,,0.0,0,,RPQQMLRKJIKFFCA97CC,25.0576197,121.5264837
中山區,房地(土地+建物),臺北市中山區新生北路三段62巷1~30號,37.34,商,1041102,土地1建物1車位0,一層,5.0,公寓(5樓含以下無電梯),商業用,鋼筋混凝土造,0781130,144.13,1,2,1,有,無,有,37500,260.0,,0.0,0,,RPOOMLSKJIKFFCA67CC,25.0659064,121.5265775
中山區,建物,臺北市中山區民生東路一段31~60號,0.0,商,1041106,土地0建物1車位0,一層,12.0,店面(店鋪),商業用,鋼筋混凝土造,0830110,92.32,0,0,0,無,有,無,75000,812.0,,0.0,0,,RPPOMLSKJIKFFCA77CC,25.0582147,121.5252053
內湖區,建物,臺北市內湖區民權東路六段180巷1~30號,0.0,商,1041113,土地0建物1車位0,九層,12.0,辦公商業大樓,商業用,鋼筋混凝土造,0881102,66.28,0,0,1,有,有,無,21000,317.0,,0.0,0,,RPWOMLSKJIKFFCA48CC,25.0685445,121.592795
中山區,建物,臺北市中山區南京東路三段89巷1~30號,0.0,住,1041109,土地0建物1車位0,見其他登記事項,2.0,店面(店鋪),,加強磚造,,134.68,0,0,0,無,無,有,70000,520.0,,0.0,0,,RPPPMLSKJIKFFCA87CC,25.052615,121.538777
內湖區,房地(土地+建物)+車位,臺北市內湖區文德路220巷31~60號,15.72,其他,1041118,土地1建物1車位1,五層,9.0,華廈(10層含以下有電梯),住家用,鋼筋混凝土造,0960330,85.01,2,2,1,有,有,無,31200,367.0,其他,43.89,0,,RPTPMLSKJIKFFCA28CC,25.0775506,121.5882658
北投區,建物,臺北市北投區中央北路四段142巷1~30號,0.0,住,1041107,土地0建物1車位0,四層,5.0,公寓(5樓含以下無電梯),住家用,鋼筋混凝土造,0730412,134.51,3,2,2,有,無,無,20000,149.0,,0.0,0,,RPWPMLSKJIKFFEA78CC,25.1335687,121.4757303
大同區,建物,臺北市大同區延平北路一段91~120號,0.0,商,1041027,土地0建物1車位0,二層,10.0,華廈(10層含以下有電梯),商業用,鋼筋混凝土造,0770924,148.14,0,0,0,無,有,無,25000,169.0,,0.0,0,,RPXOMLSKJIKFFBA48CC,25.051789,121.512019
信義區,建物,臺北市信義區基隆路一段147巷5弄1~30號,0.0,住,1041023,土地0建物2車位0,一層,5.0,店面(店鋪),商業用,鋼筋混凝土造,0841120,197.55,0,4,2,有,有,無,85000,430.0,,0.0,0,,RPQNMLSKJIKFFDA87CC,25.042609,121.566009
松山區,建物,臺北市松山區南京東路五段250巷18弄1~30號,0.0,住,1041106,土地0建物1車位0,六層,6.0,華廈(10層含以下有電梯),住家用,鋼筋混凝土造,0650609,106.75,3,2,2,有,無,有,23000,215.0,,0.0,0,,RPSNMLSKJIKFFDA08CC,25.0503171,121.5662306
信義區,房地(土地+建物),臺北市信義區臺北市信義區信義路五段121~150號,7.77,其他,1041025,土地1建物1車位0,九層,19.0,住宅大樓(11層含以上有電梯),住家用,鋼筋混凝土造,0980702,47.84,1,1,1,有,有,有,26000,543.0,,0.0,0,,RPWNMLSKJIKFFDA48CC,25.033729,121.57358
松山區,建物,臺北市松山區八德路三段121~150號,0.0,商,1041111,土地0建物1車位0,一層,4.0,店面(店鋪),商業用,鋼筋混凝土造,,215.0,5,0,3,有,無,有,128000,595.0,,0.0,0,,RPTOMLSKJIKFFDA28CC,25.0483058,121.5541498
信義區,建物,臺北市信義區基隆路一段181~210號,0.0,,1041118,土地0建物1車位0,十層,24.0,辦公商業大樓,商業用,鋼骨混凝土造,0811015,1134.2,0,0,0,無,有,無,789130,696.0,,0.0,0,,RPWOMLSKJIKFFDA58CC,25.039364,121.562886
信義區,建物,臺北市信義區松高路61~90號,0.0,住,1041029,土地0建物1車位2,九層,14.0,住宅大樓(11層含以上有電梯),住家用,鋼骨鋼筋混凝土造,0861126,394.48,4,2,3,有,有,有,140000,355.0,坡道平面,75.0,0,1.建物現況格局為3.5衛2.租金總價含2個車位共計10000元3.此為租賃續約案件,RPOPMLSKJIKFFDA87CC,25.0390458,121.568652
大安區,建物,臺北市大安區敦化南路二段181~210號,0.0,其他,1041113,土地0建物1車位0,十二層,21.0,住宅大樓(11層含以上有電梯),住家用,鋼筋混凝土造,0781014,220.46,1,1,1,有,有,有,95000,431.0,,0.0,0,,RPUNMLSKJIKFFFA48CC,25.0269068,121.5489898
大安區,建物,臺北市大安區仁愛路四段151巷1~30號,0.0,住,1041116,土地0建物1車位0,六層,13.0,住宅大樓(11層含以上有電梯),住家用,鋼筋混凝土造,0790220,145.47,3,2,2,有,有,有,50000,344.0,,0.0,0,,RPVNMLSKJIKFFFA58CC,25.0382984,121.5440218
大安區,建物,臺北市大安區延吉街241~270號,0.0,,1041117,土地0建物1車位0,一層,7.0,華廈(10層含以下有電梯),見使用執照,鋼筋混凝土造,,86.67999999999998,0,0,0,無,無,無,58000,669.0,,0.0,0,,RPWNMLSKJIKFFFA68CC,25.0357826,121.5556525
大安區,建物,臺北市大安區仁愛路四段361~390號,0.0,其他,1041026,土地0建物1車位0,五層,16.0,辦公商業大樓,商業用,鋼筋混凝土造,0730614,163.16,0,0,0,無,有,無,77000,472.0,,0.0,0,,RPXNMLSKJIKFFFA78CC,25.0375293,121.5556839
中正區,建物,臺北市中正區寧波東街9巷1~30號,0.0,住,1041025,土地0建物1車位0,三層,8.0,華廈(10層含以下有電梯),住家用,鋼筋混凝土造,0951115,38.41,1,1,1,有,有,有,17000,443.0,,0.0,0,,RPUNMLSKJIKFFAA97CC,25.032753,121.5200025
文山區,房地(土地+建物),臺北市文山區木柵路三段48巷1弄1~30號,34.36,住,1041116,土地1建物1車位0,一層,10.0,華廈(10層含以下有電梯),見使用執照,鋼筋混凝土造,0850830,137.75,0,1,1,有,無,無,40000,290.0,,0.0,0,,RPXNMLSKJIKFFAA28CC,24.987746,121.565453
中正區,建物,臺北市中正區羅斯福路一段121~150號,0.0,其他,1041110,土地0建物1車位0,二層,12.0,店面(店鋪),見使用執照,鋼筋混凝土造,0691211,177.82999999999996,1,1,2,有,有,無,90910,511.0,,0.0,0,,RPWOMLSKJIKFFAA28CC,25.0304007,121.5202175
大安區,建物,臺北市大安區潮州街91~120號,0.0,住,1041116,土地0建物1車位0,一層,5.0,店面(店鋪),商業用,鋼筋混凝土造,0761116,141.73,2,2,1,有,無,有,65000,459.0,,0.0,0,,RPWNMLTKJIKFFFA78CC,25.028907,121.526761
大安區,建物,臺北市大安區溫州街1~30號,0.0,,1041015,土地0建物1車位0,一層,7.0,辦公商業大樓,商業用,鋼筋混凝土造,0771209,150.77,0,1,1,有,有,無,68000,451.0,,0.0,0,,RPOOMLTKJIKFFFA08CC,25.0197358,121.5331538
信義區,建物,臺北市信義區永吉路180巷70弄1~30號,0.0,住,1041109,土地0建物1車位0,五層,5.0,公寓(5樓含以下無電梯),住家用,鋼筋混凝土造,0680529,92.77,3,2,2,有,無,有,25000,269.0,,0.0,0,,RPQNMLTKJIKFFDA97CC,25.0429787,121.571322
松山區,建物,臺北市松山區塔悠路331~360號,0.0,住,1041112,土地0建物1車位0,一層,4.0,公寓(5樓含以下無電梯),商業用,鋼筋混凝土造,0821021,156.61,0,0,0,無,無,無,68182,435.0,,0.0,0,,RPRNMLTKJIKFFDA08CC,25.0616455,121.5689073
信義區,房地(土地+建物)+車位,臺北市信義區松仁路121~150號,90.04,其他,1041102,土地1建物1車位1,三層,14.0,住宅大樓(11層含以上有電梯),住家用,鋼骨鋼筋混凝土造,0960412,434.05,3,2,4,有,有,無,270000,627.0,坡道平面,11.43,5000,,RPUNMLTKJIKFFDA38CC,25.0346545,121.5684156
松山區,建物,臺北市松山區民權東路三段121~150號,0.0,,1040210,土地0建物1車位0,十五層,17.0,辦公商業大樓,住家用,鋼筋混凝土造,0730915,528.82,0,0,0,無,有,無,220953,418.0,,0.0,0,,RPWNMLTKJIKFFDA58CC,25.062258,121.5457688
松山區,建物,臺北市松山區八德路三段1~30號,0.0,,1041117,土地0建物1車位2,十一層,16.0,辦公商業大樓,商業用,鋼骨鋼筋混凝土造,0811121,671.31,0,0,0,無,有,無,281143,419.0,坡道平面,0.0,0,,RPXNMLTKJIKFFDA68CC,25.047847,121.553928
信義區,房地(土地+建物),臺北市信義區吳興街331~360號,15.25,住,1041102,土地1建物1車位0,一層,4.0,店面(店鋪),住家用,鋼筋混凝土造,,53.3,0,0,0,無,無,無,28000,525.0,,0.0,0,,RPSOMLTKJIKFFDA28CC,25.0262241,121.5657915
松山區,建物,臺北市松山區民生東路三段121~150號,0.0,商,1041023,土地0建物1車位0,六層,14.0,辦公商業大樓,商業用,鋼筋混凝土造,0750930,494.37,0,0,0,無,有,無,291623,590.0,,0.0,0,1.僅出租部分149.55坪。2.無償供承租方一車位使用。3.租金不含營業稅。,RPVOMLTKJIKFFDA58CC,25.0580549,121.546978
大同區,建物,臺北市大同區延平北路二段36巷1~30號,0.0,其他,1041112,土地0建物1車位0,一層,3.0,店面(店鋪),,磚造,,47.83,0,0,0,無,無,有,15000,314.0,,0.0,0,,RPQNMLTKJIKFFBA77CC,25.0549426,121.511512
中正區,建物,臺北市中正區新生南路一段56巷1~30號,0.0,商,1041108,土地0建物1車位0,一層,4.0,店面(店鋪),住家用,加強磚造,0580702,64.24,1,1,2,有,無,無,52000,809.0,,0.0,0,,RPTNMLTKJIKFFBA08CC,25.041138,121.5317671
大同區,建物,臺北市大同區延平北路二段247巷1~30號,0.0,商,1041019,土地0建物1車位0,三層,7.0,套房(1房1廳1衛),住家用,鋼筋混凝土造,0961212,33.480000000000004,1,1,1,有,有,有,13000,388.0,,0.0,0,,RPUNMLTKJIKFFBA18CC,25.0621738,121.5126604
大同區,建物,臺北市大同區南京西路61~90號,0.0,商,1041118,土地0建物1車位0,十五層,15.0,住宅大樓(11層含以上有電梯),住家用,鋼筋混凝土造,0970205,178.24,4,2,2,有,有,有,68000,382.0,,0.0,0,,RPWNMLTKJIKFFBA38CC,25.0530963,121.5191378
士林區,建物,臺北市士林區中山北路七段190巷12弄1~30號,0.0,住,1041119,土地0建物2車位1,八層,8.0,華廈(10層含以下有電梯),住家用,鋼筋混凝土造,0731211,260.97,6,2,4,有,有,有,200000,766.0,坡道平面,25.84,0,6房中含1書房。租金內含大樓管理費及車位清潔費。車位坪數為概算無法細分,RPPOMLTKJIKFFEA08CC,25.124705,121.534248
內湖區,房地(土地+建物)+車位,臺北市內湖區成功路四段91~120號,0.0,商,1041116,土地0建物1車位4,一層,23.0,店面(店鋪),見其他登記事項,鋼筋混凝土造,1030827,410.19,0,0,0,無,有,無,200000,488.0,坡道平面,146.84,0,租賃樓層為1+2樓,RPUNMLTKJIKFFCA28CC,25.0825183,121.5931724
內湖區,建物,臺北市內湖區民權東路六段180巷1~30號,0.0,,1041118,土地0建物1車位0,六層,12.0,辦公商業大樓,商業用,鋼筋混凝土造,0881102,84.09,0,0,0,無,有,無,23000,274.0,,0.0,0,,RPROMLTKJIKFFCA08CC,25.0685445,121.592795
內湖區,建物,臺北市內湖區舊宗路一段150巷31~60號,0.0,工,1041112,土地0建物1車位0,四層,7.0,廠辦,見其他登記事項,鋼筋混凝土造,0970319,652.76,1,1,0,有,有,無,106000,162.0,,0.0,0,,RPWOMLTKJIKFFCA58CC,25.06221,121.5763994
中山區,建物,臺北市中山區新生北路二段62巷1~30號,0.0,商,1041110,土地0建物1車位0,二層,16.0,住宅大樓(11層含以上有電梯),住家用,鋼筋混凝土造,1000824,221.94,3,1,2,有,有,有,85000,383.0,,0.0,0,含稅，含二代建保,RPOOMLKLJIKFFCA96CC,25.0561502,121.5261456
內湖區,建物,臺北市內湖區新湖一路61~90號,0.0,工,1041102,土地0建物1車位1,二層,7.0,廠辦,見其他登記事項,鋼筋混凝土造,1010626,300.05,0,0,0,無,有,無,70000,233.0,坡道平面,33.15,0,,RPWOMLKLJIKFFCA77CC,25.0582581,121.5750636
中山區,房地(土地+建物),臺北市中山區中山北路一段121~150號,85.0,商,1041120,土地1建物1車位0,一層,1.0,店面(店鋪),,木造,,71.21,0,0,0,無,無,無,80000,1123.0,,0.0,0,,RPXOMLKLJIKFFCA87CC,25.051347,121.522657
內湖區,建物,臺北市內湖區康寧路三段1~30號,0.0,住,1041030,土地0建物1車位0,一層,5.0,店面(店鋪),商業用,鋼筋混凝土造,076  03,185.13,0,0,0,無,無,無,175000,945.0,,0.0,0,,RPXPMLKLJIKFFCA97CC,25.0799122,121.5981478
士林區,建物,臺北市士林區中山北路六段195巷1~30號,0.0,住,1041031,土地0建物1車位0,七層,14.0,住宅大樓(11層含以上有電梯),住家用,鋼筋混凝土造,0970506,199.03,2,2,2,有,有,有,74000,372.0,,0.0,0,,RPWNMLKLJIKFFEA87CC,25.1078258,121.5247221
士林區,建物,臺北市士林區中山北路七段14巷1~30號,0.0,住,1041112,土地0建物1車位0,六層,7.0,華廈(10層含以下有電梯),住家用,鋼筋混凝土造,0670707,161.11,4,2,2,有,有,有,60000,372.0,,0.0,0,,RPVOMLKLJIKFFEA87CC,25.1195978,121.5325851
北投區,房地(土地+建物)+車位,臺北市北投區崇仁路一段151~180號,32.88,住,1041020,土地1建物1車位1,九層,14.0,住宅大樓(11層含以上有電梯),住家用,鋼筋混凝土造,0870729,118.65,3,2,2,有,有,有,35000,344.0,坡道平面,25.57,0,,RPWOMLKLJIKFFEA97CC,25.1238494,121.5021392
北投區,建物,臺北市北投區裕民二路61~90號,0.0,商,1041102,土地0建物1車位0,五層,19.0,住宅大樓(11層含以上有電梯),見其他登記事項,鋼筋混凝土造,1021108,173.93,3,2,2,有,有,有,63000,362.0,,0.0,0,,RPOPMLKLJIKFFEA27CC,25.1143813,121.5164072
中正區,建物,臺北市中正區愛國西路1~30號,0.0,商,1041019,土地0建物1車位0,三層,8.0,套房(1房1廳1衛),商業用,鋼筋混凝土造,0710922,45.79,1,1,1,有,有,無,15000,328.0,,0.0,0,,RPQNMLKLJIKFFBA96CC,25.0356043,121.5142953
大同區,建物,臺北市大同區重慶北路二段31~60號,0.0,商,1041020,土地0建物1車位0,十一層,12.0,套房(1房1廳1衛),商業用,鋼筋混凝土造,0720916,25.51,1,0,1,有,無,有,9000,353.0,,0.0,0,租金包含管理費400元/月,RPRNMLKLJIKFFBA07CC,25.0549798,121.5144099
松山區,建物,臺北市松山區光復南路66巷61~90號,0.0,住,1041113,土地0建物1車位0,三層,4.0,公寓(5樓含以下無電梯),住家用,鋼筋混凝土造,0620315,103.98,3,2,2,有,無,無,24000,231.0,,0.0,0,,RPSNMLKLJIKFFDA37CC,25.0451201,121.5556656
信義區,建物,臺北市信義區忠孝東路五段524巷1~30號,0.0,,1041119,土地0建物1車位0,一層,4.0,店面(店鋪),住家用,鋼筋混凝土造,,82.42,0,0,0,無,無,無,55000,667.0,,0.0,0,,RPUNMLKLJIKFFDA57CC,25.0416609,121.580723
信義區,建物,臺北市信義區信義路五段1~30號,0.0,商,1040901,土地0建物1車位5,二十一層,101.0,辦公商業大樓,見其他登記事項,見其他登記事項,0931112,1464.47,0,0,0,無,有,無,1417600,968.0,坡道平面,0.0,0,,RPVNMLKLJIKFFDA67CC,25.0335054,121.5607789
松山區,建物,臺北市松山區八德路四段241~270號,0.0,住,1041115,土地0建物1車位0,一層,5.0,公寓(5樓含以下無電梯),商業用,鋼筋混凝土造,0680227,101.5,0,0,0,無,無,無,20000,197.0,,0.0,0,,RPWNMLKLJIKFFDA77CC,25.0490394,121.5647375
信義區,建物,臺北市信義區信義路五段121~150號,0.0,其他,1041110,土地0建物1車位1,一層,25.0,店面(店鋪),見其他登記事項,見其他登記事項,0931130,968.95,2,1,2,有,有,有,648784,670.0,坡道平面,36.43,0,,RPROMLKLJIKFFDA37CC,25.0336571,121.5738977
信義區,建物,臺北市信義區光復南路391~420號,0.0,商,1041119,土地0建物1車位0,三層,12.0,住宅大樓(11層含以上有電梯),商業用,鋼筋混凝土造,,150.47,4,2,2,有,有,有,50000,332.0,,0.0,0,,RPTOMLKLJIKFFDA57CC,25.0368613,121.5610196
大安區,建物,臺北市大安區和平東路一段91~120號,0.0,商,1041114,土地0建物1車位1,十三層,18.0,住宅大樓(11層含以上有電梯),住家用,鋼筋混凝土造,0860702,182.47,4,2,2,有,有,有,81940,449.0,坡道平面,15.0,0,,RPSNMLKLJIKFFFA57CC,25.026939,121.5257151
大安區,建物,臺北市大安區忠孝東路四段31~60號,1141.0,商,1041103,土地0建物1車位0,六層,12.0,辦公商業大樓,住家用,鋼筋混凝土造,,135.38,0,0,0,無,有,無,60000,443.0,,0.0,0,,RPTNMLKLJIKFFFA67CC,25.0415389,121.5447384
中正區,建物,臺北市中正區南昌路一段108巷1~30號,0.0,住,1041119,土地0建物1車位0,四層,6.0,華廈(10層含以下有電梯),住家用,鋼筋混凝土造,0891121,30.43,1,0,1,有,有,無,13500,444.0,,0.0,0,,RPVNMLKLJIKFFAA37CC,25.0302599,121.5176941
文山區,建物,臺北市文山區和興路44巷31~60號,0.0,住,1041113,土地0建物1車位1,一層,10.0,華廈(10層含以下有電梯),住家用,鋼筋混凝土造,0840110,135.8,3,2,2,有,無,有,27000,199.0,坡道平面,0.0,0,車位面積無法分算,RPOOMLKLJIKFFAA76CC,24.9838764,121.5460288
中正區,建物,臺北市中正區北平東路1~30號,0.0,商,1041118,土地0建物1車位0,六層,14.0,辦公商業大樓,見使用執照,鋼筋混凝土造,0900504,298.55,0,0,0,無,有,無,141750,475.0,,0.0,0,,RPPNMLLLJIKFFBA96CC,25.0472691,121.5206749
士林區,建物,臺北市士林區德行西路31~60號,0.0,工,1041116,土地0建物1車位0,三層,9.0,辦公商業大樓,工業用,鋼筋混凝土造,0821230,169.20000000000005,0,0,0,無,有,無,70000,414.0,,0.0,0,,RPPNMLLLJIKFFEA27CC,25.1059641,121.5235138
大同區,建物,臺北市大同區昌吉街151~180號,0.0,住,1041028,土地0建物1車位0,一層,2.0,公寓(5樓含以下無電梯),,加強磚造,,39.15,0,0,1,有,無,無,25000,639.0,,0.0,0,,RPPNMLMLJIKFFBA07CC,25.0659485,121.5093856
信義區,房地(土地+建物),臺北市信義區基隆路一段121~150號,3.85,商,1041027,土地1建物1車位0,十一層,13.0,辦公商業大樓,見其他登記事項,鋼筋混凝土造,0950802,31.38,0,0,0,無,無,有,28500,908.0,,0.0,0,,RPPNMLMLJIKFFDA27CC,25.0447812,121.5669716
大安區,建物,臺北市大安區八德路二段1~30號,0.0,住,1041023,土地0建物1車位0,一層,7.0,華廈(10層含以下有電梯),住家用,鋼筋混凝土造,0710227,97.28,3,2,1,有,無,有,30000,308.0,,0.0,0,,RPPNMLMLJIKFFFA47CC,25.0446109,121.5332871
大安區,建物,臺北市大安區金山南路二段211~240號,0.0,商,1041112,土地0建物1車位0,三層,38.0,住宅大樓(11層含以上有電梯),住家用,見其他登記事項,1031224,73.78,1,1,1,有,有,有,34000,461.0,,0.0,0,,RPVNMLNLJIKFFFA18CC,25.027877,121.526339
大安區,建物,臺北市大安區金山南路二段211~240號,0.0,商,1041113,土地0建物1車位2,十二層,38.0,住宅大樓(11層含以上有電梯),住家用,見其他登記事項,1031224,195.94,3,2,2,有,有,有,68000,347.0,升降平面,59.3,0,,RPWNMLNLJIKFFFA28CC,25.027877,121.526339
大安區,建物,臺北市大安區樂利路91~120號,0.0,住,1041123,土地0建物1車位0,五層,7.0,華廈(10層含以下有電梯),住家用,鋼筋混凝土造,0720704,191.86,4,2,2,有,無,無,40000,208.0,,0.0,0,,RPXNMLNLJIKFFFA38CC,25.025642,121.5522104
文山區,建物,臺北市文山區羅斯福路五段211巷26弄十樓11~30號,0.0,商,1041116,土地0建物1車位0,一層,4.0,公寓(5樓含以下無電梯),住家用,鋼筋混凝土造,,104.48,3,2,2,有,無,有,38000,364.0,,0.0,0,,RPVNMLNLJIKFFAA67CC,25.0018412,121.5397013
北投區,建物,臺北市北投區明德路113巷2弄1~30號,40.05,住,1041105,土地0建物0車位0,一層,5.0,公寓(5樓含以下無電梯),住家用,鋼筋混凝土造,0780215,110.07,4,3,2,有,無,無,27000,245.0,,0.0,0,,RPXNMLNLJIKFFEA38DC,25.1102055,121.5196103
南港區,建物,臺北市南港區忠孝東路六段278巷5弄1~30號,28.12,住,1041027,土地0建物0車位0,一層,5.0,公寓(5樓含以下無電梯),住家用,鋼筋混凝土造,,103.62,3,2,2,有,無,有,30000,290.0,,0.0,0,,RPRPMLNLJIKFFDA87DC,25.048971,121.5894901
信義區,建物,臺北市信義區基隆路一段331~360號,65413.0,其他,1041112,土地0建物0車位0,十層,36.0,辦公商業大樓,見使用執照,鋼筋混凝土造,0770329,192.94,0,0,0,無,無,無,176427,914.0,,0.0,0,,RPTPMLNLJIKFFDA08DC,25.035774,121.560874
信義區,建物,臺北市信義區信義路五段121~150號,0.0,其他,1041106,土地0建物1車位0,十二層,25.0,住宅大樓(11層含以上有電梯),住家用,見其他登記事項,0931130,228.06,1,1,2,有,有,有,120000,526.0,,0.0,0,,RPROMLNLJIKFFDA67CC,25.0336571,121.5738977
信義區,建物,臺北市信義區光復南路541~570號,0.0,商,1041101,土地0建物1車位0,十二層,18.0,住宅大樓(11層含以上有電梯),住家用,見其他登記事項,0970822,42.99,0,1,1,有,有,無,30000,698.0,,0.0,0,,RPWOMLNLJIKFFDA18CC,25.0317084,121.5576302
信義區,建物,臺北市信義區信義路四段450巷1~30號,0.0,商,1041120,土地0建物1車位0,九層,11.0,辦公商業大樓,見使用執照,鋼筋混凝土造,0881231,152.07999999999996,2,0,2,有,有,無,40000,263.0,,0.0,0,,RPPQMLNLJIKFFDA67CC,25.0325532,121.5585107
中正區,建物,臺北市中正區新生南路一段91~120號,0.0,住,1041117,土地0建物0車位0,全,4.0,透天厝,,加強磚造,,80.95,1,1,1,有,無,無,25000,309.0,,0.0,0,,RPTOMLNLJIKFFBA67CC,25.0403278,121.5327771
大同區,建物,臺北市大同區承德路二段61~90號,0.0,商,1041120,土地0建物1車位0,十一層,16.0,辦公商業大樓,商業用,鋼筋混凝土造,0820914,154.4,0,0,0,無,有,無,70000,453.0,,0.0,0,,RPUOMLNLJIKFFBA77CC,25.05548,121.5184065
大同區,建物,臺北市大同區延平北路一段91~120號,0.0,商,1041120,土地0建物1車位0,一層,10.0,辦公商業大樓,商業用,鋼筋混凝土造,0770924,101.79,0,0,0,無,有,無,30000,295.0,,0.0,0,,RPOPMLNLJIKFFBA27CC,25.051789,121.512019
士林區,建物,臺北市士林區大東路1~30號,0.0,商,1041027,土地0建物4車位0,全,3.0,透天厝,住商用,加強磚造,0570628,335.73,0,0,0,無,無,無,900000,2681.0,,0.0,0,,RPVPMLNLJIKFFEA28CC,25.0865996,121.5253515
中山區,建物,臺北市中山區松江路121~150號,0.0,其他,1041116,土地0建物1車位0,九層,17.0,辦公商業大樓,見其他登記事項,見其他登記事項,1011116,430.86,0,0,0,無,無,無,314771,731.0,,0.0,0,,RPUNMLNLJIKFFCA77CC,25.0528258,121.5333503
中山區,建物,臺北市中山區松江路121~150號,0.0,其他,1041111,土地0建物1車位0,九層,17.0,辦公商業大樓,見其他登記事項,見其他登記事項,1011116,647.36,0,0,0,無,有,無,472929,731.0,,0.0,0,,RPWNMLNLJIKFFCA97CC,25.0528258,121.5333503
中山區,建物,臺北市中山區民生東路一段31~60號,0.0,,1041120,土地0建物1車位0,一層,12.0,店面(店鋪),商業用,鋼筋混凝土造,0740706,159.6,0,0,0,無,無,無,155000,971.0,,0.0,0,,RPROMLNLJIKFFCA57CC,25.0582147,121.5252053
中山區,房地(土地+建物),臺北市中山區敬業二路69巷31~60號,2697.63,商,1021029,土地0建物1車位0,七層,10.0,辦公商業大樓,見其他登記事項,鋼筋混凝土造,0961218,58.5,0,0,0,無,無,有,28409,486.0,,0.0,0,,RPSOMLNLJIKFFCA67CC,25.0821405,121.5533893
內湖區,建物,臺北市內湖區臺北市內湖區基湖路35巷1~30號,437.75,工,1041111,土地0建物1車位1,八層,9.0,廠辦,見使用執照,見使用執照,0910502,437.75,1,0,0,有,有,有,162294,371.0,坡道平面,0.0,2800,"104年11月27日至105年1月31日為免租金裝潢期。自民國105年2月1日起至107年1月31日止，每月租金新臺幣159,494元，含5%營業稅。自民國107年2月1日起至110年1月31日止，每月租金新臺幣169,063元，含5%營業稅。",RPRPMLNLJIKFFCA67CC,25.0798734,121.5653007
內湖區,建物,臺北市內湖區臺北市內湖區基湖路35巷1~30號,437.75,工,1041111,土地0建物1車位1,八層,9.0,廠辦,見使用執照,見使用執照,0910502,437.75,1,0,0,有,有,有,162294,371.0,坡道平面,0.0,2800,"104年11月27日至105年1月31日為免租金裝潢期。自民國105年2月1日起至107年1月31日止，每月租金新臺幣159,494元，含5%營業稅。自民國107年2月1日起至110年1月31日止，每月租金新臺幣169,063元，含5%營業稅。",RPUPMLNLJIKFFCA97CC,25.0798734,121.5653007
內湖區,建物,臺北市內湖區臺北市內湖區基湖路35巷1~30號,437.75,工,1041111,土地0建物1車位1,八層,9.0,廠辦,見使用執照,見使用執照,0910502,437.75,1,0,0,有,有,有,155745,356.0,坡道平面,0.0,2800,"104年11月27日至105年1月31日為免租金裝潢期。自民國105年2月1日起至107年1月31日止，每月租金新臺幣152,945元，含5%營業稅。自民國107年2月1日起至110年1月31日止，每月租金新臺幣162,122元，含5%營業稅。",RPWPMLNLJIKFFCA18CC,25.0798734,121.5653007
中山區,建物,臺北市中山區合江街55巷1~30號,0.0,住,1041113,土地0建物1車位0,五層,5.0,華廈(10層含以下有電梯),住家用,鋼筋混凝土造,0980414,65.50999999999999,1,1,1,有,有,有,32000,488.0,,0.0,0,,RPXPMLNLJIKFFCA28CC,25.0569697,121.5394359
內湖區,建物,臺北市內湖區內湖路一段271~300號,218.9,工,1041111,土地0建物1車位0,三層,10.0,廠辦,見其他登記事項,見其他登記事項,1000128,218.9,1,0,0,有,有,有,87803,401.0,,0.0,0,車位租金0元,RPSQMLNLJIKFFCA87CC,25.0824441,121.5656254
內湖區,房地(土地+建物)+車位,臺北市內湖區金湖路347巷121~150號,82.76,住,1041108,土地1建物1車位1,五層,5.0,華廈(10層含以下有電梯),住家用,鋼筋混凝土造,0950522,149.27,3,2,2,有,有,有,55000,368.0,坡道平面,38.7,3000,,RPXQMLNLJIKFFCA38CC,25.0738616,121.5983277
中山區,建物,臺北市中山區明水路541~570號,0.0,住,1041119,土地0建物1車位0,九層,16.0,住宅大樓(11層含以上有電梯),住家用,鋼筋混凝土造,0850530,121.57,2,2,1,有,有,有,40000,329.0,,0.0,0,,RPVNMLOLJIKFFCA97CC,25.078471,121.551841
中山區,建物,臺北市中山區民生西路31~60號,0.0,商,1041120,土地0建物1車位0,一層,4.0,店面(店鋪),,加強磚造,,88.17,0,0,0,無,無,無,270000,3062.0,,0.0,0,,RPWNMLOLJIKFFCA08CC,25.0578524,121.5211255
中山區,房地(土地+建物),臺北市中山區長安東路二段181~210號,6.03,商,1041104,土地1建物1車位0,八層,12.0,住宅大樓(11層含以上有電梯),住家用,鋼筋混凝土造,0720204,59.0,0,0,0,無,有,無,17347,294.0,,0.0,0,,RPXNMLOLJIKFFCA18CC,25.0484442,121.5425594
中山區,建物,臺北市中山區北安路781~810號,0.0,住,1041104,土地0建物1車位1,十層,14.0,住宅大樓(11層含以上有電梯),住家用,鋼筋混凝土造,1020904,75.89,2,1,2,有,有,有,50000,659.0,塔式車位,0.0,0,,RPVOMLOLJIKFFCA08CC,25.085743,121.553669
內湖區,建物,臺北市內湖區星雲街161巷1~30號,0.0,住,1041116,土地0建物1車位1,十四層,15.0,住宅大樓(11層含以上有電梯),住家用,鋼筋混凝土造,0961026,167.48,4,2,2,有,有,有,90000,537.0,坡道平面,32.23,0,,RPOPMLOLJIKFFCA47CC,25.0809124,121.5962673
中山區,建物,臺北市中山區龍江路387巷1~30號,0.0,住,1041119,土地0建物1車位0,一層,5.0,公寓(5樓含以下無電梯),住家用,鋼筋混凝土造,0731214,115.81,4,2,2,有,無,無,47000,406.0,,0.0,0,,RPRPMLOLJIKFFCA77CC,25.0652206,121.5412748
內湖區,建物,臺北市內湖區基湖路1~30號,0.0,工,1041110,土地0建物2車位1,三層,12.0,辦公商業大樓,見其他登記事項,見其他登記事項,0991020,1406.14,0,0,0,無,有,有,619500,441.0,坡道平面,0.0,0,,RPWPMLOLJIKFFCA28CC,25.081656,121.565513
中山區,建物,臺北市中山區中山北路一段121巷31~60號,0.0,商,1041026,土地0建物1車位0,八層,14.0,住宅大樓(11層含以上有電梯),住家用,鋼筋混凝土造,1000128,68.29,1,1,1,有,有,有,50000,732.0,,0.0,0,含稅，含二代建保,RPXPMLOLJIKFFCA38CC,25.0509211,121.5245641
中山區,建物,臺北市中山區農安街1~30號,0.0,商,1041029,土地0建物1車位0,六層,14.0,住宅大樓(11層含以上有電梯),商業用,鋼筋混凝土造,0980622,43.77,2,1,1,有,有,有,50000,1142.0,,0.0,0,含稅，含二代建保,RPOQMLOLJIKFFCA57CC,25.065211,121.5293055
北投區,建物,臺北市北投區明德路91~120號,0.0,住,1041103,土地0建物1車位0,一層,5.0,店面(店鋪),商業用,鋼筋混凝土造,0780215,97.77,1,1,1,有,無,無,70000,716.0,,0.0,0,,RPVNMLOLJIKFFEA18CC,25.1090387,121.5188432
士林區,建物,臺北市士林區德行東路283巷31~60號,0.0,住,1041103,土地0建物1車位0,七層,7.0,套房(1房1廳1衛),見其他登記事項,鋼筋混凝土造,0971222,37.04,1,1,1,有,有,有,20000,540.0,,0.0,0,,RPSOMLOLJIKFFEA97CC,25.1119577,121.5358486
北投區,建物,臺北市北投區磺港路121~150號,0.0,住,1041111,土地0建物1車位2,四層,14.0,住宅大樓(11層含以上有電梯),住家用,鋼筋混凝土造,1030619,260.71000000000004,4,2,2,有,有,有,36400,140.0,坡道平面,62.81,0,,RPRPMLOLJIKFFEA97CC,25.1295727,121.5032276
萬華區,建物,臺北市萬華區西園路二段261巷1~30號,0.0,住,1041024,土地0建物1車位0,四層,4.0,公寓(5樓含以下無電梯),住家用,鋼筋混凝土造,0610606,75.15,2,1,1,有,無,無,12000,160.0,,0.0,0,,RPTNMLOLJIKFFBA67CC,25.0256898,121.4927882
萬華區,建物,臺北市萬華區西園路二段320巷36弄31~60號,0.0,住,1041023,土地0建物1車位0,二層,5.0,公寓(5樓含以下無電梯),住家用,鋼筋混凝土造,0601012,30.41,1,1,1,有,無,無,8000,263.0,,0.0,0,,RPUNMLOLJIKFFBA77CC,25.0236821,121.491737
中正區,建物,臺北市中正區重慶南路一段31~60號,0.0,商,1041107,土地0建物1車位0,十層,14.0,辦公商業大樓,見使用執照,鋼筋混凝土造,0910723,32.47,1,1,1,有,無,有,16800,517.0,,0.0,0,,RPOOMLOLJIKFFBA27CC,25.045451,121.513395
大同區,建物,臺北市大同區民權西路271~300號,0.0,住,1041119,土地0建物1車位0,七層,11.0,住宅大樓(11層含以上有電梯),住家用,鋼筋混凝土造,0840113,31.88,1,0,1,有,無,無,12500,392.0,,0.0,0,,RPPPMLOLJIKFFBA47CC,25.0633968,121.5098248
信義區,建物,臺北市信義區光復南路511~540號,0.0,商,1041118,土地0建物1車位0,十三層,13.0,套房(1房1廳1衛),商業用,鋼筋混凝土造,0891124,47.86,1,1,1,有,有,有,23500,491.0,,0.0,0,續約,RPTNMLOLJIKFFDA87CC,25.03202,121.5576402
信義區,建物,臺北市信義區基隆路二段151~180號,0.0,住,1041031,土地0建物1車位0,七層,15.0,住宅大樓(11層含以上有電梯),住家用,鋼筋混凝土造,0990901,152.45999999999995,3,2,2,有,有,有,105000,689.0,,0.0,0,內含水、電、瓦斯、網路、電視費用。,RPUNMLOLJIKFFDA97CC,25.0260187,121.5546122
信義區,建物,臺北市信義區忠孝東路五段361~390號,0.0,其他,1041119,土地0建物1車位0,十一層,11.0,套房(1房1廳1衛),見其他登記事項,鋼筋混凝土造,0940531,40.06,1,1,1,有,有,有,23000,574.0,,0.0,0,,RPVNMLOLJIKFFDA08CC,25.0410231,121.5745955
信義區,建物,臺北市松山區忠孝東路五段451~480號,0.0,商,1041120,土地0建物1車位0,十層,11.0,住宅大樓(11層含以上有電梯),見其他登記事項,鋼筋混凝土造,0941006,49.69,1,1,1,有,有,有,32000,644.0,,0.0,0,,RPXNMLOLJIKFFDA28CC,25.0411038,121.5762524
松山區,房地(土地+建物),臺北市松山區民生東路三段91~120號,88.16,商,1041110,土地12建物1車位0,十二層,13.0,辦公商業大樓,見使用執照,見使用執照,0880130,486.5,0,0,0,無,有,無,360567,741.0,,0.0,0,租賃面積為12樓登記面積的一半,RPPOMLOLJIKFFDA57CC,25.0578409,121.5441466
松山區,房地(土地+建物),臺北市松山區民生東路三段91~120號,88.16,商,1041110,土地12建物1車位0,十二層,13.0,辦公商業大樓,見使用執照,見使用執照,0880130,486.5,0,0,0,無,有,無,360566,741.0,,0.0,0,租賃面積為12樓登記面積的一半,RPROMLOLJIKFFDA77CC,25.0578409,121.5441466
松山區,建物,臺北市松山區光復北路11巷61~90號,0.0,住,1041123,土地0建物1車位0,一層,14.0,店面(店鋪),商業用,鋼筋混凝土造,0780810,80.49,2,0,1,有,有,有,70000,870.0,,0.0,0,,RPVOMLOLJIKFFDA18CC,25.05015,121.5604788
信義區,建物,臺北市信義區永吉路225巷1~30號,0.0,住,1041116,土地0建物1車位1,六層,12.0,住宅大樓(11層含以上有電梯),住家用,鋼筋混凝土造,0990510,104.76,3,2,2,有,有,有,45000,430.0,升降機械,9.83,0,,RPXOMLOLJIKFFDA38CC,25.04492,121.5752274
信義區,建物,臺北市信義區松平路61~90號,0.0,住,1041117,土地0建物1車位0,九層,13.0,住宅大樓(11層含以上有電梯),住家用,鋼筋混凝土造,0870420,166.73000000000005,3,2,2,有,有,有,50000,300.0,,0.0,0,,RPOPMLOLJIKFFDA57CC,25.0305044,121.5652772
松山區,建物,臺北市松山區八德路二段331~360號,0.0,商,1041118,土地0建物1車位0,十層,14.0,住宅大樓(11層含以上有電梯),住家用,鋼筋混凝土造,0980123,76.02,2,1,1,有,有,有,33000,434.0,,0.0,0,,RPQPMLOLJIKFFDA77CC,25.0479372,121.5458874
中正區,建物,臺北市中正區和平西路一段91~120號,0.0,住,1041112,土地0建物1車位2,三層,18.0,住宅大樓(11層含以上有電梯),住家用,鋼筋混凝土造,1000713,260.0,4,2,2,有,有,有,95000,365.0,坡道機械,46.62,0,4房中含1書房，租金內含管理費,RPQOMLOLJIKFFAA37CC,25.0267577,121.5180036
中正區,建物,臺北市中正區羅斯福路二段121~150號,0.0,其他,1041029,土地0建物1車位0,七層,15.0,住宅大樓(11層含以上有電梯),見其他登記事項,鋼筋混凝土造,0921203,45.47,0,0,0,無,無,無,18000,396.0,,0.0,0,104/10/29簽約，11/2即解約,RPWOMLOLJIKFFAA97CC,25.0263567,121.5228344
大安區,房地(土地+建物),臺北市大安區延吉街241~270號,4.94,其他,1041015,土地1建物1車位0,一層,7.0,店面(店鋪),商業用,鋼筋混凝土造,0730308,23.6,0,0,0,無,無,無,58000,2458.0,,0.0,0,,RPSNMLOLJIKFFFA97CC,25.0357826,121.5556525
大安區,建物,臺北市大安區大安路一段51巷31~60號,0.0,商,1041031,土地0建物1車位0,一層,4.0,店面(店鋪),,加強磚造,,38.06,1,1,1,有,無,有,60000,1576.0,,0.0,0,,RPUNMLOLJIKFFFA18CC,25.0431993,121.5475863
大安區,房地(土地+建物),臺北市大安區光復南路72巷23弄1~30號,39.08,住,1041028,土地1建物1車位0,一層,4.0,公寓(5樓含以下無電梯),住家用,鋼筋混凝土造,,39.08,3,0,1,有,無,無,28000,716.0,,0.0,0,部分範圍,RPVNMLOLJIKFFFA28CC,25.044193,121.556944
大安區,建物,臺北市大安區大安路一段121~150號,0.0,其他,1041119,土地0建物1車位0,一層,12.0,店面(店鋪),住家用,鋼筋混凝土造,,42.24,0,0,0,無,有,無,102273,2421.0,,0.0,0,,RPXNMLOLJIKFFFA48CC,25.0393634,121.5460738
大安區,建物,臺北市大安區信義路四段241~270號,0.0,商,1041113,土地0建物1車位0,十四層,15.0,套房(1房1廳1衛),住家用,鋼筋混凝土造,0711106,43.19,1,1,1,有,有,有,20000,463.0,,0.0,0,,RPOOMLOLJIKFFFA67CC,25.0334328,121.5535568
大安區,建物,臺北市大安區安和路一段78巷31~60號,0.0,住,1041118,土地0建物1車位0,一層,4.0,公寓(5樓含以下無電梯),住家用,加強磚造,,137.14,0,0,0,無,無,無,70000,510.0,,0.0,0,,RPROMLOLJIKFFFA97CC,25.0351902,121.5503882
松山區,房地(土地+建物),臺北市松山區南京東路四段151~180號,559.0,商,1041116,土地1建物1車位0,七層,12.0,辦公商業大樓,住家用,鋼筋混凝土造,0660809,59.19,1,1,1,有,有,無,22000,372.0,,0.0,0,,RPPNMLPLJIKFFDA57CC,25.0518383,121.5556829
信義區,建物,臺北市信義區和平東路三段151~180號,0.0,商,1041105,土地0建物1車位0,十二層,14.0,住宅大樓(11層含以上有電梯),住家用,鋼筋混凝土造,0970205,45.09,1,1,1,有,有,有,25000,554.0,,0.0,0,含管理費。,RPSOMLPLJIKFFDA97CC,25.0241941,121.5530874
大同區,建物,臺北市大同區南京西路61~90號,0.0,商,1041101,土地0建物1車位0,三層,15.0,住宅大樓(11層含以上有電梯),住家用,鋼筋混凝土造,0951115,84.4,2,2,1,有,有,有,45000,533.0,,0.0,0,,RPTNMLPLJIKFFBA77CC,25.0530963,121.5191378
大同區,建物,臺北市大同區市民大道一段181~210號,0.0,其他,1041105,土地0建物1車位0,十四層,18.0,住宅大樓(11層含以上有電梯),住家用,見其他登記事項,0980724,91.13,2,1,1,有,有,有,49000,538.0,,0.0,0,,RPUNMLPLJIKFFBA87CC,25.048493,121.5187377
內湖區,建物,臺北市內湖區江南街117巷8弄1~30號,42.64,住,1041104,土地0建物1車位0,見其他登記事項,8.0,住宅大樓(11層含以上有電梯),住家用,鋼筋混凝土造,0940216,144.07,3,2,2,有,無,無,50000,347.0,坡道平面,91.32,0,,RPPOMLPLJIKFFCA57CC,25.0760989,121.5763018
中山區,房地(土地+建物),臺北市中山區林森北路511~540號,4.14,商,1041027,土地1建物1車位0,十一層,14.0,住宅大樓(11層含以上有電梯),商業用,鋼筋混凝土造,0940826,45.01000000000001,2,1,1,有,有,有,25500,567.0,,0.0,0,租金含管理費及第四台費用。,RPRPMLPLJIKFFCA87CC,25.0619756,121.5257455
中山區,建物,臺北市中山區龍江路46巷1~30號,0.0,住,1041109,土地0建物1車位2,十一層,14.0,住宅大樓(11層含以上有電梯),住家用,鋼筋混凝土造,0940526,385.49,4,2,3,有,有,有,132000,342.0,坡道平面,82.76,0,,RPTPMLPLJIKFFCA08CC,25.0494717,121.5396864
中山區,建物,臺北市中山區伊通街106巷1~30號,0.0,住,1041119,土地0建物1車位0,一層,3.0,店面(店鋪),,加強磚造,,67.36,0,0,0,無,無,有,46000,683.0,,0.0,0,,RPUPMLPLJIKFFCA18CC,25.0540742,121.534671
內湖區,房地(土地+建物),臺北市內湖區內湖路一段203巷1~30號,18.86,其他,1041125,土地1建物1車位0,六層,7.0,華廈(10層含以下有電梯),見其他登記事項,鋼筋混凝土造,1031028,87.03,2,1,2,有,有,有,47000,540.0,,0.0,0,,RPRNMLQLJIKFFCA77CC,25.0864375,121.5573647
內湖區,建物,臺北市內湖區五分路31~60號,19.17,住,1041115,土地0建物1車位0,八層,9.0,華廈(10層含以下有電梯),住家用,鋼筋混凝土造,0861203,67.33,1,1,1,有,有,有,16000,238.0,,0.0,0,,RPSNMLQLJIKFFCA87CC,25.0676525,121.6133068
中山區,建物,臺北市中山區敬業一路128巷1~30號,0.0,商,1041126,土地0建物2車位3,一層,11.0,辦公商業大樓,商業用,鋼筋混凝土造,0961127,399.42,0,0,0,無,有,無,220000,551.0,坡道平面,94.35,0,,RPPOMLQLJIKFFCA67CC,25.0835466,121.5525998
中山區,建物,臺北市中山區樂群三路61~90號,0.0,商,1041101,土地0建物3車位2,一層,11.0,辦公商業大樓,見其他登記事項,鋼骨鋼筋混凝土造,0990624,507.4,0,0,0,無,有,無,400000,788.0,坡道平面,73.74,0,,RPQOMLQLJIKFFCA77CC,25.0828044,121.5530511
內湖區,建物,臺北市內湖區大湖街166巷31~60號,0.0,住,1041031,土地0建物1車位1,四層,5.0,華廈(10層含以下有電梯),住家用,鋼筋混凝土造,1001027,228.62,3,2,2,有,無,有,120000,525.0,坡道平面,43.98,0,"含稅,含管理費",RPUOMLQLJIKFFCA18CC,25.0813244,121.6022024
中山區,建物,臺北市中山區新生北路三段1~30號,0.0,住,1041028,土地0建物1車位0,十二層,12.0,住宅大樓(11層含以上有電梯),商業用,鋼筋混凝土造,0950209,38.69,1,1,1,有,有,有,25000,646.0,,0.0,0,,RPSPMLQLJIKFFCA08CC,25.0628897,121.5281771
中山區,建物,臺北市中山區復興北路61~90號,0.0,商,1041030,土地0建物1車位0,六層,6.0,辦公商業大樓,住家用,鋼筋混凝土造,,137.97,2,1,1,有,無,有,63000,457.0,,0.0,0,建物租金為含稅價。,RPTPMLQLJIKFFCA18CC,25.0661001,121.5415774
萬華區,建物,臺北市萬華區莒光路299巷1~30號,0.0,住,1041026,土地0建物1車位0,四層,5.0,公寓(5樓含以下無電梯),住家用,鋼筋混凝土造,0721223,86.13999999999999,3,2,2,有,無,有,18000,209.0,,0.0,0,,RPRNMLQLJIKFFBA67CC,25.0308977,121.4992445
大同區,建物,臺北市大同區酒泉街151~180號,0.0,住,1041031,土地0建物1車位0,一層,4.0,店面(店鋪),住家用,鋼筋混凝土造,,71.49,0,0,0,無,無,無,30000,420.0,,0.0,0,,RPSNMLQLJIKFFBA77CC,25.0720502,121.5136101
中正區,建物,臺北市中正區徐州路1~30號,0.0,住,1041116,土地0建物1車位0,十層,11.0,住宅大樓(11層含以上有電梯),住家用,鋼筋混凝土造,0930316,193.04,4,2,2,有,有,有,53000,275.0,,0.0,0,,RPROMLQLJIKFFBA77CC,25.0419501,121.5190285
士林區,建物,臺北市士林區文林路451~480號,0.0,住,1041028,土地0建物2車位0,一層,2.0,店面(店鋪),住家用,磚造,0500126,101.1,0,0,0,無,無,無,120000,1187.0,,0.0,0,,RPQNMLQLJIKFFEA87CC,25.0954568,121.5243587
北投區,建物,臺北市北投區裕民六路1~30號,0.0,商,1041123,土地0建物1車位0,六層,18.0,住宅大樓(11層含以上有電梯),見其他登記事項,鋼筋混凝土造,0970930,141.76,2,1,1,有,有,有,43452,307.0,,0.0,0,含稅金及管理費,RPUNMLQLJIKFFEA28CC,25.1141396,121.5176631
士林區,建物,臺北市士林區芝玉路二段84巷1~30號,0.0,住,1041112,土地0建物1車位2,三層,13.0,住宅大樓(11層含以上有電梯),住家用,鋼筋混凝土造,0890202,223.92,4,2,2,有,有,有,60000,268.0,坡道平面,0.0,0,,RPOOMLQLJIKFFEA77CC,25.1123649,121.5354008
士林區,建物,臺北市士林區忠誠路二段241~270號,0.0,住,1041112,土地0建物1車位0,五層,12.0,住宅大樓(11層含以上有電梯),住家用,鋼筋混凝土造,0780524,117.76,3,2,2,有,有,有,49000,416.0,,0.0,0,,RPQOMLQLJIKFFEA97CC,25.1178991,121.5348866
松山區,建物,臺北市松山區南京東路四段31~60號,0.0,商,1041125,土地0建物1車位0,十二層,12.0,住宅大樓(11層含以上有電梯),住家用,鋼筋混凝土造,0750902,81.44,2,2,1,有,有,有,40000,491.0,,0.0,0,,RPUNMLQLJIKFFDA18CC,25.0519706,121.5506435
松山區,建物,臺北市松山區敦化南路一段100巷31~60號,0.0,住,1041122,土地0建物1車位0,四層,5.0,公寓(5樓含以下無電梯),住家用,鋼筋混凝土造,0661208,128.75,3,2,2,有,無,有,33000,256.0,,0.0,0,,RPQOMLQLJIKFFDA87CC,25.0461952,121.5474004
信義區,建物,臺北市信義區基隆路一段391~420號,0.0,商,1041028,土地0建物1車位0,四層,12.0,辦公商業大樓,商業用,鋼筋混凝土造,0751110,238.68,4,1,0,有,有,有,81818,343.0,,0.0,0,,RPUOMLQLJIKFFDA28CC,25.0478566,121.5687426
松山區,建物,臺北市松山區民生東路五段181~210號,0.0,商,1041115,土地0建物6車位0,一層,20.0,店面(店鋪),商業用,鋼筋混凝土造,0780629,339.94,0,1,0,有,有,無,123396,363.0,,0.0,0,,RPXOMLQLJIKFFDA58CC,25.0587166,121.5630527
大安區,房地(土地+建物),臺北市大安區東豐街31~60號,52.36,住,1041126,土地2建物1車位0,一層,7.0,華廈(10層含以下有電梯),住家用,鋼筋混凝土造,0620118,101.18,0,0,0,無,無,無,95000,939.0,,0.0,0,,RPOOMLQLJIKFFFA87CC,25.0361439,121.5458676
萬華區,建物,臺北市萬華區和平西路三段31~60號,0.0,商,1041106,土地0建物1車位0,全,4.0,透天厝,住商用,加強磚造,,67.58,0,0,0,無,無,無,23000,340.0,,0.0,0,,RPSPMLQLJIKFFBA08DC,25.0349274,121.5038041
萬華區,建物,臺北市萬華區和平西路三段31~60號,0.0,商,1041114,土地0建物1車位0,全,4.0,透天厝,,加強磚造,,67.58,0,0,0,無,無,無,23000,340.0,,0.0,0,,RPUPMLQLJIKFFBA28DC,25.0349274,121.5038041
萬華區,建物,臺北市萬華區內江街121~150號,0.0,商,1041126,土地0建物1車位0,三層,18.0,住宅大樓(11層含以上有電梯),住家用,鋼筋混凝土造,1040210,110.53,2,2,1,有,有,無,27000,244.0,,0.0,0,,RPWPMLQLJIKFFBA48DC,25.041918,121.500497
萬華區,建物,臺北市萬華區內江街121~150號,0.0,商,1041125,土地0建物1車位0,三層,18.0,住宅大樓(11層含以上有電梯),住家用,鋼筋混凝土造,1040210,154.19,4,2,2,有,有,無,35000,227.0,,0.0,0,,RPOQMLQLJIKFFBA77DC,25.041918,121.500497
萬華區,建物,臺北市萬華區內江街121~150號,0.0,商,1041029,土地0建物1車位0,三層,18.0,住宅大樓(11層含以上有電梯),住家用,鋼筋混凝土造,1040210,122.56,3,2,2,有,有,無,30000,245.0,,0.0,0,,RPPQMLQLJIKFFBA87DC,25.041918,121.500497
士林區,房地(土地+建物),臺北市士林區忠誠路一段100巷15弄1~30號,0.0,住,1041030,土地1建物1車位0,一層,15.0,住宅大樓(11層含以上有電梯),住家用,鋼筋混凝土造,0770711,109.06,3,2,2,有,無,無,40000,367.0,,0.0,0,,RPROMLQLJIKFFEA18DC,25.1058466,121.5280379
士林區,建物,臺北市士林區芝玉路一段211~240號,0.0,住,1041109,土地0建物1車位1,十層,18.0,住宅大樓(11層含以上有電梯),住家用,鋼骨鋼筋混凝土造,0971112,242.09,3,2,2,有,有,有,87000,359.0,坡道平面,0.0,0,租金包含管理費及車位,RPUOMLQLJIKFFEA48DC,25.108991,121.5337653
北投區,建物,臺北市北投區文林北路94巷31~60號,0.0,住,1041112,土地0建物1車位1,三層,13.0,住宅大樓(11層含以上有電梯),住家用,鋼筋混凝土造,0991115,215.13,4,2,2,有,有,有,80000,372.0,坡道平面,0.0,0,租金含管理費及車位,RPVOMLQLJIKFFEA58DC,25.1063975,121.5183057
大安區,建物,臺北市大安區光復南路601~630號,0.0,商,1041118,土地0建物1車位0,一層,12.0,店面(店鋪),商業用,鋼筋混凝土造,0751210,81.53999999999998,0,1,1,有,有,無,60000,736.0,,0.0,0,自民國104年11月18日至104年12月14日止為免租裝潢期。第一年到第二年每月租金新台幣陸萬元整，自第三年起調整每月租金為新台幣陸萬伍仟元整。租金含代扣繳租賃所得稅。,RPTOMLQLJIKFFFA48DC,25.0315271,121.5571366
士林區,建物,臺北市士林區中正路181~210號,0.0,商,1041126,土地0建物1車位0,全,2.0,透天厝,住家用,加強磚造,,141.83,0,0,0,無,無,無,179200,1263.0,,0.0,0,,RPUNMLRLJIKFFEA48DC,25.0956433,121.5274832
中正區,建物,臺北市中正區同安街61~90號,0.0,住,1041029,土地0建物1車位0,三層,7.0,華廈(10層含以下有電梯),住家用,鋼筋混凝土造,1030122,63.66,0,0,0,無,無,無,25000,393.0,,0.0,0,,RPPNMLRLJIKFFAA47CC,25.0240946,121.5217095
文山區,建物,臺北市文山區興隆路四段29巷4弄1~30號,0.0,住,1041105,土地0建物1車位1,七層,10.0,華廈(10層含以下有電梯),住家用,鋼筋混凝土造,0831111,128.21,3,2,2,有,有,有,26800,209.0,坡道平面,0.0,0,,RPSNMLRLJIKFFAA77CC,24.9907567,121.5598345
文山區,建物,臺北市文山區景中街31~60號,0.0,住,1041030,土地0建物0車位0,一層,7.0,店面(店鋪),住商用,鋼筋混凝土造,0751030,33.06,0,0,0,無,有,無,45000,1361.0,,0.0,0,,RPVNMLRLJIKFFAA08CC,24.9927846,121.5433642
中正區,建物,臺北市中正區南海路31~60號,0.0,住,1041117,土地0建物1車位0,六層,7.0,華廈(10層含以下有電梯),住家用,鋼筋混凝土造,0961017,61.51000000000001,2,1,1,有,有,有,30000,488.0,,0.0,0,,RPPOMLRLJIKFFAA57CC,25.032132,121.5145337
大安區,建物,臺北市大安區復興南路二段111巷17弄1~30號,0.0,住,1041121,土地0建物1車位0,二層,7.0,華廈(10層含以下有電梯),住家用,鋼筋混凝土造,0710921,124.16,3,2,2,有,有,無,40000,322.0,,0.0,0,,RPUNMLRLJIKFFFA48CC,25.0294627,121.544432
大安區,建物,臺北市大安區建國南路一段31~60號,0.0,住,1041124,土地0建物1車位0,八層,15.0,住宅大樓(11層含以上有電梯),住家用,鋼筋混凝土造,0790515,118.45,3,2,2,有,有,有,33000,279.0,,0.0,0,,RPWNMLRLJIKFFFA68CC,25.0357799,121.5358447
大安區,建物,臺北市大安區新生南路二段30巷1~30號,0.0,住,1041102,土地0建物1車位0,一層,4.0,公寓(5樓含以下無電梯),住家用,鋼筋混凝土造,,136.38,1,1,2,有,無,無,55000,403.0,,0.0,0,,RPXNMLRLJIKFFFA78CC,25.0318069,121.532634
大安區,建物,臺北市大安區永康街1~30號,0.0,住,1041102,土地0建物1車位0,五層,5.0,公寓(5樓含以下無電梯),住家用,鋼筋混凝土造,,89.1,3,2,2,有,無,有,30000,337.0,,0.0,0,,RPPOMLRLJIKFFFA08CC,25.0333313,121.529971
大安區,建物,臺北市大安區安和路二段151~180號,0.0,住,1041119,土地0建物1車位0,六層,7.0,華廈(10層含以下有電梯),住家用,鋼筋混凝土造,0710226,142.38000000000005,3,2,2,有,有,有,42000,295.0,,0.0,0,,RPSOMLRLJIKFFFA38CC,25.0284574,121.5505008
大安區,建物,臺北市大安區忠孝東路四段91~120號,0.0,商,1041113,土地0建物2車位0,一層,12.0,店面(店鋪),住家用,鋼筋混凝土造,,126.9,0,0,0,無,有,無,360000,2837.0,,0.0,0,,RPVOMLRLJIKFFFA68CC,25.041778,121.547781
松山區,建物,臺北市松山區敦化北路199巷1~30號,0.0,住,1041125,土地0建物1車位0,二層,12.0,住宅大樓(11層含以上有電梯),住家用,鋼筋混凝土造,0830716,171.35,3,2,2,有,有,有,38000,222.0,,0.0,0,,RPWNMLRLJIKFFDA48CC,25.0559119,121.550794
松山區,建物,臺北市松山區八德路四段631~660號,0.0,商,1041121,土地0建物1車位0,五層,13.0,套房(1房1廳1衛),住家用,鋼筋混凝土造,1021216,66.64,1,1,1,有,有,有,32000,480.0,,0.0,0,,RPPOMLRLJIKFFDA87CC,25.0501957,121.5750038
松山區,建物,臺北市松山區南京東路三段301~330號,0.0,商,1041102,土地0建物1車位0,十一層,12.0,辦公商業大樓,商業用,鋼筋混凝土造,0741017,360.29,4,1,2,有,有,有,174400,484.0,,0.0,0,,RPROMLRLJIKFFDA08CC,25.0520141,121.546673
南港區,建物,臺北市南港區八德路四段901~930號,0.0,商,1041122,土地0建物1車位0,一層,12.0,店面(店鋪),見其他登記事項,鋼筋混凝土造,1020829,72.09,0,0,1,有,有,無,25000,347.0,,0.0,0,,RPUOMLRLJIKFFDA38CC,25.0510333,121.5809924
士林區,建物,臺北市士林區中山北路六段405巷31~60號,0.0,住,1041119,土地0建物1車位1,二層,6.0,華廈(10層含以下有電梯),住家用,鋼筋混凝土造,0760123,328.21,4,2,3,有,有,無,120000,366.0,坡道平面,0.0,0,,RPQOMLRLJIKFFEA08CC,25.114697,121.5255797
北投區,建物,臺北市北投區裕民二路61~90號,0.0,商,1041125,土地0建物1車位0,三層,19.0,住宅大樓(11層含以上有電梯),見其他登記事項,鋼筋混凝土造,1021108,175.54,2,2,2,有,有,有,74700,426.0,,0.0,0,,RPTOMLRLJIKFFEA38CC,25.1143813,121.5164072
士林區,建物,臺北市士林區劍潭路61~90號,0.0,住,1041125,土地0建物1車位0,三層,14.0,住宅大樓(11層含以上有電梯),住家用,鋼筋混凝土造,0960122,142.35,3,2,2,有,有,有,50000,351.0,,0.0,0,,RPUOMLRLJIKFFEA48CC,25.0833776,121.521353
士林區,建物,臺北市士林區福華路174巷1~30號,0.0,其他,1041123,土地0建物1車位0,七層,11.0,住宅大樓(11層含以上有電梯),住家用,鋼筋混凝土造,0790829,118.79,3,2,2,有,有,有,50000,421.0,,0.0,0,,RPXOMLRLJIKFFEA78CC,25.1055541,121.5221305
大同區,建物,臺北市大同區民生西路91~120號,0.0,商,1041027,土地0建物1車位0,十層,13.0,住宅大樓(11層含以上有電梯),住家用,鋼筋混凝土造,1020826,146.77,2,2,2,有,有,有,61309,418.0,,0.0,0,,RPVNMLRLJIKFFBA18CC,25.0576075,121.519383
萬華區,建物,臺北市萬華區中華路一段151~180號,0.0,商,1041112,土地0建物1車位0,四層,14.0,住宅大樓(11層含以上有電梯),住家用,鋼筋混凝土造,0941007,158.72,4,2,2,有,有,無,50000,315.0,,0.0,0,,RPROMLRLJIKFFBA87CC,25.040241,121.506849
內湖區,建物,臺北市內湖區內湖路一段411巷62弄1~30號,0.0,住,1041118,土地0建物1車位1,七層,14.0,住宅大樓(11層含以上有電梯),住家用,鋼筋混凝土造,0970331,132.93,2,2,2,有,有,有,44000,331.0,坡道平面,34.08,0,,RPSNMLRLJIKFFCA97CC,25.0864375,121.5573647
中山區,建物,臺北市中山區長春路361~390號,0.0,商,1041127,土地0建物1車位0,一層,16.0,住宅大樓(11層含以上有電梯),商業用,鋼筋混凝土造,0850710,50.61,0,0,0,無,無,無,68000,1344.0,,0.0,0,,RPSOMLRLJIKFFCA08CC,25.054587,121.5434512
中山區,建物,臺北市中山區吉林路121~150號,0.0,商,1041111,土地0建物1車位1,三層,13.0,住宅大樓(11層含以上有電梯),住家用,鋼筋混凝土造,0990701,271.19,4,2,2,有,有,有,61643,246.0,坡道平面,38.98,4500,,RPOPMLRLJIKFFCA77CC,25.0568968,121.5302736
中山區,建物,臺北市中山區雙城街19巷1~30號,0.0,商,1041102,土地0建物1車位0,九層,14.0,住宅大樓(11層含以上有電梯),住家用,鋼筋混凝土造,0970312,68.0,2,2,1,有,有,有,40000,588.0,,0.0,0,,RPTPMLRLJIKFFCA28CC,25.065313,121.5245371
中山區,建物,臺北市中山區林森北路241~270號,10.5,商,1041125,土地0建物1車位0,四層,6.0,華廈(10層含以下有電梯),住家用,鋼筋混凝土造,0620913,80.35,2,2,1,有,無,無,20000,249.0,,0.0,0,,RPTNMLSLJIKFFCA18CC,25.0538966,121.5254722
中山區,建物,臺北市中山區南京東路三段14巷1~30號,0.0,住,1041029,土地0建物1車位0,一層,7.0,華廈(10層含以下有電梯),見其他登記事項,鋼筋混凝土造,0990226,41.17,2,2,2,有,無,有,29000,704.0,,0.0,0,,RPVNMLSLJIKFFCA38CC,25.0522466,121.537375
大安區,建物,臺北市大安區忠孝東路四段121~150號,0.0,商,1041029,土地0建物1車位0,十層,12.0,住宅大樓(11層含以上有電梯),住家用,鋼筋混凝土造,0710209,144.15,3,1,0,有,無,有,40000,277.0,,0.0,0,,RPXNMLSLJIKFFFA88CC,25.0416949,121.548408
大安區,建物,臺北市大安區羅斯福路二段91~120號,0.0,商,1041115,土地0建物1車位0,十八層,26.0,住宅大樓(11層含以上有電梯),住家用,鋼筋混凝土造,0790927,176.6,2,2,1,有,無,無,30113,171.0,,0.0,0,整層約坪數53.42坪，本案僅租賃坪數大小約32坪,RPPNMLTLJIKFFFA18CC,25.0252854,121.5240879
中山區,建物,臺北市中山區復興北路91~120號,0.0,商,1041114,土地0建物1車位0,六層,12.0,辦公商業大樓,商業用,鋼筋混凝土造,0670522,107.78,0,1,1,有,無,無,50000,464.0,,0.0,0,,RPSNMLTLJIKFFCA18CC,25.0516758,121.5441167
南港區,建物,臺北市南港區研究院路一段91~120號,0.0,商,1041128,土地0建物1車位0,十層,18.0,住宅大樓(11層含以上有電梯),住家用,鋼筋混凝土造,0871109,94.99,2,2,1,有,有,有,22000,232.0,,0.0,0,,RPQNMLTLJIKFFDA08CC,25.052366,121.616392
松山區,建物,臺北市松山區南京東路五段31~60號,0.0,商,1041101,土地0建物2車位0,三層,13.0,辦公商業大樓,商業用,鋼筋混凝土造,0690207,135.31,0,1,0,有,無,無,40909,302.0,,0.0,0,,RPRNMLTLJIKFFDA18CC,25.0517333,121.5582314
信義區,建物,臺北市信義區永吉路151~180號,0.0,商,1041106,土地0建物1車位0,地下一層,14.0,辦公商業大樓,商業用,鋼骨鋼筋混凝土造,0801226,626.54,0,1,0,有,無,無,110000,176.0,,0.0,0,,RPSNMLTLJIKFFDA28CC,25.0456988,121.5709147
信義區,建物,臺北市信義區松德路269巷1~30號,0.0,住,1041128,土地0建物1車位0,五層,5.0,公寓(5樓含以下無電梯),住家用,鋼筋混凝土造,,93.67,3,2,2,有,無,有,18000,192.0,,0.0,0,,RPRNMLKMJIKFFDA37CC,25.0329372,121.5751147
信義區,建物,臺北市信義區忠孝東路四段559巷1~30號,0.0,住,1041031,土地0建物1車位0,一層,7.0,華廈(10層含以下有電梯),住家用,鋼筋混凝土造,,124.49,3,2,2,有,無,有,120000,964.0,,0.0,0,,RPSNMLKMJIKFFDA47CC,25.041991,121.563549
松山區,建物,臺北市松山區八德路四段106巷2弄1~30號,0.0,住,1041128,土地0建物1車位0,一層,4.0,公寓(5樓含以下無電梯),,加強磚造,,119.15,2,1,2,有,無,無,38000,319.0,,0.0,0,,RPUNMLKMJIKFFDA67CC,25.047977,121.560928
松山區,建物,臺北市松山區八德路三段91~120號,0.0,商,1041104,土地0建物1車位0,二層,11.0,店面(店鋪),商業用,鋼筋混凝土造,0670616,449.59,0,0,0,無,有,無,230000,512.0,,0.0,0,,RPVNMLKMJIKFFDA77CC,25.0483481,121.5533658
信義區,建物,臺北市信義區松隆路9巷1~30號,0.0,住,1041116,土地0建物1車位0,一層,7.0,華廈(10層含以下有電梯),住家用,鋼筋混凝土造,0720908,155.88,2,1,1,有,無,無,30000,192.0,,0.0,0,,RPXNMLKMJIKFFDA97CC,25.0437091,121.5666818
信義區,建物,臺北市信義區松仁路61~90號,0.0,其他,1041102,土地0建物0車位0,四層,18.0,辦公商業大樓,見使用執照,見使用執照,0880119,456.43,1,0,0,有,有,無,324465,711.0,,0.0,0,,RPPOMLKMJIKFFDA27CC,25.0373741,121.5684602
信義區,建物,臺北市信義區和平東路三段151~180號,0.0,商,1041122,土地0建物1車位0,四層,14.0,住宅大樓(11層含以上有電梯),住家用,鋼筋混凝土造,0970205,45.08,1,1,1,有,有,有,20000,444.0,,0.0,0,,RPQOMLKMJIKFFDA37CC,25.0241941,121.5530874
信義區,車位,臺北市信義區松勤街1~30號,1798.0,其他,1041125,土地0建物0車位1,,,其他,,,,34.89,0,0,0,有,無,無,5500,,坡道平面,34.89,5500,,RPROMLKMJIKFFDA47CC,25.0322281,121.5604846
松山區,建物,臺北市松山區南京東路五段151~180號,0.0,商,1041119,土地0建物2車位0,一層,16.0,店面(店鋪),商業用,鋼筋混凝土造,0760526,269.56,0,0,0,無,有,無,310000,1150.0,,0.0,0,,RPVOMLKMJIKFFDA87CC,25.051669,121.562161
大同區,建物,臺北市大同區市民大道一段181~210號,0.0,其他,1041101,土地0建物1車位0,十六層,18.0,住宅大樓(11層含以上有電梯),住家用,見其他登記事項,0980724,78.02000000000002,2,1,1,有,有,有,50000,641.0,,0.0,0,含稅,RPRRMLKMJIKFFBA57CC,25.048493,121.5187377
士林區,建物,臺北市士林區中山北路六段439巷1~30號,0.0,住,1041122,土地0建物1車位0,一層,4.0,公寓(5樓含以下無電梯),住商用,鋼筋混凝土造,0680713,97.97,1,1,1,有,無,有,30000,306.0,,0.0,0,,RPWNMLKMJIKFFEA97CC,25.1146783,121.5270459
北投區,建物,臺北市北投區紗帽路91~120號,0.0,其他,1041124,土地0建物1車位0,八層,10.0,華廈(10層含以下有電梯),住家用,鋼筋混凝土造,0670114,47.07,1,1,1,有,有,有,17000,361.0,,0.0,0,,RPUPMLKMJIKFFEA97CC,25.1440357,121.5379955
士林區,建物,臺北市士林區天玉街1~30號,0.0,住,1041101,土地0建物1車位0,七層,7.0,華廈(10層含以下有電梯),住家用,鋼筋混凝土造,0730731,154.64,3,1,2,有,無,有,55000,356.0,,0.0,0,含稅，含二代建保,RPXPMLKMJIKFFEA28CC,25.1200447,121.5266383
中山區,建物,臺北市中山區中山北路二段77巷1~30號,0.0,商,1041106,土地0建物1車位0,十一層,12.0,住宅大樓(11層含以上有電梯),住家用,鋼筋混凝土造,0981027,139.63,2,2,2,有,有,有,79000,566.0,,0.0,0,,RPWNMLKMJIKFFCA77CC,25.0576603,121.5230347
中山區,建物,臺北市中山區吉林路121~150號,0.0,商,1041123,土地0建物1車位0,五層,13.0,住宅大樓(11層含以上有電梯),住家用,鋼筋混凝土造,0990701,232.21,4,2,2,有,有,有,57143,246.0,,0.0,0,,RPUOMLKMJIKFFCA67CC,25.0568968,121.5302736
中山區,房地(土地+建物),臺北市中山區新生北路二段60巷31~60號,81.0,商,1041104,土地1建物1車位0,全,2.0,透天厝,,加強磚造,,44.54,1,1,1,有,無,有,30000,674.0,,0.0,0,,RPVOMLKMJIKFFCA77CC,25.0557852,121.5264657
大安區,建物,臺北市大安區仁愛路四段300巷32弄1~30號,0.0,住,1041121,土地0建物1車位0,一層,7.0,店面(店鋪),住家用,鋼筋混凝土造,,190.19,0,0,0,無,有,無,120000,631.0,,0.0,0,,RPQNMLKMJIKFFFA47CC,25.035322,121.554564
大安區,建物,臺北市大安區忠孝東路四段205巷7弄1~30號,0.0,商,1041110,土地0建物1車位0,九層,12.0,住宅大樓(11層含以上有電梯),住家用,鋼筋混凝土造,,204.75,2,1,1,有,有,有,65000,317.0,,0.0,0,含稅,RPTNMLKMJIKFFFA77CC,25.0421484,121.5519915
文山區,房地(土地+建物),臺北市文山區久康街24巷1~30號,16.53,住,1041118,土地1建物1車位0,九層,15.0,住宅大樓(11層含以上有電梯),住家用,鋼筋混凝土造,0970902,170.62,4,2,2,有,有,無,44000,258.0,,0.0,0,,RPPNMLKMJIKFFAA86CC,24.9892898,121.5654999
士林區,房地(土地+建物),臺北市士林區士東路54巷1~30號,33.0,住,1041125,土地1建物1車位0,五層,5.0,公寓(5樓含以下無電梯),住家用,鋼筋混凝土造,0721202,120.37,3,2,2,有,無,無,24000,199.0,,0.0,0,,RPSOMLKMJIKFFEA77DC,25.111046,121.5275346
士林區,房地(土地+建物),臺北市士林區士東路54巷1~30號,33.0,住,1041125,土地1建物1車位0,五層,5.0,公寓(5樓含以下無電梯),住家用,鋼筋混凝土造,0721202,121.83,3,2,2,有,無,無,24000,197.0,,0.0,0,,RPUOMLKMJIKFFEA97DC,25.111046,121.5275346
大安區,建物,臺北市大安區復興南路二段151~180號,0.0,商,1041030,土地0建物1車位0,六層,12.0,住宅大樓(11層含以上有電梯),商業用,鋼筋混凝土造,0730308,150.41,2,1,2,有,有,無,40000,266.0,,0.0,0,,RPPNMLKMJIKFFFA47DC,25.0264182,121.5451769
中山區,建物,臺北市中山區南京東路二段91~120號,0.0,商,1041116,土地0建物1車位0,九層,12.0,辦公商業大樓,商業用,鋼筋混凝土造,0670111,147.55,0,0,0,無,有,有,54000,366.0,,0.0,0,,RPVNMLKMJIKFFCA77DC,25.0522884,121.5321795
中山區,建物,臺北市中山區興安街91~120號,0.0,住,1041101,土地0建物1車位0,二層,15.0,住宅大樓(11層含以上有電梯),見其他登記事項,鋼筋混凝土造,0750314,100.96,0,0,0,無,有,無,30000,297.0,,0.0,0,,RPXNMLKMJIKFFCA97DC,25.056218,121.5432188
大安區,房地(土地+建物),臺北市大安區信義路三段151~180號,0.96,商,1041130,土地1建物1車位0,五層,14.0,套房(1房1廳1衛),住家用,鋼筋混凝土造,0970903,38.29,0,1,1,有,有,有,24000,627.0,,0.0,0,,RPXPMLLJKIKFFFA38DC,25.0336459,121.5422289
中正區,建物,臺北市中正區羅斯福路三段316巷1~30號,0.0,商,1041116,土地0建物1車位0,八層,10.0,套房(1房1廳1衛),見其他登記事項,鋼筋混凝土造,1010626,62.86,1,1,1,有,有,有,33000,525.0,,0.0,0,租期6.5個月,RPPOMLLJKIKFFAA86CC,25.015757,121.532347
中正區,建物,臺北市中正區寧波西街61~90號,0.0,商,1041123,土地0建物1車位0,一層,4.0,店面(店鋪),商業用,鋼筋混凝土造,,59.64,0,0,0,無,無,無,70000,1174.0,,0.0,0,,RPQOMLLJKIKFFAA96CC,25.0306719,121.51732
大安區,房地(土地+建物),臺北市大安區敦化南路二段31~60號,2.19,住,1041127,土地1建物1車位0,十二層,16.0,住宅大樓(11層含以上有電梯),住家用,鋼筋混凝土造,,52.7,0,0,1,有,有,無,25000,474.0,,0.0,0,租賃期間104/12/01-105/11/30,RPQNMLLJKIKFFFA37CC,25.0322761,121.5491635
大安區,建物,臺北市大安區和平東路一段181~210號,0.0,商,1041125,土地0建物1車位0,九層,14.0,住宅大樓(11層含以上有電梯),住家用,鋼筋混凝土造,0970519,32.56,1,1,1,有,有,有,28175,865.0,,0.0,0,租金含大樓管理費,RPSNMLLJKIKFFFA57CC,25.0264466,121.5328981
大安區,建物,臺北市大安區大安路一段83巷1~30號,0.0,商,1041130,土地0建物1車位0,一層,7.0,店面(店鋪),,鋼筋混凝土造,0580409,221.16,0,0,0,無,有,有,80000,362.0,,0.0,0,,RPTNMLLJKIKFFFA67CC,25.0407239,121.545759
大安區,建物,臺北市大安區敦化南路二段121~150號,0.0,商,1041021,土地0建物1車位0,一層,16.0,店面(店鋪),商業用,鋼筋混凝土造,0680219,198.97,0,0,0,無,無,無,270000,1357.0,,0.0,0,,RPVNMLLJKIKFFFA87CC,25.0269803,121.5489883
大安區,建物,臺北市大安區仁愛路三段24巷1~30號,0.0,住,1041119,土地0建物1車位0,一層,6.0,店面(店鋪),商業用,鋼筋混凝土造,0721128,102.09,0,0,0,無,無,有,50000,490.0,,0.0,0,含地下層,RPWNMLLJKIKFFFA97CC,25.038917,121.5353773
大安區,建物,臺北市大安區信義路三段61~90號,0.0,商,1041021,土地0建物0車位0,,5.0,店面(店鋪),,加強磚造,,181.22,1,1,1,有,無,無,190000,1048.0,,0.0,0,,RPXNMLLJKIKFFFA08CC,25.0337274,121.5365006
大安區,建物,臺北市大安區樂業街31~60號,0.0,住,1041126,土地0建物1車位0,一層,4.0,店面(店鋪),住家用,鋼筋混凝土造,,105.6,1,2,0,有,無,無,52500,497.0,,0.0,0,,RPOOMLLJKIKFFFA27CC,25.0231275,121.5499803
大安區,建物,臺北市大安區安和路二段209巷1~30號,0.0,住,1041128,土地0建物1車位0,五層,7.0,華廈(10層含以下有電梯),住家用,鋼筋混凝土造,0710315,196.1,2,2,3,有,無,無,55000,280.0,,0.0,0,,RPSOMLLJKIKFFFA67CC,25.026293,121.5501976
大安區,建物,臺北市大安區大安路一段176巷1~30號,0.0,其他,1041130,土地0建物0車位0,一層,7.0,店面(店鋪),住家用,鋼筋混凝土造,,95.9,1,0,0,有,有,無,90000,938.0,,0.0,0,,RPWOMLLJKIKFFFA08CC,25.0364819,121.5458554
大安區,建物,臺北市大安區基隆路二段181~210號,0.0,商,1041118,土地0建物1車位0,十二層,14.0,套房(1房1廳1衛),住家用,鋼筋混凝土造,0980109,37.06,1,1,1,有,有,有,20700,559.0,,0.0,0,,RPPPMLLJKIKFFFA47CC,25.0252442,121.5534907
大安區,房地(土地+建物),臺北市大安區光復南路290巷1~30號,19.27,住,1041022,土地1建物1車位0,一層,14.0,店面(店鋪),見其他登記事項,鋼骨鋼筋混凝土造,1010613,116.42,0,0,0,無,有,無,250000,2147.0,,0.0,0,1.租金含稅2.原申請書序號:C1AF10410270009,RPQPMLLJKIKFFFA57CC,25.039132,121.557133
內湖區,建物,臺北市內湖區臺北市內湖區陽光街321巷1~30號,490.97,工,1041126,土地0建物1車位0,六層,10.0,廠辦,見其他登記事項,鋼筋混凝土造,0990720,490.97,1,0,0,有,有,有,156000,318.0,,0.0,0,免租期自105年2月15日至107年3月15日。含兩車位。,RPSNMLLJKIKFFCA27CC,25.076231,121.582794
中山區,建物,臺北市中山區林森北路571~600號,0.0,住,1041103,土地0建物1車位0,十一層,13.0,住宅大樓(11層含以上有電梯),住家用,鋼筋混凝土造,1000726,89.73,1,1,1,有,有,有,61000,680.0,,0.0,0,,RPQOMLLJKIKFFCA17CC,25.0649087,121.5256777
中山區,建物,臺北市中山區林森北路107巷61~90號,0.0,商,1041111,土地0建物1車位0,三層,7.0,其他,見其他登記事項,鋼筋混凝土造,1010210,77.28,2,1,1,有,有,有,52000,673.0,,0.0,0,,RPSOMLLJKIKFFCA37CC,25.0499592,121.5271009
中山區,建物,臺北市中山區民權西路1~30號,24.13,商,1041105,土地0建物1車位0,二層,14.0,住宅大樓(11層含以上有電梯),商業用,鋼筋混凝土造,0801114,126.22,0,0,0,無,有,無,48000,380.0,,0.0,0,,RPTOMLLJKIKFFCA47CC,25.0629781,121.5221977
中山區,建物,臺北市中山區南京東路二段115巷3弄1~30號,0.0,住,1041101,土地0建物0車位0,五層,5.0,華廈(10層含以下有電梯),住家用,鋼筋混凝土造,0741122,23.7,1,0,1,有,無,有,13000,549.0,,0.0,0,此物件為分租套房,RPWOMLLJKIKFFCA77CC,25.0530197,121.5294737
中山區,建物,臺北市中山區中山北路三段31~60號,0.0,商,1041102,土地0建物1車位0,十一層,12.0,住宅大樓(11層含以上有電梯),住家用,鋼筋混凝土造,0711127,34.55,1,0,1,有,無,無,13500,391.0,,0.0,0,,RPPPMLLJKIKFFCA17CC,25.0657089,121.522573
中山區,建物,臺北市中山區中山北路三段31~60號,0.0,商,1041102,土地0建物1車位0,十一層,12.0,住宅大樓(11層含以上有電梯),住家用,鋼筋混凝土造,0711127,35.7,1,0,1,有,無,無,12500,350.0,,0.0,0,,RPQPMLLJKIKFFCA27CC,25.0657089,121.522573
內湖區,建物,臺北市內湖區成功路四段30巷28弄1~30號,0.0,住,1041106,土地0建物1車位0,三層,12.0,住宅大樓(11層含以上有電梯),商業用,鋼筋混凝土造,0840211,81.98,2,2,1,有,有,有,23000,281.0,,0.0,0,管理費：990元/月,RPRPMLLJKIKFFCA37CC,25.0827209,121.591925
中山區,建物,臺北市中山區松江路164巷1~30號,0.0,住,1041120,土地0建物1車位0,五層,7.0,華廈(10層含以下有電梯),住家用,鋼筋混凝土造,0611015,140.54,3,2,2,有,有,有,43000,306.0,,0.0,0,,RPSPMLLJKIKFFCA47CC,25.0456563,121.5329859
中山區,建物,臺北市中山區新生北路三段61~90號,0.0,住,1041106,土地0建物1車位0,五層,9.0,華廈(10層含以下有電梯),住家用,鋼筋混凝土造,0650907,106.5,2,1,1,有,有,有,28000,263.0,,0.0,0,,RPUPMLLJKIKFFCA67CC,25.0659966,121.5280981
中山區,建物,臺北市中山區新生北路三段1~30號,0.0,商,1041107,土地0建物1車位0,六層,11.0,套房(1房1廳1衛),住家用,鋼筋混凝土造,1011011,58.98,1,1,1,有,有,有,23000,390.0,,0.0,0,,RPVPMLLJKIKFFCA77CC,25.0628897,121.5281771
中山區,建物,臺北市中山區德惠街151~180號,0.0,住,1041110,土地0建物1車位0,三層,7.0,套房(1房1廳1衛),商業用,鋼筋混凝土造,0720520,42.24,1,1,1,有,有,有,14000,331.0,,0.0,0,,RPOQMLLJKIKFFCA17CC,25.0666858,121.5307668
內湖區,建物,臺北市內湖區民權東路六段206巷143弄1~30號,0.0,住,1041130,土地0建物1車位1,五層,5.0,公寓(5樓含以下無電梯),住家用,鋼筋混凝土造,1020328,122.57,4,2,2,有,有,有,40000,326.0,升降機械,16.06,0,,RPQQMLLJKIKFFCA37CC,25.0708453,121.6064241
內湖區,建物,臺北市內湖區成功路四段31~60號,0.0,住,1041101,土地0建物1車位0,三層,5.0,公寓(5樓含以下無電梯),住家用,鋼筋混凝土造,0740214,102.26,3,2,2,有,無,無,20000,196.0,,0.0,0,,RPRQMLLJKIKFFCA47CC,25.0812234,121.591615
中山區,建物,臺北市中山區新生北路三段84巷1~30號,0.0,商,1041110,土地0建物1車位0,三層,5.0,公寓(5樓含以下無電梯),商業用,鋼筋混凝土造,0740122,111.47,3,2,2,有,無,有,24000,215.0,,0.0,0,,RPUQMLLJKIKFFCA77CC,25.0675023,121.5271657
中山區,建物,臺北市中山區吉林路8巷1~30號,0.0,住,1041130,土地0建物1車位0,四層,7.0,華廈(10層含以下有電梯),住家用,鋼筋混凝土造,0971023,131.51999999999998,3,1,2,有,有,有,68000,517.0,,0.0,0,,RPVQMLLJKIKFFCA87CC,25.0494566,121.5298853
內湖區,建物,臺北市內湖區內湖路一段411巷62弄1~30號,0.0,住,1041118,土地0建物1車位0,四層,14.0,住宅大樓(11層含以上有電梯),住家用,鋼筋混凝土造,0970331,124.27,3,2,2,有,有,有,50000,402.0,,0.0,0,,RPWQMLLJKIKFFCA97CC,25.0864375,121.5573647
中山區,建物,臺北市中山區雙城街31~60號,0.0,商,1041110,土地0建物1車位0,七層,11.0,住宅大樓(11層含以上有電梯),住家用,鋼筋混凝土造,0910325,217.35,4,2,2,有,有,有,55000,253.0,,0.0,0,有含車位,RPPRMLLJKIKFFCA37CC,25.0664503,121.5243593
內湖區,建物,臺北市內湖區內湖路二段451~480號,0.0,住,1041117,土地0建物1車位1,二層,11.0,住宅大樓(11層含以上有電梯),住家用,鋼筋混凝土造,0921223,176.92,0,0,2,有,有,無,75000,424.0,坡道機械,0.0,0,管理費：5014元/月(含車位管理費)車位B1-27號,RPVRMLLJKIKFFCA97CC,25.0847062,121.5935578
中山區,建物,臺北市中山區中山北路二段36巷1~30號,0.0,住,1041122,土地0建物1車位0,一層,3.0,店面(店鋪),,加強磚造,,76.88,0,0,0,無,無,有,39000,507.0,,0.0,0,,RPXRMLLJKIKFFCA18CC,25.0543845,121.5222027
內湖區,房地(土地+建物),臺北市內湖區內湖路一段437巷4弄1~30號,116.41,住,1041112,土地2建物1車位0,二層,4.0,公寓(5樓含以下無電梯),住家用,鋼筋混凝土造,0670518,108.6,3,2,2,有,無,無,23000,212.0,,0.0,0,,RPRSMLLJKIKFFCA67CC,25.0819333,121.5720376
北投區,建物,臺北市北投區石牌路二段348巷1~30號,0.0,住,1041129,土地0建物1車位1,六層,6.0,華廈(10層含以下有電梯),住家用,鋼筋混凝土造,0821231,120.74,1,2,1,有,有,有,35000,290.0,升降機械,0.0,0,,RPRNMLLJKIKFFEA37CC,25.1229853,121.5249893
士林區,建物,臺北市士林區中山北路六段405巷61~90號,0.0,住,1041130,土地0建物1車位0,四層,8.0,華廈(10層含以下有電梯),住家用,鋼筋混凝土造,1011129,107.7,2,2,2,有,有,有,43000,399.0,,0.0,0,,RPSNMLLJKIKFFEA47CC,25.1159097,121.5264852
士林區,建物,臺北市士林區中庸二路1~30號,0.0,住,1041110,土地0建物1車位3,全,5.0,透天厝,見其他登記事項,鋼筋混凝土造,0970602,637.9,6,3,5,有,有,有,240000,376.0,坡道平面,0.0,0,別墅型建物；車位登記於公設建號中，面積未單獨列載；租金為含稅金額。,RPPOMLLJKIKFFEA27CC,25.134862,121.5481878
士林區,建物,臺北市士林區忠誠路一段16巷1~30號,0.0,住,1041126,土地0建物1車位1,六層,6.0,套房(1房1廳1衛),住家用,鋼筋混凝土造,0880120,77.91,1,0,1,有,有,有,30681,394.0,升降機械,11.3,0,租金內含二代健保及租賃所得稅及車位租金,RPSOMLLJKIKFFEA57CC,25.1049715,121.5262175
士林區,房地(土地+建物),臺北市士林區天母西路31~60號,66.21,商,1041130,土地4建物1車位0,一層,7.0,華廈(10層含以下有電梯),住商用,鋼筋混凝土造,0690606,30.68,0,0,0,無,無,有,25000,815.0,,0.0,0,,RPTOMLLJKIKFFEA67CC,25.1185796,121.5277566
士林區,建物,臺北市士林區福華路181~210號,0.0,住,1041130,土地0建物1車位0,三層,12.0,住宅大樓(11層含以上有電梯),住家用,鋼筋混凝土造,0890414,189.5,3,1,2,有,有,有,65000,343.0,,0.0,0,,RPUOMLLJKIKFFEA77CC,25.1057805,121.5218533
士林區,房地(土地+建物),臺北市士林區天母西路31~60號,66.21,商,1041130,土地4建物1車位0,一層,7.0,華廈(10層含以下有電梯),住商用,鋼筋混凝土造,0690606,183.11,0,0,0,無,有,有,100000,546.0,,0.0,0,,RPVOMLLJKIKFFEA87CC,25.1185796,121.5277566
士林區,房地(土地+建物)+車位,臺北市士林區芝玉路一段211~240號,39.05,住,1041109,土地1建物1車位1,十層,18.0,住宅大樓(11層含以上有電梯),住家用,鋼骨鋼筋混凝土造,0971112,211.46,3,2,3,有,有,有,87000,411.0,坡道平面,30.58,0,,RPQPMLLJKIKFFEA47CC,25.108991,121.5337653
北投區,建物,臺北市北投區懷德街31~60號,0.0,住,1041119,土地0建物1車位1,十層,12.0,住宅大樓(11層含以上有電梯),住家用,鋼筋混凝土造,0990817,262.83,4,2,2,有,有,有,76000,289.0,塔式車位,0.0,0,,RPRPMLLJKIKFFEA57CC,25.1120848,121.5193251
北投區,建物,臺北市北投區立農街二段202巷1~30號,0.0,住,1041122,土地0建物1車位1,九層,9.0,華廈(10層含以下有電梯),住家用,鋼筋混凝土造,0881130,198.74,4,2,2,有,有,有,45200,227.0,一樓平面,30.53,0,租金內含車位租金及車位清潔費及機車位清潔費及 管理費,RPTPMLLJKIKFFEA77CC,25.1184144,121.514144
士林區,建物,臺北市士林區中山北路七段211~240號,0.0,住,1041126,土地0建物1車位1,七層,7.0,華廈(10層含以下有電梯),住家用,鋼筋混凝土造,0761103,274.46,5,2,4,有,有,有,85000,310.0,坡道平面,0.0,0,,RPXPMLLJKIKFFEA18CC,25.12624,121.532722
大同區,建物,臺北市大同區市民大道一段181~210號,0.0,其他,1041123,土地0建物1車位0,十二層,18.0,住宅大樓(11層含以上有電梯),住家用,見其他登記事項,0980724,81.6,2,1,1,有,有,有,55000,674.0,,0.0,0,,RPQOMLLJKIKFFBA07CC,25.048493,121.5187377
大同區,建物,臺北市大同區迪化街二段211~240號,0.0,住,1041105,土地0建物1車位0,一層,7.0,店面(店鋪),見使用執照,鋼筋混凝土造,0700131,96.24,0,1,1,有,無,無,20000,208.0,,0.0,0,,RPWOMLLJKIKFFBA67CC,25.0699541,121.5115649
萬華區,建物,臺北市萬華區中華路一段61~90號,0.0,商,1041109,土地0建物1車位0,九層,14.0,套房(1房1廳1衛),商業用,鋼筋混凝土造,0870604,27.37,1,0,1,有,有,有,11500,420.0,,0.0,0,,RPPPMLLJKIKFFBA07CC,25.0467143,121.5094059
中正區,建物,臺北市中正區仁愛路二段42巷1~30號,0.0,住,1041119,土地0建物1車位0,六層,6.0,華廈(10層含以下有電梯),住家用,鋼筋混凝土造,0630613,110.25,3,2,2,有,有,有,42900,389.0,,0.0,0,,RPTPMLLJKIKFFBA47CC,25.0378593,121.5265786
