district,type,address,land_size,purpose,date,pen,level,floor_num,build_state,use,material,complete_yr,total_size,room,hall,health,compartmented,manage,furniture,PRICE,unit_PRICE,berth,berth_size,berth_price,note,serial_num,lat,lng
北投區,建物,臺北市北投區石牌路二段315巷1~30號,0.0,住,1060415,土地0建物1車位1,一層,11.0,住宅大樓(11層含以上有電梯),住家用,鋼筋混凝土造,980622.0,202.85,4,2,2,有,有,有,53000,261.0,坡道平面,28.97,0,,RPOPMLLJNHMFFEA67CC,25.1238688,121.5222642
中正區,建物,臺北市中正區中華路一段1~30號,0.0,商,1060420,土地0建物1車位0,十四層,15.0,住宅大樓(11層含以上有電梯),住家用,鋼筋混凝土造,1041214.0,57.31,1,1,1,有,有,有,31000,541.0,,0.0,0,租金包含大樓管理費,RPWNMLLJNHMFFBA97CC,25.0475499,121.5106925
萬華區,建物,臺北市萬華區西園路二段225巷1~30號,0.0,,1060502,土地0建物1車位0,四層,5.0,公寓(5樓含以下無電梯),住家用,鋼筋混凝土造,741023.0,72.51,3,2,1,有,無,有,15000,207.0,,0.0,0,,RPROMLMJNHMFFBA67CC,25.027053,121.494869
中正區,建物,臺北市中正區杭州南路一段77巷1~30號,24.97,住,1060501,土地0建物1車位0,三層,7.0,華廈(10層含以下有電梯),住家用,鋼筋混凝土造,1050418.0,96.46,1,2,1,有,有,有,69000,715.0,,0.0,0,,RPUOMLMJNHMFFBA97CC,25.0392397,121.5258924
大同區,建物,臺北市大同區萬全街1~30號,0.0,商,1060405,土地0建物1車位0,九層,15.0,住宅大樓(11層含以上有電梯),住家用,鋼筋混凝土造,1041016.0,82.47,2,2,1,有,有,有,55000,667.0,,0.0,0,,RPXOMLMJNHMFFBA28CC,25.0588024,121.5203655
中正區,建物,臺北市中正區汀洲路三段211~240號,0.0,商,1060322,土地0建物1車位0,一層,7.0,店面(店鋪),商業用,鋼筋混凝土造,701119.0,73.89,0,0,0,無,有,無,150000,2030.0,,0.0,0,,RPRNMLMJNHMFFAA47CC,25.0158368,121.5308227
中正區,建物,臺北市中正區同安街1~30號,0.0,住,1060408,土地0建物1車位0,二層,7.0,華廈(10層含以下有電梯),住家用,鋼筋混凝土造,1001110.0,67.48,2,2,2,有,無,有,40000,593.0,,0.0,0,,RPXNMLMJNHMFFAA08CC,25.0262855,121.5226648
大安區,建物,臺北市大安區敦化南路一段241~270號,0.0,其他,1060418,土地0建物1車位1,十四層,14.0,辦公商業大樓,住家用,鋼筋混凝土造,710610.0,206.73,4,3,4,有,有,無,168000,813.0,坡道平面,0.0,0,,RPWNMLMJNHMFFFA48CC,25.0403156,121.5486055
大安區,建物,臺北市大安區敦化南路二段121~150號,0.0,其他,1060410,土地0建物1車位0,二層,16.0,住宅大樓(11層含以上有電梯),住家用,鋼筋混凝土造,,168.96,1,3,1,有,無,無,65000,385.0,,0.0,0,,RPOOMLMJNHMFFFA77CC,25.0269803,121.5489883
士林區,建物,臺北市士林區東山路25巷51弄1~30號,0.0,住,1060328,土地0建物1車位0,全,2.0,透天厝,住家用,加強磚造,590815.0,438.1,5,2,5,有,無,有,260000,593.0,,0.0,0,,RPOOMLMJNHMFFEA67CC,25.118773,121.542162
松山區,房地(土地+建物),臺北市松山區光復北路1~30號,15.21,商,1060426,土地9建物1車位0,二層,12.0,住宅大樓(11層含以上有電梯),商業用,鋼筋混凝土造,780216.0,136.77,0,1,1,有,有,無,35000,256.0,,0.0,0,,RPVNMLMJNHMFFDA18CC,25.0484203,121.5580718
松山區,建物,臺北市松山區延壽街402巷4弄1~30號,0.0,住,1060428,土地0建物1車位0,一層,5.0,公寓(5樓含以下無電梯),住家用,鋼筋混凝土造,,99.77,3,2,2,有,無,有,39000,391.0,,0.0,0,,RPXNMLMJNHMFFDA38CC,25.0555482,121.5571645
松山區,建物,臺北市松山區敦化北路151~180號,0.0,其他,1060410,土地0建物0車位0,十層,19.0,辦公商業大樓,商業用,鋼骨混凝土造,781125.0,251.81,0,0,0,無,有,無,156800,623.0,,0.0,0,,RPROMLMJNHMFFDA87CC,25.0542365,121.5493477
信義區,建物,臺北市信義區光復南路541~570號,0.0,商,1060501,土地0建物1車位0,十三層,18.0,住宅大樓(11層含以上有電梯),住家用,見其他登記事項,970822.0,42.98,1,1,1,有,有,有,30000,698.0,,0.0,0,,RPSOMLMJNHMFFDA97CC,25.0317084,121.5576302
松山區,建物,臺北市松山區南京東路四段151~180號,0.0,商,1060501,土地0建物1車位0,三層,12.0,住宅大樓(11層含以上有電梯),商業用,鋼筋混凝土造,720401.0,50.45,2,1,1,有,無,有,26500,525.0,,0.0,0,,RPOPMLMJNHMFFDA67CC,25.0518383,121.5556829
中山區,建物,臺北市中山區新生北路二段61~90號,0.0,商,1060411,土地0建物1車位0,十二層,12.0,住宅大樓(11層含以上有電梯),住家用,鋼筋混凝土造,970925.0,35.34,1,1,1,有,有,有,19400,549.0,,0.0,0,,RPUNMLMJNHMFFCA97CC,25.0613244,121.5296175
中山區,建物,臺北市中山區民權東路三段75巷2弄1~30號,0.0,住,1060412,土地0建物1車位0,四層,4.0,公寓(5樓含以下無電梯),住家用,鋼筋混凝土造,660121.0,130.05,3,2,2,有,無,無,60000,461.0,,0.0,0,,RPVNMLMJNHMFFCA08CC,25.0630017,121.5435627
中山區,建物,臺北市中山區錦州街331~360號,0.0,住,1060501,土地0建物1車位0,一層,7.0,華廈(10層含以下有電梯),商業用,鋼筋混凝土造,730524.0,59.32,0,0,0,無,有,無,50000,843.0,,0.0,0,,RPQOMLMJNHMFFCA67CC,25.0603641,121.5389614
中山區,建物,臺北市中山區復興北路331~360號,0.0,住,1060401,土地0建物1車位0,六層,7.0,華廈(10層含以下有電梯),住家用,鋼筋混凝土造,780317.0,102.3,2,2,1,有,有,有,28000,274.0,,0.0,0,,RPSOMLMJNHMFFCA87CC,25.0596758,121.5444275
中山區,建物,臺北市中山區中山北路二段59巷1~30號,0.0,商,1060413,土地0建物1車位0,九層,9.0,華廈(10層含以下有電梯),住家用,鋼筋混凝土造,1041127.0,142.78,3,2,2,有,有,有,110000,770.0,,0.0,0,,RPOPMLMJNHMFFCA57CC,25.055962,121.523216
內湖區,建物,臺北市內湖區文德路210巷30弄31~60號,0.0,住,1060421,土地0建物1車位0,一層,5.0,公寓(5樓含以下無電梯),見使用執照,鋼筋混凝土造,730630.0,160.02,0,0,0,無,無,無,38000,237.0,,0.0,0,,RPTPMLMJNHMFFCA08CC,25.0771001,121.5849385
內湖區,建物,臺北市內湖區成功路三段174巷31~60號,0.0,住,1060419,土地0建物1車位0,一層,12.0,住宅大樓(11層含以上有電梯),見其他登記事項,鋼筋混凝土造,1031023.0,73.32,0,0,1,有,有,有,45000,614.0,,0.0,0,登記1+2樓僅出租一樓,RPUPMLMJNHMFFCA18CC,25.0815846,121.5905903
中山區,建物,臺北市中山區中山北路一段61~90號,0.0,商,1060428,土地0建物1車位0,二層,13.0,套房(1房1廳1衛),商業用,鋼筋混凝土造,980327.0,44.54,0,0,0,無,有,有,25000,561.0,,0.0,0,,RPXPMLMJNHMFFCA48CC,25.0499695,121.5219583
中山區,建物,臺北市中山區錦州街151~180號,0.0,商,1060405,土地0建物1車位0,一層,4.0,店面(店鋪),住家用,加強磚造,,83.73,0,1,1,有,無,有,33000,394.0,,0.0,0,,RPSQMLMJNHMFFCA08CC,25.0603365,121.5296735
中山區,建物,臺北市中山區松江路121~150號,0.0,商,1060402,土地0建物1車位0,四層,12.0,辦公商業大樓,商業用,鋼筋混凝土造,750926.0,189.37,0,0,0,無,無,有,108832,575.0,,0.0,0,,RPUQMLMJNHMFFCA28CC,25.0528258,121.5333503
內湖區,建物,臺北市內湖區內湖路三段343巷3弄1~30號,0.0,住,1060426,土地0建物1車位0,四層,5.0,公寓(5樓含以下無電梯),住家用,鋼筋混凝土造,690603.0,86.46,3,2,1,有,無,無,20000,231.0,,0.0,0,,RPUNMLNJNHMFFCA08CC,25.0886899,121.5842584
中山區,建物,臺北市中山區民權東路一段31~60號,0.0,商,1060415,土地0建物1車位2,九層,10.0,辦公商業大樓,商業用,鋼筋混凝土造,890630.0,167.44,3,0,0,有,有,無,90000,538.0,升降機械,0.0,0,,RPUOMLNJNHMFFCA18CC,25.0629946,121.5241052
內湖區,車位,臺北市內湖區內湖路二段331~360號,41.56,住,1060429,土地0建物0車位1,,,其他,,,,0.0,0,0,0,有,有,無,4000,,坡道平面,41.56,4000,,RPVOMLNJNHMFFCA28CC,25.083277,121.591515
內湖區,建物,臺北市內湖區南京東路六段151~180號,0.0,,1060426,土地0建物1車位0,三層,6.0,華廈(10層含以下有電梯),住家用,鋼筋混凝土造,1040105.0,221.2,4,2,2,有,無,有,50000,226.0,,0.0,0,,RPOPMLNJNHMFFCA67CC,25.0565555,121.579356
內湖區,房地(土地+建物),臺北市內湖區文德路91~120號,33.65,住,1060428,土地1建物1車位0,四層,5.0,公寓(5樓含以下無電梯),住家用,鋼筋混凝土造,730111.0,115.8,3,2,2,有,無,有,25000,216.0,,0.0,0,,RPPPMLNJNHMFFCA77CC,25.0787855,121.5831277
中山區,建物,臺北市中山區新生北路二段68巷1~30號,0.0,商,1060403,土地0建物1車位0,七層,13.0,住宅大樓(11層含以上有電梯),住家用,鋼筋混凝土造,971229.0,52.74,1,1,1,有,有,有,30000,569.0,,0.0,0,,RPTPMLNJNHMFFCA18CC,25.056545,121.5260897
中山區,建物,臺北市中山區中山北路二段121~150號,0.0,商,1060405,土地0建物1車位0,六層,14.0,辦公商業大樓,商業用,鋼骨鋼筋混凝土造,930319.0,217.74,0,0,0,無,有,無,120000,551.0,,0.0,0,,RPSQMLNJNHMFFCA18CC,25.0612094,121.5231156
信義區,建物,臺北市信義區忠孝東路五段481~510號,0.0,其他,1060328,土地0建物1車位0,二層,28.0,辦公商業大樓,商業用,鋼骨混凝土造,820813.0,65.6,1,0,0,無,有,有,29515,450.0,,0.0,0,續約,RPRNMLNJNHMFFDA87CC,25.041004,121.577475
信義區,建物,臺北市信義區信義路五段91~120號,0.0,,961228,土地0建物1車位0,三層,27.0,住宅大樓(11層含以上有電梯),住家用,鋼骨鋼筋混凝土造,961228.0,229.8,3,2,2,有,有,有,93000,405.0,坡道平面,66.64,0,,RPSNMLNJNHMFFDA97CC,25.0326825,121.5651137
信義區,建物,臺北市信義區基隆路一段380巷1~30號,0.0,商,1060502,土地0建物1車位0,六層,12.0,住宅大樓(11層含以上有電梯),見其他登記事項,鋼筋混凝土造,,103.91,3,2,1,有,有,無,20000,192.0,,0.0,0,,RPTNMLNJNHMFFDA08CC,25.0345024,121.5599599
信義區,房地(土地+建物)+車位,臺北市信義區市民大道六段301~330號,324.42,商,1060323,土地2建物1車位3,一層,16.0,店面(店鋪),見其他登記事項,鋼筋混凝土造,1031227.0,549.71,0,0,0,無,有,無,330000,600.0,坡道平面,114.0,0,,RPUNMLNJNHMFFDA18CC,25.0488864,121.5789348
松山區,建物,臺北市松山區光復北路91~120號,0.0,商,1060405,土地0建物1車位0,二層,11.0,住宅大樓(11層含以上有電梯),住家用,鋼筋混凝土造,660505.0,59.42,1,1,1,有,有,無,15000,252.0,,0.0,0,,RPROMLNJNHMFFDA97CC,25.0507034,121.5580138
信義區,建物,臺北市信義區忠孝東路四段481~510號,0.0,住,1060410,土地0建物1車位0,八層,10.0,華廈(10層含以下有電梯),住家用,鋼筋混凝土造,,166.65,3,2,2,有,有,無,50000,300.0,,0.0,0,,RPTOMLNJNHMFFDA18CC,25.0413471,121.5604148
松山區,建物,臺北市松山區民生東路五段69巷1弄1~30號,0.0,其他,1060429,土地0建物1車位0,四層,4.0,公寓(5樓含以下無電梯),住家用,鋼筋混凝土造,620301.0,102.56,3,2,2,有,無,無,33500,327.0,,0.0,0,,RPUOMLNJNHMFFDA28CC,25.0590697,121.5581121
士林區,建物,臺北市士林區士東路266巷15弄1~30號,623.26,住,1060430,土地0建物1車位1,十層,15.0,住宅大樓(11層含以上有電梯),住家用,鋼筋混凝土造,971229.0,376.19,5,2,3,有,有,有,149360,397.0,坡道平面,37.85,0,,RPQNMLNJNHMFFEA87CC,25.111539,121.5369864
士林區,建物,臺北市士林區德行西路62巷1~30號,0.0,住,1060407,土地0建物1車位0,全,2.0,透天厝,住家用,加強磚造,601124.0,158.7,0,0,0,無,無,無,46000,290.0,,0.0,0,,RPVNMLNJNHMFFEA38CC,25.1065113,121.5247449
士林區,建物,臺北市士林區忠誠路一段181~210號,0.0,住,1060425,土地0建物1車位0,一層,10.0,華廈(10層含以下有電梯),商業用,鋼筋混凝土造,830602.0,157.78,0,0,0,無,有,無,60000,380.0,,0.0,0,,RPXNMLNJNHMFFEA58CC,25.107348,121.5299586
士林區,建物,臺北市士林區忠誠路一段1~30號,0.0,住,1060407,土地0建物1車位0,一層,14.0,店面(店鋪),見其他登記事項,鋼筋混凝土造,941228.0,100.58,0,1,0,有,有,無,115352,1147.0,,0.0,0,,RPOOMLNJNHMFFEA77CC,25.1041533,121.5266027
士林區,建物,臺北市士林區忠誠路一段1~30號,0.0,住,1060407,土地0建物1車位0,一層,14.0,店面(店鋪),見其他登記事項,鋼筋混凝土造,941228.0,82.5,0,1,0,有,有,無,94648,1147.0,,0.0,0,,RPQOMLNJNHMFFEA97CC,25.1041533,121.5266027
大安區,建物,臺北市大安區青田街12巷1~30號,0.0,住,1060419,土地0建物1車位0,一層,4.0,公寓(5樓含以下無電梯),住家用,鋼筋混凝土造,,115.02,3,2,2,有,無,有,50000,435.0,,0.0,0,租賃期間為六年又五十天，因欄位只有到月，故在此備註。,RPUNMLNJNHMFFFA38CC,25.027051,121.531793
大安區,建物,臺北市大安區光復南路200巷1~30號,0.0,商,1060425,土地0建物0車位0,一層,6.0,店面(店鋪),住家用,鋼筋混凝土造,,64.26,0,0,1,有,無,有,100000,1556.0,,0.0,0,,RPWNMLNJNHMFFFA58CC,25.0357491,121.5568327
大安區,建物,臺北市大安區安居街1~30號,0.0,住,1060428,土地0建物1車位0,五層,7.0,華廈(10層含以下有電梯),住家用,鋼筋混凝土造,711029.0,79.33,2,2,1,有,有,有,21500,271.0,,0.0,0,,RPSOMLNJNHMFFFA28CC,25.0198234,121.553763
大安區,建物,臺北市大安區潮州街151~180號,0.0,住,1060427,土地0建物0車位0,一層,7.0,店面(店鋪),住家用,鋼筋混凝土造,,82.66,0,0,0,無,無,有,60000,726.0,,0.0,0,承租一樓靠北側部份，約25坪。,RPUOMLNJNHMFFFA48CC,25.028294,121.53043
大安區,房地(土地+建物),臺北市大安區基隆路二段121~150號,10.62,住,1060502,土地1建物1車位0,五層,12.0,住宅大樓(11層含以上有電梯),商業用,鋼筋混凝土造,700716.0,103.63,3,2,2,有,有,有,35000,338.0,,0.0,0,,RPTOMLNJNHMFFFA48DC,25.0284817,121.5570473
中正區,建物,臺北市中正區館前路1~30號,0.0,商,1060411,土地0建物1車位0,七層,10.0,辦公商業大樓,商業用,鋼筋混凝土造,620303.0,288.66,0,0,0,無,有,無,180000,624.0,,0.0,0,,RPQNMLNJNHMFFBA57CC,25.0454002,121.5151724
中正區,建物,臺北市中正區中華路一段61~90號,0.0,商,1060417,土地0建物1車位1,四層,14.0,住宅大樓(11層含以上有電梯),見使用執照,鋼骨鋼筋混凝土造,920430.0,145.46,3,0,1,有,有,無,90816,624.0,升降機械,0.0,0,"本戶承租四樓之一部份面積,含公設約44坪",RPRNMLNJNHMFFBA67CC,25.0412145,121.5082102
大同區,建物,臺北市大同區長安西路91~120號,0.0,商,1060418,土地0建物1車位0,十層,12.0,辦公商業大樓,商業用,鋼筋混凝土造,880809.0,274.37,4,0,0,有,有,無,147000,536.0,,0.0,0,"本戶承租十樓之3部份及十樓之5全部,合計承租面積83坪.",RPSNMLNJNHMFFBA77CC,25.0511339,121.5164584
大同區,建物,臺北市大同區延平北路一段66巷1~30號,0.0,,1060410,土地0建物1車位0,二層,7.0,華廈(10層含以下有電梯),住家用,鋼筋混凝土造,1030110.0,145.38,3,2,2,有,有,有,45000,310.0,,0.0,0,,RPUNMLNJNHMFFBA97CC,25.0516115,121.5117544
中正區,建物,臺北市大同區市民大道一段211~240號,0.0,其他,1060427,土地0建物1車位0,十四層,16.0,套房(1房1廳1衛),見其他登記事項,見其他登記事項,980724.0,50.86,0,0,0,無,有,有,28000,551.0,,0.0,0,租金2.8萬(含稅),RPPOMLNJNHMFFBA57CC,25.0493179,121.5177851
大同區,建物,臺北市大同區承德路三段90巷1~30號,0.0,住,1060407,土地0建物2車位0,見其他登記事項,4.0,公寓(5樓含以下無電梯),住家用,鋼筋混凝土造,620904.0,184.26,0,0,0,無,無,無,50000,271.0,,0.0,0,,RPSOMLNJNHMFFBA87CC,25.0664337,121.5178814
大同區,建物,臺北市大同區南京西路18巷1~30號,0.0,商,1060419,土地0建物1車位0,四層,9.0,華廈(10層含以下有電梯),見其他登記事項,鋼筋混凝土造,1001129.0,73.3,2,1,1,有,無,有,57880,790.0,,0.0,0,起租日為106年4月23日,RPTNMLOJNHMFFBA97CC,25.05117,121.520123
大同區,建物,臺北市大同區市民大道一段181~210號,0.0,其他,1060407,土地0建物1車位0,十七層,18.0,住宅大樓(11層含以上有電梯),住家用,見其他登記事項,980724.0,106.64,2,2,1,有,有,有,67000,628.0,,0.0,0,,RPPPMLOJNHMFFBA77CC,25.048493,121.5187377
大同區,建物,臺北市大同區市民大道一段181~210號,0.0,其他,1060408,土地0建物1車位0,十層,18.0,住宅大樓(11層含以上有電梯),住家用,見其他登記事項,980724.0,78.0,2,1,1,有,有,有,50000,641.0,,0.0,0,,RPQPMLOJNHMFFBA87CC,25.048493,121.5187377
大同區,建物,臺北市大同區南京西路271~300號,0.0,商,1060422,土地0建物1車位0,五層,13.0,住宅大樓(11層含以上有電梯),商業用,鋼筋混凝土造,891118.0,37.97,1,1,1,有,有,有,15000,395.0,,0.0,0,,RPRPMLOJNHMFFBA97CC,25.053406,121.509494
大同區,建物,臺北市大同區市民大道一段181~210號,0.0,其他,1060425,土地0建物1車位0,十三層,18.0,住宅大樓(11層含以上有電梯),住家用,見其他登記事項,980724.0,92.43,2,2,1,有,有,有,50000,541.0,,0.0,0,含管理費。,RPUPMLOJNHMFFBA28CC,25.048493,121.5187377
大同區,建物,臺北市大同區市民大道一段181~210號,0.0,其他,1060427,土地0建物1車位1,十三層,18.0,住宅大樓(11層含以上有電梯),住家用,見其他登記事項,980724.0,107.99,2,2,1,有,有,有,50000,463.0,坡道平面,0.0,0,租金含管理費。,RPVPMLOJNHMFFBA38CC,25.048493,121.5187377
內湖區,建物,臺北市內湖區瑞光路358巷30弄1~30號,0.0,工,1060502,土地0建物1車位0,八層,8.0,廠辦,見其他登記事項,鋼筋混凝土造,1040828.0,375.17,0,0,0,無,有,無,124500,444.0,升降機械,115.91,9500,車位4個,RPOQMLOJNHMFFCA97DC,25.0766785,121.5724825
大同區,建物,臺北市大同區酒泉街31~60號,0.0,商,1060424,土地0建物8車位0,全,4.0,透天厝,住工用,鋼筋混凝土造,,686.0,0,0,4,有,無,無,270000,394.0,,0.0,0,租金實拿，不含代扣繳及二代健保。,RPWNMLOJNHMFFBA38DC,25.0707339,121.5191627
中正區,建物,臺北市中正區汀州路二段211~240號,100.0,住,1060421,土地0建物1車位0,一層,3.0,店面(店鋪),,加強磚造,,80.73,0,0,0,無,無,無,40000,495.0,,0.0,0,,RPXNMLOJNHMFFAA28CC,25.0236187,121.5226106
大安區,建物,臺北市大安區敦化南路一段181~210號,0.0,其他,1060410,土地0建物1車位0,五層,12.0,住宅大樓(11層含以上有電梯),住家用,鋼筋混凝土造,,38.03,1,1,1,有,有,有,21000,552.0,,0.0,0,,RPRNMLOJNHMFFFA18CC,25.042916,121.5494161
大安區,建物,臺北市大安區和平東路二段118巷54弄31~60號,0.0,住,1060422,土地0建物1車位0,三層,4.0,公寓(5樓含以下無電梯),住家用,鋼筋混凝土造,580710.0,90.59,3,2,2,有,無,無,25000,276.0,,0.0,0,,RPSNMLOJNHMFFFA28CC,25.0220682,121.5414948
大安區,建物,臺北市大安區安和路一段49巷1~30號,0.0,住,1060428,土地0建物1車位0,一層,7.0,華廈(10層含以下有電梯),住家用,鋼筋混凝土造,650210.0,150.97,0,0,0,無,有,無,108000,715.0,,0.0,0,,RPWNMLOJNHMFFFA68CC,25.0385694,121.5520479
大安區,建物,臺北市大安區忠孝東路三段251巷7弄1~30號,0.0,住,1060427,土地0建物1車位0,一層,4.0,店面(店鋪),住家用,加強磚造,,68.94,0,0,1,有,無,有,62436,906.0,,0.0,0,,RPOOMLOJNHMFFFA97CC,25.0430379,121.5417738
大安區,建物,臺北市大安區光復南路601~630號,0.0,,1060323,土地0建物1車位0,六層,12.0,辦公商業大樓,商業用,鋼筋混凝土造,741227.0,131.99,4,2,2,有,有,有,42000,318.0,,0.0,0,,RPPOMLOJNHMFFFA08CC,25.0315271,121.5571366
大安區,建物,臺北市大安區新生南路三段91~120號,0.0,商,1060427,土地0建物1車位0,一層,4.0,店面(店鋪),住家用,鋼筋混凝土造,,35.18,0,0,0,無,無,有,75000,2132.0,,0.0,0,,RPQOMLOJNHMFFFA18CC,25.025442,121.535062
大安區,建物,臺北市大安區金山南路二段211~240號,0.0,商,1060424,土地0建物1車位0,三層,38.0,住宅大樓(11層含以上有電梯),住家用,見其他登記事項,1031224.0,73.78,1,1,1,有,有,有,33423,453.0,,0.0,0,,RPTOMLOJNHMFFFA48CC,25.027877,121.526339
大安區,建物,臺北市大安區延吉街151~180號,0.0,商,1060501,土地0建物1車位0,一層,7.0,店面(店鋪),商業用,鋼筋混凝土造,710813.0,44.92,0,0,0,無,有,無,67000,1492.0,,0.0,0,出租範圍為部分，約10坪,RPUOMLOJNHMFFFA58CC,25.0410759,121.5545557
大安區,建物,臺北市大安區復興南路二段193巷1~30號,0.0,商,1060406,土地0建物1車位0,十二層,12.0,住宅大樓(11層含以上有電梯),住家用,鋼筋混凝土造,1040508.0,129.86,3,2,2,有,有,有,90000,693.0,,0.0,0,,RPWOMLOJNHMFFFA78CC,25.0266083,121.5438961
北投區,建物,臺北市北投區中央南路二段1~30號,0.0,工,1060501,土地0建物1車位0,七層,19.0,住宅大樓(11層含以上有電梯),見其他登記事項,鋼筋混凝土造,1040828.0,89.27,0,0,0,無,無,有,21000,235.0,,0.0,0,,RPRNMLOJNHMFFEA08CC,25.1260487,121.5005871
北投區,建物,臺北市北投區磺港路121~150號,0.0,住,1060423,土地0建物1車位2,四層,14.0,住宅大樓(11層含以上有電梯),住家用,鋼筋混凝土造,1030619.0,227.37,2,2,3,有,有,有,36400,160.0,坡道平面,0.0,0,,RPVNMLOJNHMFFEA48CC,25.1295727,121.5032276
士林區,建物,臺北市士林區天母東路31~60號,0.0,商,1060410,土地0建物1車位0,二層,7.0,華廈(10層含以下有電梯),住家用,鋼筋混凝土造,761105.0,182.77,0,1,1,有,無,無,50000,274.0,,0.0,0,,RPWNMLOJNHMFFEA58CC,25.1182213,121.5319856
士林區,建物,臺北市士林區中山北路六段441巷31~60號,0.0,住,1060420,土地0建物1車位2,五層,15.0,住宅大樓(11層含以上有電梯),住家用,鋼骨鋼筋混凝土造,970715.0,305.28,3,2,2,有,有,無,200000,655.0,坡道平面,0.0,0,,RPPOMLOJNHMFFEA97CC,25.1034688,121.524989
北投區,建物,臺北市北投區裕民二路61~90號,0.0,商,1060410,土地0建物1車位0,十四層,19.0,住宅大樓(11層含以上有電梯),見其他登記事項,鋼筋混凝土造,1021108.0,100.11,2,1,1,有,無,有,60000,599.0,,0.0,0,,RPSOMLOJNHMFFEA28CC,25.1143813,121.5164072
士林區,建物,臺北市士林區德行東路284巷1~30號,0.0,住,1060424,土地0建物1車位0,一層,5.0,店面(店鋪),商業用,鋼筋混凝土造,720531.0,128.28,3,2,2,有,無,無,33000,257.0,,0.0,0,,RPTOMLOJNHMFFEA38CC,25.109722,121.536073
士林區,建物,臺北市士林區中山北路六段157巷1~30號,0.0,工,1060420,土地0建物1車位0,十一層,15.0,住宅大樓(11層含以上有電梯),見其他登記事項,鋼筋混凝土造,971002.0,102.87,2,2,1,有,有,有,67000,651.0,,0.0,0,租金含管理費、網路、第四台及IP電視費用。,RPWOMLOJNHMFFEA68CC,25.1067274,121.5247651
北投區,建物,臺北市北投區立農街一段22巷2弄1~30號,0.0,住,1060504,土地0建物1車位0,二層,4.0,公寓(5樓含以下無電梯),住家用,鋼筋混凝土造,611108.0,83.25,3,2,1,有,無,有,18000,216.0,,0.0,0,,RPXOMLOJNHMFFEA78CC,25.1197227,121.5061323
松山區,建物,臺北市松山區八德路三段91~120號,0.0,商,1060429,土地0建物1車位0,九層,11.0,住宅大樓(11層含以上有電梯),商業用,鋼筋混凝土造,670616.0,54.35,2,2,1,有,有,有,15000,276.0,,0.0,0,,RPQNMLOJNHMFFDA87CC,25.0483481,121.5533658
信義區,建物,臺北市信義區信義路四段395巷6弄1~30號,0.0,商,1060412,土地0建物1車位0,四層,11.0,住宅大樓(11層含以上有電梯),見其他登記事項,鋼筋混凝土造,931230.0,32.24,1,1,1,有,有,有,21245,659.0,,0.0,0,,RPOOMLOJNHMFFDA77CC,25.033623,121.5439372
信義區,建物,臺北市信義區吳興街350巷1~30號,0.0,住,1060421,土地0建物1車位0,一層,5.0,公寓(5樓含以下無電梯),住家用,鋼筋混凝土造,731101.0,132.97,3,4,1,有,無,有,38888,292.0,,0.0,0,租金含稅價,RPPOMLOJNHMFFDA87CC,25.0255365,121.5662713
松山區,建物,臺北市松山區八德路三段121~150號,0.0,商,1060501,土地0建物1車位0,一層,4.0,店面(店鋪),住商用,鋼筋混凝土造,,96.75,0,0,0,無,無,無,87000,899.0,,0.0,0,,RPROMLOJNHMFFDA08CC,25.0483058,121.5541498
松山區,建物,臺北市松山區八德路二段331~360號,0.0,商,1060410,土地0建物1車位0,四層,14.0,住宅大樓(11層含以上有電梯),住家用,鋼筋混凝土造,980123.0,49.01,1,2,1,有,有,有,31680,646.0,,0.0,0,,RPWOMLOJNHMFFDA58CC,25.0479372,121.5458874
內湖區,建物,臺北市內湖區內湖路三段31~60號,39.82,住,1060429,土地0建物1車位0,一層,7.0,華廈(10層含以下有電梯),商業用,鋼筋混凝土造,740228.0,228.84,0,0,0,無,無,無,80000,350.0,,0.0,0,,RPPNMLOJNHMFFCA67CC,25.0859179,121.5919195
中山區,建物,臺北市中山區中山北路二段93巷1~30號,0.0,商,1060421,土地0建物1車位0,六層,12.0,住宅大樓(11層含以上有電梯),商業用,鋼筋混凝土造,940803.0,42.62,1,1,1,有,無,有,26719,627.0,,0.0,0,起租日為106年5月12日,RPQNMLOJNHMFFCA77CC,25.0594195,121.5233012
內湖區,建物,臺北市內湖區民權東路六段123巷34弄1~30號,11.17,住,1060428,土地0建物1車位0,六層,13.0,住宅大樓(11層含以上有電梯),商業用,鋼筋混凝土造,970429.0,92.0,2,2,1,有,有,無,28000,304.0,,0.0,0,,RPRNMLOJNHMFFCA87CC,25.0705428,121.5923482
中山區,建物,臺北市中山區民權東路一段1~30號,0.0,商,1060421,土地0建物1車位1,六層,16.0,住宅大樓(11層含以上有電梯),住家用,見其他登記事項,1040623.0,220.76,4,2,2,有,有,有,120000,544.0,坡道平面,47.52,0,,RPOOMLOJNHMFFCA67CC,25.0629802,121.5230766
中山區,建物,臺北市中山區新生北路三段1~30號,0.0,住,1060410,土地0建物1車位0,十二層,12.0,住宅大樓(11層含以上有電梯),商業用,鋼筋混凝土造,950209.0,46.05,2,2,1,有,有,有,27000,586.0,,0.0,0,,RPQOMLOJNHMFFCA87CC,25.0628897,121.5281771
中山區,建物,臺北市中山區雙城街19巷1~30號,0.0,商,1060419,土地0建物1車位0,三層,14.0,住宅大樓(11層含以上有電梯),住家用,鋼筋混凝土造,970312.0,33.34,1,1,1,有,有,有,24974,749.0,,0.0,0,租金含稅價,RPROMLOJNHMFFCA97CC,25.065313,121.5245371
中山區,建物,臺北市中山區樂群二路271~300號,0.0,其他,1060407,土地0建物1車位1,五層,11.0,套房(1房1廳1衛),商業用,鋼筋混凝土造,970603.0,71.75,1,1,1,有,有,無,25000,348.0,坡道機械,18.98,0,,RPSOMLOJNHMFFCA08CC,25.0799454,121.5606201
內湖區,房地(土地+建物),臺北市內湖區瑞光路1~30號,0.0,其他,1060410,土地1建物1車位0,二層,7.0,華廈(10層含以下有電梯),見其他登記事項,鋼筋混凝土造,1031211.0,92.86,0,0,0,無,有,無,25200,271.0,,0.0,0,,RPUOMLOJNHMFFCA28CC,25.0691106,121.5842514
中山區,建物,臺北市中山區堤頂大道二段481~510號,0.0,其他,1060425,土地0建物1車位0,四層,10.0,華廈(10層含以下有電梯),商業用,鋼筋混凝土造,991201.0,103.7,2,2,1,有,有,有,55000,530.0,,0.0,0,租金含第四台及網路費用。,RPUPMLOJNHMFFCA38CC,25.082885,121.5618128
內湖區,房地(土地+建物),臺北市內湖區堤頂大道二段271~300號,812.34,工,1060427,土地1建物2車位0,五層,10.0,廠辦,工業用,鋼筋混凝土造,980116.0,694.2,0,0,0,無,有,無,270000,389.0,,0.0,0,,RPWPMLOJNHMFFCA58CC,25.0783433,121.5658219
中山區,房地(土地+建物),臺北市中山區明水路397巷1~30號,19.64,住,1060428,土地1建物1車位0,一層,7.0,華廈(10層含以下有電梯),商業用,鋼筋混凝土造,881002.0,86.88,0,0,0,無,無,有,30000,345.0,,0.0,0,,RPQQMLOJNHMFFCA08CC,25.078211,121.547828
中山區,建物,臺北市中山區林森北路121~150號,0.0,商,1060412,土地0建物1車位0,七層,15.0,套房(1房1廳1衛),住家用,鋼筋混凝土造,971215.0,27.85,1,1,1,有,有,無,17000,610.0,,0.0,0,,RPPNMLPJNHMFFCA77CC,25.0508214,121.5251558
內湖區,建物,臺北市內湖區南京東路六段451巷31~60號,0.0,其他,1060411,土地0建物1車位0,十層,14.0,住宅大樓(11層含以上有電梯),商業用,鋼筋混凝土造,971205.0,84.63,3,2,2,有,有,無,32000,378.0,,0.0,0,,RPQNMLPJNHMFFCA87CC,25.0614954,121.587052
中山區,建物,臺北市中山區長安東路二段151~180號,0.0,商,1060502,土地0建物1車位0,十層,14.0,住宅大樓(11層含以上有電梯),商業用,鋼筋混凝土造,900326.0,72.42,2,1,1,有,有,有,40000,552.0,,0.0,0,,RPWNMLPJNHMFFCA48CC,25.0483536,121.5387141
中山區,建物,臺北市中山區長安東路二段31~60號,0.0,商,1060412,土地0建物1車位0,三層,6.0,華廈(10層含以下有電梯),商業用,鋼筋混凝土造,610118.0,146.29,0,0,0,無,有,無,60000,410.0,,0.0,0,,RPXNMLPJNHMFFCA58CC,25.048623,121.5311785
中山區,建物,臺北市中山區南京東路三段89巷15弄1~30號,0.0,住,1060415,土地0建物1車位0,七層,7.0,華廈(10層含以下有電梯),住家用,鋼筋混凝土造,1010323.0,77.81,2,1,1,有,有,有,43814,563.0,,0.0,0,,RPPOMLPJNHMFFCA87CC,25.0531557,121.5384114
中山區,建物,臺北市中山區北安路811~840號,0.0,住,1060419,土地0建物1車位0,二層,14.0,套房(1房1廳1衛),住家用,鋼筋混凝土造,991224.0,46.25,1,1,1,有,有,無,22000,476.0,,0.0,0,,RPSOMLPJNHMFFCA18CC,25.085196,121.5554409
中山區,建物,臺北市中山區吉林路121~150號,0.0,住,1060407,土地0建物1車位0,十一層,12.0,住宅大樓(11層含以上有電梯),住家用,鋼筋混凝土造,670202.0,139.13,0,0,0,無,有,無,48000,345.0,,0.0,0,,RPTOMLPJNHMFFCA28CC,25.0568968,121.5302736
中山區,建物,臺北市中山區松江路271~300號,0.0,商,1060419,土地0建物1車位0,四層,7.0,華廈(10層含以下有電梯),住家用,鋼筋混凝土造,711220.0,92.03,3,2,2,有,有,無,35000,380.0,,0.0,0,,RPUOMLPJNHMFFCA38CC,25.0598864,121.5334014
內湖區,建物,臺北市內湖區星雲街161巷1~30號,0.0,住,1060418,土地0建物1車位1,七層,15.0,住宅大樓(11層含以上有電梯),住家用,鋼筋混凝土造,961026.0,162.7,3,2,1,有,有,有,65000,475.0,坡道平面,32.23,0,,RPXOMLPJNHMFFCA68CC,25.0809124,121.5962673
中山區,建物,臺北市中山區新生北路三段1~30號,0.0,住,1060419,土地0建物1車位0,五層,12.0,住宅大樓(11層含以上有電梯),住家用,鋼筋混凝土造,710420.0,114.03,0,0,0,無,有,無,31000,272.0,,0.0,0,供營業使用,RPPPMLPJNHMFFCA97CC,25.0628897,121.5281771
中山區,建物,臺北市中山區復興北路391~420號,0.0,商,1060505,土地0建物1車位0,四層,18.0,住宅大樓(11層含以上有電梯),住家用,鋼筋混凝土造,751125.0,79.13,2,2,1,有,無,有,35000,442.0,,0.0,0,,RPQQMLPJNHMFFCA18CC,25.0617911,121.5444188
內湖區,建物,臺北市內湖區內湖路一段661~690號,0.0,其他,1060426,土地0建物1車位1,五層,18.0,住宅大樓(11層含以上有電梯),住家用,見其他登記事項,991123.0,155.25,3,2,1,有,有,有,50000,322.0,坡道平面,45.09,0,,RPSQMLPJNHMFFCA38CC,25.0802328,121.575526
中山區,建物,臺北市中山區龍江路271~300號,0.0,住,1060503,土地0建物1車位0,二層,7.0,華廈(10層含以下有電梯),住家用,鋼筋混凝土造,980120.0,93.07,2,2,1,有,無,有,37000,398.0,,0.0,0,,RPTQMLPJNHMFFCA48CC,25.0595362,121.540871
內湖區,建物,臺北市內湖區內湖路一段661~690號,0.0,其他,1060407,土地0建物1車位1,十八層,18.0,住宅大樓(11層含以上有電梯),住家用,見其他登記事項,991123.0,84.64,2,1,1,有,有,有,40000,473.0,坡道平面,45.08,0,,RPUQMLPJNHMFFCA58CC,25.0802328,121.575526
中山區,建物,臺北市中山區民權東路三段61~90號,0.0,商,1060502,土地0建物1車位0,五層,19.0,住宅大樓(11層含以上有電梯),住家用,鋼筋混凝土造,751125.0,194.71,4,2,2,有,有,有,45000,231.0,,0.0,0,,RPORMLPJNHMFFCA08CC,25.0625501,121.5432045
中山區,建物,臺北市中山區新生北路二段62巷1~30號,0.0,商,1060411,土地0建物1車位1,十二層,12.0,住宅大樓(11層含以上有電梯),住家用,鋼骨鋼筋混凝土造,1050322.0,80.45,2,1,1,有,有,有,55000,684.0,坡道平面,1.45,0,,RPWRMLPJNHMFFCA88CC,25.0561502,121.5261456
中山區,建物,臺北市中山區長安東路二段151~180號,0.0,商,1060413,土地0建物1車位0,十四層,15.0,住宅大樓(11層含以上有電梯),見其他登記事項,鋼筋混凝土造,1010409.0,52.49,1,2,1,有,有,有,39000,743.0,,0.0,0,含管理費。,RPUSMLPJNHMFFCA78CC,25.0483536,121.5387141
信義區,建物,臺北市信義區忠孝東路五段71巷11弄1~30號,0.0,住,1060415,土地0建物1車位0,四層,5.0,公寓(5樓含以下無電梯),住家用,鋼筋混凝土造,760319.0,111.11,3,2,2,有,無,有,24000,216.0,,0.0,0,,RPPNMLPJNHMFFDA87CC,25.0419768,121.5674349
南港區,房地(土地+建物)+車位,臺北市南港區忠孝東路七段511~540號,1.0,商,1060418,土地1建物1車位1,三層,10.0,辦公商業大樓,見其他登記事項,鋼筋混凝土造,1040409.0,228.68,3,0,2,有,有,無,50000,219.0,坡道平面,41.19,0,,RPQNMLPJNHMFFDA97CC,25.0529259,121.6120314
松山區,建物,臺北市松山區八德路三段74巷31~60號,0.0,住,1060416,土地0建物1車位0,一層,4.0,店面(店鋪),住家用,鋼筋混凝土造,,82.77,0,0,0,無,無,無,58000,701.0,,0.0,0,,RPRNMLPJNHMFFDA08CC,25.0468295,121.5526275
松山區,建物,臺北市松山區南京東路五段181~210號,0.0,住,1060407,土地0建物1車位0,十層,14.0,住宅大樓(11層含以上有電梯),住家用,鋼筋混凝土造,730229.0,106.25,1,1,1,有,有,無,36000,339.0,,0.0,0,,RPVNMLPJNHMFFDA48CC,25.0514711,121.5575573
松山區,建物,臺北市松山區八德路三段155巷4弄1~30號,0.0,住,1060430,土地0建物1車位0,三層,5.0,公寓(5樓含以下無電梯),住家用,鋼筋混凝土造,710930.0,115.02,3,2,2,有,無,有,33000,287.0,,0.0,0,,RPUOMLPJNHMFFDA48CC,25.0486735,121.5553217
信義區,建物,臺北市信義區永吉路31~60號,0.0,商,1060419,土地0建物1車位0,十一層,14.0,住宅大樓(11層含以上有電梯),住家用,鋼筋混凝土造,960524.0,96.01,2,2,2,有,有,有,33000,344.0,,0.0,0,,RPOPMLPJNHMFFDA97CC,25.045894,121.568593
士林區,建物,臺北市士林區中山北路六段241~270號,0.0,住,1060414,土地0建物1車位0,五層,7.0,華廈(10層含以下有電梯),住家用,鋼筋混凝土造,740315.0,176.23,5,2,3,有,有,無,59030,335.0,,0.0,0,,RPRNMLPJNHMFFEA18CC,25.109178,121.52515
士林區,建物,臺北市士林區德行東路283巷31~60號,0.0,住,1060414,土地0建物1車位0,四層,7.0,套房(1房1廳1衛),見其他登記事項,鋼筋混凝土造,971222.0,43.65,1,1,1,有,有,有,23000,527.0,,0.0,0,,RPUNMLPJNHMFFEA48CC,25.1119577,121.5358486
北投區,建物,臺北市北投區行義路186巷1~30號,0.0,住,1060501,土地0建物1車位0,二層,3.0,公寓(5樓含以下無電梯),住家用,鋼筋混凝土造,780131.0,115.41,3,2,2,有,無,無,18000,156.0,,0.0,0,,RPSOMLPJNHMFFEA38CC,25.132623,121.528973
士林區,建物,臺北市士林區士東路266巷15弄1~30號,0.0,住,1060419,土地0建物1車位1,九層,15.0,住宅大樓(11層含以上有電梯),住家用,鋼筋混凝土造,971229.0,414.2,4,2,3,有,有,無,130000,314.0,坡道平面,38.0,0,,RPPPMLPJNHMFFEA18CC,25.111539,121.5369864
士林區,建物,臺北市士林區天玉街38巷1~30號,0.0,住,1060407,土地0建物1車位0,六層,7.0,華廈(10層含以下有電梯),住家用,鋼筋混凝土造,740126.0,139.23,3,2,2,有,有,有,60000,431.0,,0.0,0,,RPTPMLPJNHMFFEA58CC,25.1203179,121.52905
大安區,建物,臺北市大安區大安路二段91~120號,0.0,住,1060427,土地0建物1車位0,五層,7.0,華廈(10層含以下有電梯),住家用,鋼筋混凝土造,741210.0,130.11,3,2,2,有,無,有,50000,384.0,,0.0,0,,RPOOMLPJNHMFFFA08CC,25.0293965,121.5461797
大安區,房地(土地+建物),臺北市大安區敦化南路二段181~210號,1127.0,其他,1060324,土地1建物1車位0,一層,19.0,店面(店鋪),商業用,見使用執照,890714.0,548.44,0,0,0,無,有,無,864040,1575.0,,0.0,0,,RPUOMLPJNHMFFFA68CC,25.0269068,121.5489898
大安區,建物,臺北市大安區光復南路72巷31~60號,0.0,住,1060430,土地0建物1車位1,一層,7.0,華廈(10層含以下有電梯),住家用,鋼筋混凝土造,781002.0,94.77,3,2,2,有,有,有,60000,633.0,一樓平面,0.0,0,,RPVOMLPJNHMFFFA78CC,25.0442689,121.5561179
大安區,建物,臺北市大安區光復南路91~120號,0.0,住,1060409,土地0建物1車位0,三層,12.0,住宅大樓(11層含以上有電梯),住家用,鋼筋混凝土造,761105.0,121.45,3,2,2,有,有,有,37000,305.0,,0.0,0,,RPOPMLPJNHMFFFA18CC,25.0434888,121.5577678
中正區,建物,臺北市中正區泉州街9巷1~30號,0.0,住,1060414,土地0建物1車位0,四層,5.0,公寓(5樓含以下無電梯),住家用,鋼筋混凝土造,1011206.0,91.09,3,2,2,有,無,無,32000,351.0,,0.0,0,,RPQNMLPJNHMFFAA67CC,25.030596,121.514126
文山區,建物,臺北市文山區汀洲路四段181~210號,0.0,住,1060405,土地0建物1車位0,十九層,22.0,住宅大樓(11層含以上有電梯),住家用,鋼筋混凝土造,1000113.0,179.33,3,2,2,有,有,有,66000,368.0,,0.0,0,,RPRNMLPJNHMFFAA77CC,25.0043109,121.5356869
中正區,房地(土地+建物),臺北市中正區羅斯福路三段210巷1~30號,21.75,住,1060414,土地1建物1車位0,一層,4.0,公寓(5樓含以下無電梯),住家用,加強磚造,580110.0,63.2,2,2,1,有,無,無,25000,396.0,,0.0,0,,RPTOMLPJNHMFFAA08CC,25.018362,121.5287579
信義區,建物,臺北市信義區忠孝東路五段481~510號,0.0,商,1060307,土地0建物1車位0,三層,28.0,辦公商業大樓,商業用,鋼骨混凝土造,820813.0,64.85,0,0,0,無,有,無,30000,463.0,,0.0,0,,RPSNMLPJNHMFFDA28DC,25.041004,121.577475
松山區,建物,臺北市松山區南京東路三段331~360號,0.0,商,1060327,土地0建物1車位0,八層,12.0,辦公商業大樓,商業用,鋼筋混凝土造,670120.0,80.33,0,0,0,無,無,有,35000,436.0,,0.0,0,,RPTNMLPJNHMFFDA38DC,25.0520055,121.5473331
松山區,建物,臺北市松山區光復南路61~90號,0.0,住,1060412,土地0建物1車位0,二層,12.0,辦公商業大樓,見使用執照,鋼筋混凝土造,830826.0,276.09,0,0,0,無,有,有,95000,344.0,,0.0,0,,RPXNMLPJNHMFFDA78DC,25.0456314,121.5579807
中山區,建物,臺北市中山區松江路271~300號,0.0,商,1060324,土地0建物1車位0,七層,7.0,辦公商業大樓,住家用,鋼筋混凝土造,711220.0,132.58,0,0,0,無,有,無,43000,324.0,,0.0,0,,RPOOMLPJNHMFFCA87DC,25.0598864,121.5334014
中山區,建物,臺北市中山區松江路151~180號,0.0,商,1060413,土地0建物1車位0,八層,12.0,辦公商業大樓,商業用,鋼筋混凝土造,680119.0,194.64,0,0,0,無,有,無,90000,462.0,,0.0,0,,RPQOMLPJNHMFFCA08DC,25.0554652,121.5332848
中山區,建物,臺北市中山區民權西路31~60號,0.0,商,1060417,土地0建物1車位0,十二層,12.0,辦公商業大樓,住家用,鋼筋混凝土造,691231.0,78.89,0,0,0,無,有,無,30650,389.0,,0.0,0,,RPWOMLPJNHMFFCA68DC,25.0630372,121.5212879
中山區,建物,臺北市中山區松江路181~210號,0.0,商,1060428,土地0建物1車位0,九層,14.0,辦公商業大樓,商業用,鋼筋混凝土造,671219.0,228.82,0,0,0,無,有,無,78000,341.0,,0.0,0,,RPQPMLPJNHMFFCA18DC,25.0563544,121.5333334
中山區,建物,臺北市中山區南京東路一段61~90號,0.0,商,1060428,土地0建物1車位0,六層,11.0,辦公商業大樓,商業用,鋼筋混凝土造,651210.0,67.42,0,0,0,無,有,無,30000,445.0,,0.0,0,,RPSPMLPJNHMFFCA38DC,25.051986,121.5230243
大同區,建物,臺北市大同區承德路三段211~240號,0.0,商,1060414,土地0建物1車位2,十一層,12.0,住宅大樓(11層含以上有電梯),住家用,鋼筋混凝土造,1020419.0,236.8,4,2,3,有,有,有,62000,262.0,塔式車位,71.88,0,,RPRNMLPJNHMFFBA87CC,25.0700316,121.5186793
大同區,建物,臺北市大同區重慶北路三段271~300號,0.0,住,1060417,土地0建物1車位0,一層,3.0,店面(店鋪),,加強磚造,,89.96,1,0,1,有,無,有,32000,356.0,,0.0,0,租金含水費。,RPSNMLPJNHMFFBA97CC,25.0722368,121.5140671
中正區,建物,臺北市中正區信義路二段151~180號,0.0,商,1060414,土地0建物1車位0,十一層,13.0,住宅大樓(11層含以上有電梯),住家用,鋼骨鋼筋混凝土造,970820.0,151.54,3,2,2,有,有,有,82000,541.0,,0.0,0,,RPPOMLPJNHMFFBA77CC,25.03411,121.528614
大同區,建物,臺北市大同區市民大道一段181~210號,0.0,其他,1060405,土地0建物1車位0,十六層,18.0,住宅大樓(11層含以上有電梯),住家用,見其他登記事項,980724.0,137.03,3,1,2,有,有,有,90000,657.0,,0.0,0,,RPQOMLPJNHMFFBA87CC,25.048493,121.5187377
中山區,房地(土地+建物),臺北市中山區錦州街1~30號,23939.23,商,1060505,土地1建物1車位0,六層,10.0,華廈(10層含以下有電梯),商業用,鋼筋混凝土造,760415.0,81.42,0,0,0,無,無,有,32000,393.0,,0.0,0,,RPQNMLQJNHMFFCA97CC,25.0604349,121.5238947
中山區,建物,臺北市中山區林森北路310巷1~30號,0.0,商,1060407,土地0建物1車位0,七層,12.0,住宅大樓(11層含以上有電梯),商業用,鋼筋混凝土造,880928.0,64.52,2,1,1,有,有,有,40000,620.0,,0.0,0,,RPSNMLQJNHMFFCA18CC,25.0562092,121.5243368
中山區,建物,臺北市中山區民權東路二段121~150號,0.0,商,1060407,土地0建物1車位0,十層,12.0,住宅大樓(11層含以上有電梯),住家用,鋼筋混凝土造,710624.0,59.57,2,1,1,有,有,有,32000,537.0,,0.0,0,,RPTNMLQJNHMFFCA28CC,25.0626361,121.5345646
中山區,建物,臺北市中山區南京東路二段91~120號,0.0,其他,1060406,土地0建物1車位0,十七層,18.0,住宅大樓(11層含以上有電梯),住家用,見其他登記事項,990917.0,49.89,1,1,1,有,有,有,55000,1102.0,,0.0,0,,RPUNMLQJNHMFFCA38CC,25.0522884,121.5321795
中山區,建物,臺北市中山區南京東路二段91~120號,0.0,其他,1060406,土地0建物1車位0,十七層,18.0,住宅大樓(11層含以上有電梯),住家用,見其他登記事項,990917.0,53.44,1,1,1,有,有,有,55000,1029.0,,0.0,0,,RPVNMLQJNHMFFCA48CC,25.0522884,121.5321795
文山區,建物,臺北市文山區車前路1~30號,0.0,商,1060503,土地0建物1車位1,十五層,33.0,住宅大樓(11層含以上有電梯),住家用,鋼骨鋼筋混凝土造,1040427.0,215.26,4,2,2,有,有,有,50526,235.0,坡道平面,0.0,0,,RPPNMLRJNHMFFAA77CC,24.991249,121.541157
文山區,建物,臺北市文山區車前路1~30號,0.0,商,1060503,土地0建物1車位1,十五層,33.0,住宅大樓(11層含以上有電梯),住家用,鋼骨鋼筋混凝土造,1040427.0,187.72,3,2,2,有,有,有,40000,213.0,坡道平面,0.0,0,,RPQNMLRJNHMFFAA87CC,24.991249,121.541157
文山區,建物,臺北市文山區車前路1~30號,0.0,商,1060503,土地0建物1車位1,十五層,33.0,住宅大樓(11層含以上有電梯),住家用,鋼骨鋼筋混凝土造,1040427.0,215.26,4,2,2,有,有,有,50526,235.0,坡道平面,0.0,0,,RPRNMLRJNHMFFAA97CC,24.991249,121.541157
文山區,建物,臺北市文山區車前路1~30號,0.0,商,1060427,土地0建物1車位1,十六層,33.0,住宅大樓(11層含以上有電梯),住家用,鋼骨鋼筋混凝土造,1040427.0,234.25,4,2,2,有,有,有,50526,216.0,坡道平面,0.0,0,,RPSNMLRJNHMFFAA08CC,24.991249,121.541157
文山區,建物,臺北市文山區車前路1~30號,0.0,商,1060427,土地0建物1車位1,十六層,33.0,住宅大樓(11層含以上有電梯),住家用,鋼骨鋼筋混凝土造,1040427.0,203.71,3,2,2,有,有,有,40000,196.0,坡道平面,0.0,0,,RPTNMLRJNHMFFAA18CC,24.991249,121.541157
文山區,建物,臺北市文山區車前路1~30號,0.0,商,1060427,土地0建物1車位1,十六層,33.0,住宅大樓(11層含以上有電梯),住家用,鋼骨鋼筋混凝土造,1040427.0,203.71,3,2,2,有,有,有,40000,196.0,坡道平面,0.0,0,,RPUNMLRJNHMFFAA28CC,24.991249,121.541157
文山區,建物,臺北市文山區車前路1~30號,0.0,商,1060505,土地0建物1車位1,十七層,33.0,住宅大樓(11層含以上有電梯),住家用,鋼骨鋼筋混凝土造,1040427.0,234.25,4,2,2,有,有,有,50526,216.0,坡道平面,0.0,0,,RPPNMLSJNHMFFAA87CC,24.991249,121.541157
文山區,建物,臺北市文山區車前路1~30號,0.0,商,1060505,土地0建物1車位1,十七層,33.0,住宅大樓(11層含以上有電梯),住家用,鋼骨鋼筋混凝土造,1040427.0,184.72,3,2,2,有,有,有,40000,217.0,坡道平面,0.0,0,,RPQNMLSJNHMFFAA97CC,24.991249,121.541157
文山區,建物,臺北市文山區車前路1~30號,0.0,商,1060505,土地0建物1車位1,十七層,33.0,住宅大樓(11層含以上有電梯),住家用,鋼骨鋼筋混凝土造,1040427.0,203.71,3,2,2,有,有,有,40000,196.0,坡道平面,0.0,0,,RPRNMLSJNHMFFAA08CC,24.991249,121.541157
文山區,建物,臺北市文山區車前路1~30號,0.0,商,1060505,土地0建物1車位1,十七層,33.0,住宅大樓(11層含以上有電梯),住家用,鋼骨鋼筋混凝土造,1040427.0,234.25,4,2,2,有,有,有,50526,216.0,坡道平面,0.0,0,,RPSNMLSJNHMFFAA18CC,24.991249,121.541157
中正區,建物,臺北市中正區同安街1~30號,0.0,住,1060505,土地0建物1車位0,四層,7.0,華廈(10層含以下有電梯),,鋼筋混凝土造,,97.44,2,2,1,有,無,有,38000,390.0,,0.0,0,,RPXNMLSJNHMFFAA68CC,25.0262855,121.5226648
中正區,建物,臺北市中正區重慶南路三段16巷1~30號,0.0,住,1060419,土地0建物1車位0,三層,4.0,公寓(5樓含以下無電梯),住家用,鋼筋混凝土造,,74.54,2,1,1,有,無,無,22000,295.0,,0.0,0,,RPROMLSJNHMFFAA18CC,25.0290016,121.5152441
中正區,建物,臺北市中正區水源路31~60號,0.0,住,1060410,土地0建物1車位0,七層,13.0,住宅大樓(11層含以上有電梯),住家用,鋼筋混凝土造,911202.0,78.73,2,1,1,有,有,無,25000,318.0,,0.0,0,,RPSOMLSJNHMFFAA28CC,25.0182354,121.5242706
中正區,建物,臺北市中正區廈門街91~120號,0.0,商,1060412,土地0建物1車位0,見其他登記事項,15.0,店面(店鋪),見其他登記事項,鋼筋混凝土造,1040601.0,103.77,0,0,0,無,有,無,30000,289.0,,0.0,0,,RPTOMLSJNHMFFAA38CC,25.0242042,121.5174918
中山區,房地(土地+建物),臺北市中山區民生東路三段31~60號,21.27,商,1060413,土地1建物1車位0,七層,12.0,住宅大樓(11層含以上有電梯),住家用,鋼筋混凝土造,750110.0,188.88,2,2,2,有,有,無,58000,307.0,,0.0,0,,RPWOMLSJNHMFFCA98DC,25.0580663,121.539111
大同區,建物,臺北市大同區民權西路211~240號,0.0,商,1060428,土地0建物2車位0,一層,12.0,住宅大樓(11層含以上有電梯),商業用,鋼筋混凝土造,770623.0,76.69,0,2,1,有,有,無,40000,522.0,,0.0,0,有兩個門牌併租,RPXNMLSJNHMFFBA78CC,25.0631531,121.5150112
中正區,建物,臺北市中正區重慶南路一段31~60號,0.0,商,1060411,土地0建物1車位0,一層,12.0,辦公商業大樓,商業用,鋼筋混凝土造,750805.0,194.11,0,1,1,有,有,有,227040,1170.0,,0.0,0,,RPTOMLSJNHMFFBA48CC,25.045451,121.513395
中正區,建物,臺北市中正區信陽街1~30號,0.0,商,1060413,土地0建物0車位0,一層,5.0,公寓(5樓含以下無電梯),見其他登記事項,鋼筋混凝土造,670112.0,121.15,0,1,1,有,無,有,85000,702.0,,0.0,0,,RPXOMLSJNHMFFBA88CC,25.0447073,121.5168764
中正區,建物,臺北市中正區臨沂街31~60號,76.43,商,1060507,土地0建物1車位0,一層,4.0,公寓(5樓含以下無電梯),,加強磚造,,76.43,0,0,0,無,無,無,40000,523.0,,0.0,0,,RPOPMLSJNHMFFBA08CC,25.0399857,121.5299883
中正區,房地(土地+建物),臺北市中正區仁愛路二段1~30號,107.88,住,1060428,土地1建物1車位0,十一層,19.0,住宅大樓(11層含以上有電梯),住家用,見其他登記事項,980907.0,168.65,1,2,2,有,有,有,80000,474.0,,0.0,0,,RPTPMLSJNHMFFBA58CC,25.0385025,121.5256136
大安區,房地(土地+建物),臺北市大安區復興南路一段61~90號,26.1,商,1060504,土地2建物1車位0,三層,5.0,公寓(5樓含以下無電梯),商業用,鋼筋混凝土造,,104.62,3,2,1,有,無,無,25000,239.0,,0.0,0,,RPRNMLSJNHMFFFA58CC,25.0438035,121.5442264
大安區,建物,臺北市大安區浦城街1~30號,0.0,住,1060504,土地0建物1車位0,三層,4.0,公寓(5樓含以下無電梯),住家用,鋼筋混凝土造,,93.74,3,2,2,有,無,有,27000,288.0,,0.0,0,,RPSNMLSJNHMFFFA68CC,25.0246619,121.528002
大安區,建物,臺北市大安區新生南路一段97巷1~30號,0.0,住,1060425,土地0建物1車位0,四層,6.0,華廈(10層含以下有電梯),住家用,鋼筋混凝土造,730126.0,127.96,3,2,2,有,無,有,65000,508.0,,0.0,0,,RPVNMLSJNHMFFFA98CC,25.0412648,121.5340794
大安區,建物,臺北市大安區信義路四段265巷31~60號,0.0,住,1060413,土地0建物1車位0,九層,9.0,華廈(10層含以下有電梯),住家用,鋼筋混凝土造,910305.0,282.44,5,3,3,有,有,有,85000,301.0,,0.0,0,,RPXNMLSJNHMFFFA56CC,25.0345656,121.5552668
中山區,建物,臺北市中山區龍江路1~30號,0.0,商,1060411,土地0建物1車位0,七層,12.0,住宅大樓(11層含以上有電梯),住家用,鋼筋混凝土造,970104.0,91.51,1,1,1,有,有,有,40000,437.0,,0.0,0,,RPQOMLSJNHMFFCA28CC,25.0470691,121.540523
內湖區,建物,臺北市內湖區行忠路1~30號,0.0,其他,1060417,土地0建物1車位0,七層,8.0,華廈(10層含以下有電梯),工業用,鋼筋混凝土造,920428.0,578.14,0,0,0,無,有,無,115500,200.0,,0.0,0,供營業使用,RPROMLSJNHMFFCA38CC,25.0664264,121.5841658
內湖區,建物,臺北市內湖區成功路二段271~300號,0.0,住,1060419,土地0建物1車位0,二層,4.0,公寓(5樓含以下無電梯),住家用,鋼筋混凝土造,661017.0,107.64,0,0,0,無,無,無,21500,200.0,,0.0,0,供辦公室使用,RPUOMLSJNHMFFCA68CC,25.0726238,121.5893976
中山區,建物,臺北市中山區南京東路三段48巷31~60號,0.0,住,1060421,土地0建物1車位0,六層,14.0,住宅大樓(11層含以上有電梯),住家用,鋼筋混凝土造,930330.0,181.9,3,1,2,有,有,有,60000,330.0,,0.0,0,,RPRPMLSJNHMFFCA48CC,25.0506792,121.5384738
中山區,建物,臺北市中山區復興北路61~90號,0.0,商,1060421,土地0建物1車位0,六層,12.0,住宅大樓(11層含以上有電梯),商業用,鋼筋混凝土造,670522.0,107.77,2,1,2,有,有,有,36000,334.0,,0.0,0,,RPVPMLSJNHMFFCA88CC,25.0661001,121.5415774
中山區,建物,臺北市中山區雙城街19巷1~30號,0.0,商,1060410,土地0建物1車位0,十三層,14.0,住宅大樓(11層含以上有電梯),住家用,鋼筋混凝土造,970312.0,68.0,1,1,1,有,有,有,36000,529.0,,0.0,0,,RPWPMLSJNHMFFCA98CC,25.065313,121.5245371
內湖區,建物,臺北市內湖區民權東路六段180巷151~180號,0.0,住,1060330,土地0建物1車位1,十層,11.0,住宅大樓(11層含以上有電梯),住家用,鋼筋混凝土造,1000221.0,133.44,2,2,2,有,有,有,45000,337.0,坡道平面,39.58,0,,RPRQMLSJNHMFFCA58CC,25.0658007,121.5925797
中山區,建物,臺北市中山區八德路二段300巷31~60號,0.0,住,1060429,土地0建物1車位0,五層,13.0,住宅大樓(11層含以上有電梯),住家用,鋼筋混凝土造,990423.0,235.55,3,2,2,有,有,有,75000,318.0,,0.0,0,,RPUQMLSJNHMFFCA88CC,25.0460212,121.5432287
士林區,建物,臺北市士林區天母東路31~60號,0.0,商,1060424,土地0建物1車位0,一層,7.0,店面(店鋪),商業用,鋼筋混凝土造,761105.0,182.77,0,1,0,有,無,無,160000,875.0,,0.0,0,,RPSNMLSJNHMFFEA58CC,25.1182213,121.5319856
士林區,建物,臺北市士林區中山北路七段1~30號,0.0,商,1060417,土地0建物1車位0,五層,7.0,華廈(10層含以下有電梯),住家用,鋼筋混凝土造,750103.0,144.83,4,2,2,有,有,有,70000,483.0,,0.0,0,,RPVNMLSJNHMFFEA88CC,25.126537,121.532604
士林區,建物,臺北市士林區中山北路七段14巷1~30號,0.0,住,1060501,土地0建物1車位0,四層,7.0,華廈(10層含以下有電梯),住家用,鋼筋混凝土造,770119.0,146.85,4,2,2,有,有,有,62273,424.0,,0.0,0,,RPWNMLSJNHMFFEA98CC,25.1195978,121.5325851
北投區,建物,臺北市北投區天母西路117巷52弄1~30號,0.0,住,1060414,土地0建物1車位0,六層,7.0,華廈(10層含以下有電梯),住家用,鋼筋混凝土造,731113.0,139.37,4,2,2,有,有,無,50000,359.0,,0.0,0,,RPOOMLSJNHMFFEA28CC,25.1212624,121.5247451
士林區,建物,臺北市士林區忠誠路一段31~60號,0.0,住,1060415,土地0建物1車位0,四層,7.0,華廈(10層含以下有電梯),住家用,鋼筋混凝土造,740118.0,102.25,3,2,2,有,有,無,36000,352.0,,0.0,0,,RPPOMLSJNHMFFEA38CC,25.104162,121.527193
北投區,建物,臺北市北投區自強街31~60號,0.0,住,1060418,土地0建物1車位0,二層,5.0,公寓(5樓含以下無電梯),住家用,鋼筋混凝土造,670130.0,80.64,2,1,1,有,無,無,22000,273.0,,0.0,0,,RPSOMLSJNHMFFEA68CC,25.111842,121.512257
士林區,建物,臺北市士林區中山北路六段195巷1~30號,0.0,住,1060408,土地0建物1車位0,十二層,14.0,住宅大樓(11層含以上有電梯),住家用,鋼筋混凝土造,970506.0,85.4,1,2,1,有,無,有,40000,468.0,,0.0,0,,RPXOMLSJNHMFFEA56CC,25.1078258,121.5247221
士林區,建物,臺北市士林區德行東路181~210號,0.0,住,1060428,土地0建物1車位0,六層,7.0,華廈(10層含以下有電梯),住家用,鋼筋混凝土造,731210.0,162.31,3,2,2,有,有,有,44000,271.0,,0.0,0,,RPOPMLSJNHMFFEA38CC,25.1088363,121.5312044
士林區,建物,臺北市士林區福華路166巷1~30號,0.0,住,1060502,土地0建物1車位0,二層,4.0,公寓(5樓含以下無電梯),住家用,鋼筋混凝土造,621226.0,76.93,2,2,1,有,無,無,18000,234.0,,0.0,0,,RPPPMLSJNHMFFEA48CC,25.104601,121.5225567
士林區,建物,臺北市士林區中山北路六段290巷31~60號,0.0,住,1060429,土地0建物1車位0,四層,5.0,公寓(5樓含以下無電梯),住家用,鋼筋混凝土造,691119.0,131.56,4,2,2,有,有,有,37000,281.0,,0.0,0,,RPSPMLSJNHMFFEA78CC,25.1088471,121.5267486
信義區,建物,臺北市信義區虎林街60巷1~30號,0.0,商,1060415,土地0建物1車位0,二層,4.0,公寓(5樓含以下無電梯),住家用,鋼筋混凝土造,611205.0,94.64,3,2,1,有,無,有,20000,211.0,,0.0,0,,RPPNMLSJNHMFFDA18CC,25.0461889,121.5768791
信義區,建物,臺北市信義區光復南路451~480號,0.0,商,1060502,土地0建物1車位0,四層,12.0,住宅大樓(11層含以上有電梯),見其他登記事項,鋼筋混凝土造,,87.39,3,1,1,有,有,有,28000,320.0,,0.0,0,,RPPOMLSJNHMFFDA28CC,25.0346792,121.5577219
信義區,建物,臺北市信義區松隆路61~90號,25.0,住,1060507,土地0建物1車位0,一層,4.0,公寓(5樓含以下無電梯),住家用,加強磚造,590105.0,84.14,0,0,0,無,無,無,48000,570.0,,0.0,0,,RPUOMLSJNHMFFDA78CC,25.044894,121.569132
松山區,建物,臺北市松山區南京東路五段61~90號,0.0,商,1060412,土地0建物1車位0,二層,12.0,住宅大樓(11層含以上有電梯),商業用,鋼筋混凝土造,750519.0,85.29,1,1,1,有,有,無,24000,281.0,,0.0,0,,RPVOMLSJNHMFFDA88CC,25.0517366,121.5594407
信義區,建物,臺北市信義區忠孝東路五段91~120號,0.0,住,1060429,土地0建物1車位0,四層,13.0,住宅大樓(11層含以上有電梯),見其他登記事項,鋼筋混凝土造,1030829.0,64.25,2,2,2,有,有,有,69000,1074.0,,0.0,0,租金含網路、有線電視費用。,RPWNMLTJNHMFFDA98CC,25.0409688,121.5692048
松山區,建物,臺北市松山區健康路8巷1~30號,0.0,住,1060428,土地0建物1車位0,一層,7.0,華廈(10層含以下有電梯),商業用,鋼筋混凝土造,741105.0,222.45,2,1,2,有,無,無,75000,337.0,,0.0,0,,RPXNMLTJNHMFFDA09CC,25.0523244,121.5528592
信義區,建物,臺北市信義區基隆路一段147巷5弄31~60號,0.0,住,1060421,土地0建物1車位0,一層,4.0,店面(店鋪),住家用,鋼筋混凝土造,,91.49,0,0,0,無,無,無,70000,765.0,,0.0,0,,RPOOMLTJNHMFFDA28CC,25.0429269,121.5661547
信義區,房地(土地+建物)+車位,臺北市信義區紫雲街61~90號,0.0,住,1060428,土地0建物1車位1,一層,15.0,住宅大樓(11層含以上有電梯),住家用,鋼筋混凝土造,800723.0,310.64,3,2,4,有,有,無,70000,225.0,坡道平面,69.6,0,,RPSOMLTJNHMFFDA68CC,25.015949,121.575921
信義區,房地(土地+建物),臺北市信義區松隆路61~90號,102.0,住,1060503,土地1建物1車位0,一層,4.0,店面(店鋪),住商用,加強磚造,,81.83,0,0,0,無,無,無,73788,902.0,,0.0,0,,RPVOMLTJNHMFFDA98CC,25.044894,121.569132
士林區,房地(土地+建物),臺北市士林區中山北路六段290巷11弄1~30號,29.94,住,1060504,土地1建物1車位0,二層,5.0,公寓(5樓含以下無電梯),住家用,鋼筋混凝土造,740107.0,114.51,3,2,2,有,無,無,25000,218.0,,0.0,0,,RPXNMLTJNHMFFEA56CC,25.1101604,121.5263332
中山區,建物,臺北市中山區林森北路571~600號,0.0,商,1060425,土地0建物1車位0,八層,13.0,住宅大樓(11層含以上有電梯),住家用,鋼筋混凝土造,1000726.0,184.44,3,2,2,有,有,有,98500,534.0,,0.0,0,租金含管理費,RPRNMLTJNHMFFCA38CC,25.0649087,121.5256777
中山區,建物,臺北市中山區民權西路9巷1~30號,0.0,商,1060426,土地0建物1車位0,六層,14.0,套房(1房1廳1衛),見其他登記事項,鋼筋混凝土造,1011112.0,52.77,1,1,1,有,有,有,35000,663.0,,0.0,0,,RPUNMLTJNHMFFCA68CC,25.0632923,121.5219717
內湖區,房地(土地+建物),臺北市內湖區陽光街331~360號,294.58,工,1060421,土地1建物1車位0,七層,8.0,廠辦,工業用,鋼筋混凝土造,961116.0,294.58,0,0,0,無,有,無,95500,324.0,,0.0,0,,RPVNMLTJNHMFFCA78CC,25.0732244,121.5781728
中山區,建物,臺北市中山區新生北路二段68巷1~30號,0.0,商,1060421,土地0建物1車位0,二層,7.0,華廈(10層含以下有電梯),住家用,鋼筋混凝土造,670505.0,66.73,2,1,1,有,有,無,28800,432.0,,0.0,0,,RPWNMLTJNHMFFCA88CC,25.056545,121.5260897
中山區,建物,臺北市中山區民權西路9巷1~30號,0.0,商,1060501,土地0建物1車位0,十層,14.0,套房(1房1廳1衛),見其他登記事項,鋼筋混凝土造,1011112.0,87.77,1,1,1,有,有,有,28000,319.0,,0.0,0,含管理費,RPXNMLTJNHMFFCA98CC,25.0632923,121.5219717
內湖區,房地(土地+建物),臺北市內湖區洲子街61~90號,673.98,工,1060424,土地1建物1車位0,十層,12.0,廠辦,工業用,見其他登記事項,940714.0,673.98,0,0,0,無,有,無,269000,399.0,,0.0,0,,RPOOMLTJNHMFFCA18CC,25.0796946,121.5729014
中山區,房地(土地+建物),臺北市中山區長安東路二段211~240號,10.02,商,1060417,土地1建物1車位0,一層,12.0,住宅大樓(11層含以上有電梯),商業用,鋼筋混凝土造,740418.0,100.55,0,0,0,無,有,有,70000,696.0,,0.0,0,,RPPOMLTJNHMFFCA28CC,25.0481587,121.5431253
中山區,建物,臺北市中山區南京東路二段91~120號,0.0,其他,1060422,土地0建物1車位0,十一層,18.0,辦公商業大樓,住家用,見其他登記事項,990917.0,48.5,0,0,0,無,有,有,25000,515.0,,0.0,0,,RPVOMLTJNHMFFCA88CC,25.0522884,121.5321795
中山區,建物,臺北市中山區龍江路298巷1~30號,0.0,住,1060429,土地0建物1車位0,七層,12.0,住宅大樓(11層含以上有電梯),住家用,鋼筋混凝土造,851019.0,152.76,3,2,2,有,有,有,38000,249.0,,0.0,0,,RPWOMLTJNHMFFCA98CC,25.0619402,121.5397298
中山區,建物,臺北市中山區長安東路一段1~30號,0.0,商,1060505,土地0建物1車位0,十一層,12.0,辦公商業大樓,商業用,鋼筋混凝土造,681124.0,56.5,0,0,0,無,有,無,23300,412.0,,0.0,0,,RPOPMLTJNHMFFCA28CC,25.0468527,121.5299559
大安區,建物,臺北市大安區金山南路二段211~240號,0.0,商,1060424,土地0建物1車位2,十二層,38.0,住宅大樓(11層含以上有電梯),住家用,見其他登記事項,1031224.0,195.94,3,2,2,有,有,有,63000,322.0,升降平面,59.3,0,,RPQNMLTJNHMFFFA58CC,25.027877,121.526339
大安區,建物,臺北市大安區敦化南路二段151~180號,0.0,其他,1060427,土地0建物2車位0,一層,12.0,店面(店鋪),商業用,鋼筋混凝土造,711127.0,434.39,0,0,0,無,有,有,300000,691.0,,0.0,0,此租賃物件為1+2樓,RPQOMLTJNHMFFFA68CC,25.0269435,121.548989
大安區,房地(土地+建物),臺北市大安區新生南路一段157巷31~60號,51.08,住,1060509,土地1建物1車位0,一層,4.0,公寓(5樓含以下無電梯),住家用,鋼筋混凝土造,,141.06,0,0,0,無,無,無,55000,390.0,,0.0,0,,RPXOMLTJNHMFFFA76CC,25.0349878,121.5370984
大同區,建物,臺北市大同區市民大道一段181~210號,0.0,其他,1060424,土地0建物1車位0,十八層,18.0,住宅大樓(11層含以上有電梯),住家用,見其他登記事項,980724.0,79.91,2,2,1,有,有,有,48000,601.0,,0.0,0,,RPUNMLTJNHMFFBA58CC,25.048493,121.5187377
大同區,建物,臺北市大同區重慶北路三段181~210號,0.0,住,1060420,土地0建物0車位0,一層,2.0,店面(店鋪),,加強磚造,,61.29,0,0,0,無,無,無,26000,424.0,,0.0,0,,RPWNMLTJNHMFFBA78CC,25.0691969,121.513994
萬華區,建物,臺北市萬華區西寧南路151~180號,0.0,商,1060401,土地0建物1車位0,一層,3.0,店面(店鋪),,加強磚造,,99.3,1,0,1,有,有,無,270000,2719.0,,0.0,0,租屋包含稅金,RPQOMLTJNHMFFBA28CC,25.043822,121.506374
萬華區,建物,臺北市萬華區興寧街66巷22弄1~30號,0.0,,1060509,土地0建物1車位0,一層,5.0,公寓(5樓含以下無電梯),工業用,鋼筋混凝土造,720311.0,69.14,0,0,0,無,無,無,18000,260.0,,0.0,0,,RPROMLTJNHMFFBA38CC,25.0316751,121.4991498
內湖區,建物,臺北市內湖區內湖路一段217巷61~90號,0.0,住,1060506,土地0建物1車位0,七層,7.0,華廈(10層含以下有電梯),住家用,鋼筋混凝土造,721117.0,105.61,3,2,2,有,有,有,27000,256.0,,0.0,0,,RPRPMLTJNHMFFCA68DC,25.083776,121.564354
內湖區,建物,臺北市內湖區南京東路六段361~390號,0.0,工,1060419,土地0建物7車位0,見其他登記事項,16.0,廠辦,見其他登記事項,見其他登記事項,1030930.0,14429.44,0,0,0,無,有,無,5279412,366.0,,0.0,0,,RPUPMLTJNHMFFCA98DC,25.0585827,121.5849238
大安區,建物,臺北市大安區羅斯福路三段31~60號,301.0,商,1060505,土地0建物4車位0,二層,4.0,店面(店鋪),商業用,鋼筋混凝土造,610828.0,383.67,0,0,0,無,無,無,250000,652.0,,0.0,0,出租標的物為1.2樓，含增建部份。,RPTNMLTJNHMFFFA98DC,25.023649,121.525278
文山區,建物,臺北市文山區木新路二段211~240號,0.0,住,1060416,土地0建物2車位0,一層,5.0,店面(店鋪),住家用,鋼筋混凝土造,680730.0,172.0,0,2,2,有,無,無,70000,407.0,,0.0,0,,RPQNMLTJNHMFFAA08CC,24.983438,121.5677407
大同區,建物,臺北市大同區市民大道一段181~210號,0.0,其他,1060328,土地0建物1車位0,十一層,18.0,套房(1房1廳1衛),住家用,見其他登記事項,980724.0,45.31,1,1,1,有,有,有,38000,839.0,,0.0,0,,RPTNMLKKNHMFFBA67CC,25.048493,121.5187377
大同區,建物,臺北市大同區萬全街1~30號,0.0,商,1060503,土地0建物1車位0,五層,15.0,住宅大樓(11層含以上有電梯),住家用,鋼筋混凝土造,1041016.0,84.48,1,1,1,有,有,有,60000,710.0,,0.0,0,,RPOPMLKKNHMFFBA37CC,25.0588024,121.5203655
大安區,建物,臺北市大安區安和路二段181~210號,0.0,住,1060426,土地0建物1車位0,十一層,17.0,住宅大樓(11層含以上有電梯),住家用,鋼筋混凝土造,800105.0,237.35,3,2,2,有,有,有,100000,421.0,,0.0,0,,RPPNMLKKNHMFFFA67CC,25.027532,121.5500307
大安區,建物,臺北市大安區信義路三段181~210號,0.0,商,1060412,土地0建物1車位0,一層,12.0,店面(店鋪),商業用,鋼筋混凝土造,770921.0,74.85,0,0,0,無,有,有,150000,2004.0,,0.0,0,,RPSNMLKKNHMFFFA97CC,25.0332973,121.5424301
大安區,建物,臺北市大安區新生南路三段1~30號,0.0,住,1060506,土地0建物1車位3,三層,14.0,住宅大樓(11層含以上有電梯),住家用,鋼筋混凝土造,980702.0,279.39,4,2,2,有,有,有,120000,430.0,坡道平面,0.0,0,,RPUNMLKKNHMFFFA18CC,25.0251549,121.5345231
大安區,建物,臺北市大安區金華街61~90號,0.0,,1060503,土地0建物1車位4,四層,11.0,住宅大樓(11層含以上有電梯),住家用,鋼筋混凝土造,980910.0,279.77,3,2,2,有,有,有,130000,465.0,坡道機械,71.5,0,,RPXNMLKKNHMFFFA48CC,25.03027,121.525222
大安區,房地(土地+建物),臺北市大安區建國南路二段181~210號,35.0,住,1060510,土地1建物1車位0,一層,4.0,公寓(5樓含以下無電梯),住家用,鋼筋混凝土造,,112.01,0,0,1,有,無,無,80000,714.0,,0.0,0,,RPPOMLKKNHMFFFA77CC,25.0277904,121.5381037
大安區,建物,臺北市大安區臥龍街301~330號,0.0,住,1060428,土地0建物1車位0,七層,13.0,住宅大樓(11層含以上有電梯),住家用,鋼筋混凝土造,990513.0,122.12,3,2,2,有,有,有,63000,516.0,,0.0,0,租期為11個月又16天,RPSOMLKKNHMFFFA08CC,25.0169789,121.55974
大安區,建物,臺北市大安區敦化南路一段161巷69弄1~30號,0.0,住,1060417,土地0建物1車位0,二層,6.0,華廈(10層含以下有電梯),住家用,鋼筋混凝土造,751220.0,60.41,1,1,1,有,有,有,36000,596.0,,0.0,0,租金包含大樓管理費,RPVOMLKKNHMFFFA38CC,25.0435991,121.5495081
大安區,房地(土地+建物),臺北市大安區敦化南路一段233巷1~30號,53.52,住,1060415,土地1建物1車位0,一層,7.0,店面(店鋪),見使用執照,鋼筋混凝土造,671220.0,283.26,0,0,0,無,無,無,173000,611.0,,0.0,0,出租樓層1樓及地下室,RPWOMLKKNHMFFFA48CC,25.0403975,121.549362
中山區,建物,臺北市中山區長春路1~30號,0.0,商,1060412,土地0建物1車位0,五層,14.0,住宅大樓(11層含以上有電梯),住家用,鋼筋混凝土造,990212.0,52.16,1,1,1,有,有,有,32500,623.0,,0.0,0,,RPWNMLKKNHMFFCA08CC,25.0547461,121.5308377
內湖區,建物,臺北市內湖區金莊路61~90號,0.0,其他,1060424,土地0建物1車位1,十三層,14.0,住宅大樓(11層含以上有電梯),商業用,鋼筋混凝土造,990512.0,198.65,5,2,3,有,有,無,45000,227.0,坡道平面,0.0,0,,RPOOMLKKNHMFFCA37CC,25.0634772,121.5871663
中山區,建物,臺北市中山區北安路621巷6弄1~30號,0.0,住,1060423,土地0建物1車位0,一層,4.0,公寓(5樓含以下無電梯),住家用,鋼筋混凝土造,651204.0,100.22,3,2,2,有,有,無,30000,299.0,,0.0,0,,RPPOMLKKNHMFFCA47CC,25.082622,121.5483053
中山區,建物,臺北市中山區敬業三路151~180號,0.0,住,1060417,土地0建物1車位0,二層,7.0,華廈(10層含以下有電梯),住家用,鋼筋混凝土造,980910.0,157.45,3,2,2,有,有,有,60000,381.0,,0.0,0,租金內含大樓管理費,RPXOMLKKNHMFFCA28CC,25.0799029,121.5562777
中山區,建物,臺北市中山區民生東路三段31~60號,0.0,商,1060509,土地0建物1車位3,十層,14.0,住宅大樓(11層含以上有電梯),住家用,鋼筋混凝土造,960806.0,383.41,4,2,4,有,有,有,125000,326.0,坡道平面,96.84,0,,RPOPMLKKNHMFFCA47CC,25.0580663,121.539111
內湖區,建物,臺北市內湖區民權東路六段1~30號,0.0,其他,1060502,土地0建物1車位1,四層,6.0,辦公商業大樓,工業用,鋼筋混凝土造,931228.0,213.43,4,0,0,有,有,無,63000,295.0,坡道平面,0.0,0,,RPPPMLKKNHMFFCA57CC,25.0679835,121.5801663
中山區,建物,臺北市中山區南京東路二段24巷1~30號,0.0,商,1060428,土地0建物1車位0,八層,8.0,華廈(10層含以下有電梯),商業用,鋼筋混凝土造,931209.0,54.45,1,1,2,有,有,有,40000,735.0,,0.0,0,,RPRPMLKKNHMFFCA77CC,25.0523303,121.5279494
中山區,建物,臺北市中山區民權西路9巷1~30號,0.0,商,1060428,土地0建物1車位0,九層,14.0,住宅大樓(11層含以上有電梯),見其他登記事項,鋼筋混凝土造,1011112.0,64.72,1,1,1,有,有,有,40000,618.0,,0.0,0,,RPSPMLKKNHMFFCA87CC,25.0632923,121.5219717
內湖區,建物,臺北市內湖區金莊路91~120號,0.0,其他,1060502,土地0建物1車位1,四層,11.0,住宅大樓(11層含以上有電梯),見其他登記事項,鋼筋混凝土造,1010104.0,193.12,2,2,2,有,有,有,58000,300.0,坡道平面,34.84,0,,RPTPMLKKNHMFFCA97CC,25.0634478,121.5876442
中山區,建物,臺北市中山區撫順街1~30號,0.0,商,1060418,土地0建物1車位0,八層,14.0,住宅大樓(11層含以上有電梯),住家用,鋼筋混凝土造,931203.0,131.56,2,1,2,有,有,有,50000,380.0,,0.0,0,,RPUPMLKKNHMFFCA08CC,25.0635339,121.520902
中山區,建物,臺北市中山區中山北路二段151~180號,0.0,商,1060419,土地0建物1車位0,十三層,14.0,住宅大樓(11層含以上有電梯),商業用,鋼骨鋼筋混凝土造,951129.0,100.44,3,1,1,有,有,有,46000,458.0,,0.0,0,,RPVPMLKKNHMFFCA18CC,25.0620063,121.5229569
內湖區,建物,臺北市內湖區民權東路六段181~210號,0.0,住,1060430,土地0建物1車位1,三層,11.0,住宅大樓(11層含以上有電梯),住家用,鋼筋混凝土造,971023.0,279.35,3,2,2,有,有,有,65000,233.0,坡道平面,32.71,0,租金包含大樓管理費,RPWPMLKKNHMFFCA28CC,25.0679669,121.5967209
士林區,建物,臺北市士林區中山北路六段290巷7弄31~60號,0.0,住,1060414,土地0建物1車位0,三層,5.0,華廈(10層含以下有電梯),住家用,鋼筋混凝土造,690522.0,145.12,3,2,2,有,無,有,60000,413.0,,0.0,0,,RPTNMLKKNHMFFEA97CC,25.1101688,121.52738
北投區,建物,臺北市北投區公館路301~330號,0.0,住,1060423,土地0建物0車位0,二層,5.0,套房(1房1廳1衛),住家用,鋼筋混凝土造,820108.0,22.06,1,1,1,有,無,有,8700,394.0,,0.0,0,,RPXNMLKKNHMFFEA38CC,25.1245862,121.5066541
北投區,建物,臺北市北投區裕民六路91~120號,0.0,商,1060421,土地0建物1車位0,十一層,17.0,住宅大樓(11層含以上有電梯),見使用執照,鋼筋混凝土造,920221.0,146.71,3,1,2,有,有,有,53000,361.0,,0.0,0,,RPVQMLKKNHMFFEA48CC,25.1137919,121.5172288
士林區,建物,臺北市士林區至善路二段1~30號,0.0,住,1060502,土地0建物1車位1,三層,7.0,華廈(10層含以下有電梯),住家用,鋼筋混凝土造,820507.0,177.4,4,2,2,有,有,有,50000,282.0,坡道平面,0.0,0,租金包含大樓管理費,RPORMLKKNHMFFEA87CC,25.1073589,121.5573333
松山區,建物,臺北市松山區敦化北路301~330號,0.0,其他,1060413,土地0建物1車位0,十一層,12.0,套房(1房1廳1衛),住家用,鋼筋混凝土造,651022.0,29.95,1,0,1,有,有,有,12000,401.0,,0.0,0,,RPRNMLKKNHMFFDA67CC,25.0583141,121.5496202
松山區,建物,臺北市松山區敦化北路199巷16弄1~30號,0.0,住,1060419,土地0建物1車位0,六層,7.0,華廈(10層含以下有電梯),住家用,鋼筋混凝土造,750714.0,158.36,3,2,2,有,有,有,50000,316.0,,0.0,0,,RPUNMLKKNHMFFDA97CC,25.0563999,121.551294
信義區,建物,臺北市信義區永吉路61~90號,0.0,商,1060417,土地0建物1車位0,四層,14.0,住宅大樓(11層含以上有電梯),商業用,鋼筋混凝土造,891026.0,151.84,3,2,2,有,有,有,46000,303.0,,0.0,0,,RPOOMLKKNHMFFDA47CC,25.045847,121.5692588
松山區,建物,臺北市松山區八德路四段121~150號,0.0,住,1060505,土地0建物1車位0,五層,7.0,辦公商業大樓,商業用,鋼筋混凝土造,810131.0,292.96,0,0,0,無,有,無,90000,307.0,,0.0,0,,RPSOMLKKNHMFFDA87CC,25.0487289,121.5615719
松山區,建物,臺北市松山區敦化北路155巷61~90號,0.0,住,1060421,土地0建物1車位0,六層,8.0,華廈(10層含以下有電梯),住家用,鋼筋混凝土造,920106.0,177.72,3,1,2,有,有,有,45000,253.0,,0.0,0,,RPQPMLKKNHMFFDA77CC,25.0542613,121.5512325
信義區,房地(土地+建物)+車位,臺北市信義區忠孝東路五段275巷7弄1~30號,45.96,商,1060508,土地2建物1車位0,六層,10.0,華廈(10層含以下有電梯),住家用,鋼筋混凝土造,940426.0,233.06,4,2,2,有,有,有,100000,503.0,坡道平面,44.34,0,,RPRPMLKKNHMFFDA87CC,25.04251,121.578983
信義區,建物,臺北市信義區忠孝東路五段451~480號,0.0,商,1060419,土地0建物1車位0,十層,11.0,住宅大樓(11層含以上有電梯),見其他登記事項,鋼筋混凝土造,941006.0,50.2,1,1,1,有,有,有,36800,733.0,,0.0,0,租金包含網路費用以及有線電視費用,RPTPMLKKNHMFFDA08CC,25.0411038,121.5762524
松山區,建物,臺北市松山區復興北路141巷6弄1~30號,0.0,商,1060510,土地0建物1車位0,三層,8.0,華廈(10層含以下有電梯),住家用,鋼筋混凝土造,770201.0,172.62,4,2,2,有,無,有,51084,296.0,,0.0,0,,RPVPMLKKNHMFFDA28CC,25.0536288,121.544834
松山區,建物,臺北市松山區南京東路四段181~210號,0.0,商,1060428,土地0建物1車位0,十二層,12.0,辦公商業大樓,商業用,鋼筋混凝土造,681027.0,68.19,0,0,0,無,有,無,21500,315.0,,0.0,0,,RPPNMLLKNHMFFDA57CC,25.0517846,121.5565688
松山區,建物,臺北市松山區撫遠街249巷1~30號,0.0,其他,1060423,土地0建物0車位0,地下層,4.0,公寓(5樓含以下無電梯),住家用,鋼筋混凝土造,710824.0,66.01,0,0,0,無,無,無,15000,227.0,,0.0,0,倉庫使用,RPQNMLLKNHMFFDA67CC,25.060555,121.567449
信義區,建物,臺北市信義區崇德街63巷1~30號,0.0,住,1060503,土地0建物1車位1,十層,12.0,住宅大樓(11層含以上有電梯),住家用,鋼筋混凝土造,1010614.0,199.53,2,2,2,有,有,有,87000,436.0,坡道平面,0.0,0,,RPRNMLLKNHMFFDA77CC,25.02495,121.555104
信義區,建物,臺北市信義區和平東路三段151~180號,0.0,商,1060505,土地0建物1車位0,六層,14.0,套房(1房1廳1衛),住家用,鋼筋混凝土造,970205.0,36.67,1,0,0,無,有,有,25000,682.0,,0.0,0,,RPVNMLLKNHMFFDA18CC,25.0241941,121.5530874
信義區,建物,臺北市信義區基隆路一段172巷1~30號,0.0,住,1060417,土地0建物1車位0,九層,14.0,住宅大樓(11層含以上有電梯),住家用,鋼筋混凝土造,790515.0,163.59,3,2,2,有,有,有,95000,581.0,,0.0,0,,RPPPMLLKNHMFFDA77CC,25.043104,121.5646621
士林區,建物,臺北市士林區福林路241~270號,37.92,住,1060506,土地0建物1車位0,三層,5.0,公寓(5樓含以下無電梯),住家用,鋼筋混凝土造,731018.0,128.82,3,2,2,有,無,有,23000,179.0,,0.0,0,,RPXNMLLKNHMFFEA48CC,25.0982385,121.5346217
士林區,建物,臺北市士林區中山北路六段157巷1~30號,0.0,工,1060413,土地0建物1車位0,十四層,15.0,住宅大樓(11層含以上有電梯),見其他登記事項,鋼筋混凝土造,971002.0,101.15,2,2,1,有,有,有,59000,583.0,,0.0,0,,RPROMLLKNHMFFEA97CC,25.1067274,121.5247651
士林區,建物,臺北市士林區忠誠路一段121~150號,0.0,住,1060417,土地0建物1車位0,三層,9.0,華廈(10層含以下有電梯),住家用,鋼筋混凝土造,911231.0,200.12,3,2,2,有,無,有,70000,350.0,,0.0,0,,RPSOMLLKNHMFFEA08CC,25.1053966,121.5291697
內湖區,建物,臺北市內湖區環山路一段1~30號,0.0,住,1060427,土地0建物1車位0,二十二層,24.0,住宅大樓(11層含以上有電梯),住家用,鋼骨鋼筋混凝土造,981007.0,430.65,3,2,2,有,有,有,133400,310.0,坡道平面,129.29,0,,RPWNMLLKNHMFFCA18CC,25.0826777,121.5656678
中山區,建物,臺北市中山區中山北路二段121~150號,0.0,商,1060425,土地0建物1車位1,十三層,14.0,住宅大樓(11層含以上有電梯),商業用,鋼筋混凝土造,970611.0,208.69,5,2,3,有,有,無,63000,302.0,坡道平面,25.7,0,,RPPOMLLKNHMFFCA57CC,25.0612094,121.5231156
中山區,建物,臺北市中山區林森北路451~480號,0.0,商,1060417,土地0建物1車位0,十層,41.0,住宅大樓(11層含以上有電梯),見其他登記事項,鋼筋混凝土造,981106.0,47.12,1,1,1,有,有,有,25000,531.0,,0.0,0,,RPXOMLLKNHMFFCA38CC,25.0605292,121.5257605
中山區,建物,臺北市中山區新生北路二段62巷1~30號,0.0,商,1060413,土地0建物1車位0,十二層,19.0,住宅大樓(11層含以上有電梯),住家用,鋼骨鋼筋混凝土造,1050322.0,59.61,2,1,2,有,有,有,50000,839.0,,0.0,0,,RPWPMLLKNHMFFCA38CC,25.0561502,121.5261456
中山區,建物,臺北市中山區新生北路二段68巷1~30號,0.0,商,1060412,土地0建物1車位0,七層,12.0,住宅大樓(11層含以上有電梯),住家用,見其他登記事項,1050602.0,79.15,2,1,1,有,有,有,50000,632.0,,0.0,0,,RPXPMLLKNHMFFCA48CC,25.056545,121.5260897
中山區,建物,臺北市中山區林森北路107巷61~90號,0.0,商,1060418,土地0建物1車位0,五層,7.0,華廈(10層含以下有電梯),見其他登記事項,鋼筋混凝土造,1010210.0,76.27,2,1,1,有,有,有,47000,616.0,,0.0,0,,RPQQMLLKNHMFFCA87CC,25.0499592,121.5271009
內湖區,建物,臺北市內湖區新明路211~240號,0.0,工,1060505,土地0建物1車位0,五層,5.0,廠辦,工業用,鋼筋混凝土造,700702.0,49.59,1,0,0,無,無,無,10500,212.0,,0.0,0,,RPTQMLLKNHMFFCA18CC,25.0583194,121.5880084
大安區,建物,臺北市大安區信義路四段151~180號,0.0,商,1060506,土地0建物1車位0,三層,12.0,住宅大樓(11層含以上有電梯),住家用,鋼筋混凝土造,,83.75,2,2,2,有,有,有,36000,430.0,,0.0,0,,RPWNMLLKNHMFFFA48CC,25.0334437,121.54982
大安區,建物,臺北市大安區敦化南路二段241~270號,0.0,住,1060425,土地0建物1車位0,九層,17.0,住宅大樓(11層含以上有電梯),住家用,鋼筋混凝土造,680517.0,99.79,3,1,1,有,有,無,44000,441.0,,0.0,0,,RPTOMLLKNHMFFFA28CC,25.0256837,121.5492929
中正區,建物,臺北市中正區羅斯福路二段1~30號,0.0,商,1060425,土地0建物1車位1,四層,12.0,住宅大樓(11層含以上有電梯),住家用,鋼筋混凝土造,1020809.0,210.18,0,0,0,無,有,無,75000,357.0,坡道機械,11.26,0,供事務所使用,RPQNMLLKNHMFFAA37CC,25.0296105,121.5208404
士林區,建物,臺北市士林區中山北路五段721~750號,0.0,住,1060511,土地0建物1車位0,二層,13.0,辦公商業大樓,商業用,鋼筋混凝土造,821018.0,371.4,0,0,0,無,有,無,37200,100.0,,0.0,0,親友間租賃,RPQNMLLKNHMFFEA87DC,25.0981527,121.5269616
大同區,建物,臺北市大同區承德路三段151~180號,0.0,商,1060511,土地0建物1車位0,一層,4.0,公寓(5樓含以下無電梯),,鋼筋混凝土造,,76.53,0,1,1,有,無,無,36000,470.0,,0.0,0,,RPWOMLMKNHMFFBA38DC,25.0678665,121.5186184
大同區,建物,臺北市大同區迪化街一段331~360號,0.0,其他,1060426,土地0建物1車位0,二層,10.0,華廈(10層含以下有電梯),住家用,鋼筋混凝土造,1000701.0,124.68,3,2,2,有,有,無,28000,225.0,,0.0,0,,RPOOMLMKNHMFFBA47CC,25.0625579,121.5093696
大同區,建物,臺北市大同區重慶北路二段61~90號,0.0,商,1060427,土地0建物1車位0,四層,12.0,辦公商業大樓,商業用,鋼筋混凝土造,720131.0,153.71,0,0,0,無,有,無,38000,247.0,,0.0,0,,RPTOMLMKNHMFFBA97CC,25.0556303,121.5142514
大同區,建物,臺北市大同區市民大道一段181~210號,0.0,其他,1060416,土地0建物1車位0,十七層,18.0,住宅大樓(11層含以上有電梯),住家用,見其他登記事項,980724.0,78.02,1,1,1,有,有,有,55000,705.0,,0.0,0,,RPVOMLMKNHMFFBA18CC,25.048493,121.5187377
萬華區,房地(土地+建物),臺北市萬華區內江街121~150號,17.41,住,1060429,土地1建物1車位0,三層,18.0,住宅大樓(11層含以上有電梯),住家用,鋼筋混凝土造,1040210.0,81.95,2,2,1,有,無,有,25000,305.0,,0.0,0,,RPOPMLMKNHMFFBA57CC,25.041918,121.500497
大同區,建物,臺北市大同區太原路61~90號,0.0,商,1060417,土地0建物1車位0,十層,14.0,住宅大樓(11層含以上有電梯),住家用,鋼筋混凝土造,971211.0,68.85,1,1,1,有,有,有,25800,375.0,,0.0,0,,RPPPMLMKNHMFFBA67CC,25.0513873,121.5155936
大安區,建物,臺北市大安區仁愛路四段391~420號,0.0,商,1060426,土地0建物3車位0,一層,14.0,住宅大樓(11層含以上有電梯),住家用,鋼筋混凝土造,,401.03,5,2,3,有,有,無,200000,499.0,,0.0,0,,RPTNMLMKNHMFFFA28CC,25.0375086,121.5565627
大安區,建物,臺北市大安區和平東路二段107巷11弄1~30號,0.0,住,1060427,土地0建物1車位0,四層,4.0,公寓(5樓含以下無電梯),住家用,鋼筋混凝土造,,81.48,2,1,1,有,無,無,23500,288.0,,0.0,0,,RPROMLMKNHMFFFA18CC,25.0259705,121.5405026
大安區,建物,臺北市大安區敦化南路二段200巷1~30號,45.92,其他,1060504,土地0建物1車位0,三層,10.0,華廈(10層含以下有電梯),住家用,鋼筋混凝土造,780322.0,197.98,0,0,0,無,有,無,57000,288.0,,0.0,0,,RPXOMLMKNHMFFFA78CC,25.0231678,121.5479054
大安區,建物,臺北市大安區仁愛路四段391~420號,17.19,其他,1060424,土地0建物1車位0,一層,14.0,住宅大樓(11層含以上有電梯),商業用,鋼筋混凝土造,,143.87,0,0,0,無,有,有,140000,973.0,,0.0,0,,RPOPMLMKNHMFFFA97CC,25.0375086,121.5565627
大安區,建物,臺北市大安區大安路二段91~120號,30.26,住,1060511,土地0建物1車位0,六層,7.0,華廈(10層含以下有電梯),住家用,鋼筋混凝土造,741210.0,138.51,3,2,2,有,有,有,42000,303.0,,0.0,0,租金含車位,RPTPMLMKNHMFFFA48CC,25.0293965,121.5461797
內湖區,土地,石潭段四小段331~360地號,688.17,住,1060427,土地1建物0車位0,,,其他,,,,0.0,0,0,0,有,無,無,70000,102.0,,0.0,0,,RPQNMLMKNHMFFCA67CC,0.0,0.0
中山區,建物,臺北市中山區民權東路二段121~150號,0.0,商,1060426,土地0建物0車位0,全,3.0,透天厝,,加強磚造,,166.44,0,0,0,無,無,無,62000,373.0,,0.0,0,,RPXNMLMKNHMFFCA38CC,25.0626361,121.5345646
中山區,建物,臺北市中山區新生北路二段62巷1~30號,0.0,商,1060420,土地0建物1車位0,十四層,19.0,住宅大樓(11層含以上有電梯),住家用,鋼骨鋼筋混凝土造,1050322.0,191.72,4,1,2,有,有,有,86000,449.0,,0.0,0,,RPQPMLMKNHMFFCA87CC,25.0561502,121.5261456
內湖區,建物,臺北市內湖區東湖路113巷70弄1~30號,14.08,商,1060508,土地0建物1車位0,地下層,6.0,華廈(10層含以下有電梯),商業用,鋼筋混凝土造,830914.0,60.52,0,0,0,無,無,有,20000,330.0,,0.0,0,,RPRPMLMKNHMFFCA97CC,25.0714717,121.6159259
內湖區,建物,臺北市內湖區內湖路一段631~660號,0.0,其他,1060415,土地0建物1車位0,八層,18.0,住宅大樓(11層含以上有電梯),住家用,見其他登記事項,991123.0,109.63,3,1,2,有,有,有,51000,465.0,,0.0,0,,RPSPMLMKNHMFFCA08CC,25.0805252,121.5745997
中山區,建物,臺北市中山區林森北路571~600號,0.0,商,1060420,土地0建物1車位1,十一層,13.0,住宅大樓(11層含以上有電梯),住家用,鋼筋混凝土造,1000726.0,128.94,2,2,1,有,有,有,65000,504.0,坡道平面,0.0,0,,RPTPMLMKNHMFFCA18CC,25.0649087,121.5256777
中山區,建物,臺北市中山區中山北路二段77巷1~30號,0.0,商,1060417,土地0建物1車位0,十二層,12.0,住宅大樓(11層含以上有電梯),住家用,鋼筋混凝土造,981027.0,113.62,3,1,1,有,有,有,50000,440.0,,0.0,0,,RPVPMLMKNHMFFCA38CC,25.0576603,121.5230347
中山區,建物,臺北市中山區農安街1~30號,0.0,商,1060417,土地0建物1車位0,十四層,14.0,住宅大樓(11層含以上有電梯),住家用,鋼筋混凝土造,980622.0,56.38,1,1,1,有,有,有,35000,621.0,,0.0,0,,RPXPMLMKNHMFFCA58CC,25.065211,121.5293055
中山區,建物,臺北市中山區中山北路二段115巷1~30號,0.0,商,1060417,土地0建物1車位0,七層,17.0,住宅大樓(11層含以上有電梯),商業用,鋼筋混凝土造,791019.0,123.33,3,1,2,有,有,有,47495,385.0,,0.0,0,,RPOQMLMKNHMFFCA77CC,25.0609764,121.523467
士林區,建物,臺北市士林區重慶北路四段151~180號,0.0,住,1060418,土地0建物0車位0,全,4.0,透天厝,住商用,鋼筋混凝土造,581227.0,77.83,0,0,0,無,無,無,19000,244.0,,0.0,0,供辦公室使用,RPSNMLMKNHMFFEA08CC,25.083284,121.511847
士林區,建物,臺北市士林區忠誠路一段100巷15弄1~30號,0.0,住,1060425,土地0建物1車位0,七層,15.0,住宅大樓(11層含以上有電梯),住家用,鋼筋混凝土造,770711.0,123.74,3,2,2,有,有,無,32000,259.0,,0.0,0,,RPUNMLMKNHMFFEA28CC,25.1058466,121.5280379
士林區,建物,臺北市士林區忠義街121~150號,0.0,商,1060413,土地0建物1車位1,八層,15.0,住宅大樓(11層含以上有電梯),住家用,鋼筋混凝土造,800514.0,186.81,4,2,2,有,有,有,67000,359.0,坡道平面,0.0,0,,RPROMLMKNHMFFEA08CC,25.1076796,121.5327971
北投區,建物,臺北市北投區懷德街75巷31~60號,0.0,住,1060414,土地0建物1車位0,十一層,13.0,住宅大樓(11層含以上有電梯),住家用,鋼筋混凝土造,1000608.0,177.06,2,2,2,有,有,有,69000,390.0,,0.0,0,,RPVOMLMKNHMFFEA48CC,25.1135088,121.5189391
士林區,建物,臺北市士林區中山北路六段157巷1~30號,0.0,工,1060420,土地0建物1車位0,八層,15.0,住宅大樓(11層含以上有電梯),見其他登記事項,鋼筋混凝土造,971002.0,102.87,2,1,1,有,有,有,63000,612.0,,0.0,0,,RPQPMLMKNHMFFEA08CC,25.1067274,121.5247651
松山區,建物,臺北市松山區八德路二段391~420號,0.0,商,1060429,土地0建物1車位0,八層,13.0,住宅大樓(11層含以上有電梯),見其他登記事項,鋼筋混凝土造,950823.0,39.45,1,1,1,有,有,有,25000,634.0,,0.0,0,,RPXNMLMKNHMFFDA48CC,25.0483677,121.5462852
信義區,建物,臺北市信義區松德路151~180號,9.16,住,1060421,土地0建物1車位0,十二層,21.0,辦公商業大樓,見使用執照,鋼骨混凝土造,841212.0,155.04,1,1,1,有,有,有,76200,491.0,,0.0,0,,RPOOMLMKNHMFFDA67CC,25.036644,121.574876
信義區,建物,臺北市信義區松勤街1~30號,0.0,其他,1060413,土地0建物1車位0,十五層,19.0,住宅大樓(11層含以上有電梯),住家用,見其他登記事項,961225.0,98.39,1,1,1,有,有,有,65534,666.0,,0.0,0,,RPPOMLMKNHMFFDA77CC,25.0322281,121.5604846
松山區,建物,臺北市松山區延吉街31~60號,0.0,,1060506,土地0建物1車位0,一層,7.0,華廈(10層含以下有電梯),見其他登記事項,鋼筋混凝土造,970917.0,82.35,0,0,0,無,有,有,50000,607.0,,0.0,0,,RPRNMLNKNHMFFDA97CC,25.0458434,121.5537132
士林區,建物,臺北市士林區雨聲街58巷1~30號,0.0,住,1060429,土地0建物1車位0,二層,7.0,華廈(10層含以下有電梯),住家用,鋼筋混凝土造,730907.0,141.58,4,2,2,有,無,有,33000,233.0,,0.0,0,,RPPNMLNKNHMFFEA87CC,25.1031521,121.5289126
北投區,建物,臺北市北投區石牌路二段315巷34弄1~30號,0.0,住,1060507,土地0建物1車位0,十四層,14.0,住宅大樓(11層含以上有電梯),住家用,鋼筋混凝土造,1040804.0,132.18,3,2,2,有,有,有,33000,250.0,,0.0,0,,RPQNMLNKNHMFFEA97CC,25.1238688,121.5222642
文山區,建物,臺北市文山區車前路1~30號,0.0,商,1060512,土地0建物1車位1,十六層,33.0,住宅大樓(11層含以上有電梯),住家用,鋼骨鋼筋混凝土造,1040427.0,215.26,4,2,2,有,有,有,50526,235.0,坡道平面,0.0,0,,RPQNMLOKNHMFFAA67CC,24.991249,121.541157
中正區,建物,臺北市中正區羅斯福路一段61~90號,0.0,商,1060505,土地0建物1車位0,四層,12.0,辦公商業大樓,見使用執照,鋼筋混凝土造,740408.0,229.05,4,2,2,有,有,有,50000,218.0,,0.0,0,民國106年5月5日至106年7月4日為免租裝潢期。租金含營業稅。,RPPNMLPKNHMFFAA77DC,25.0316586,121.5193834
中山區,房地(土地+建物),臺北市中山區林森北路138巷1~30號,19.5,商,1060511,土地1建物1車位0,三層,4.0,公寓(5樓含以下無電梯),,加強磚造,,70.35,2,1,1,有,無,無,25000,355.0,,0.0,0,,RPXOMLPKNHMFFCA88DC,25.0515148,121.5250155
士林區,建物,臺北市士林區延平北路五段163巷26弄31~60號,0.0,住,1060512,土地0建物1車位0,全,2.0,透天厝,住家用,磚造,511001.0,58.83,2,1,1,有,無,無,15000,255.0,,0.0,0,,RPOOMLPKNHMFFEA18DC,25.0833186,121.509021
士林區,建物,臺北市士林區至善路二段421~450號,0.0,住,1060510,土地0建物1車位0,一層,3.0,公寓(5樓含以下無電梯),住家用,加強磚造,600317.0,52.61,1,1,1,有,無,無,18000,342.0,,0.0,0,,RPPOMLPKNHMFFEA28DC,25.1077038,121.5574408
士林區,土地,溪洲段二小段331~360地號,525.37,住,1060514,土地1建物0車位0,,,其他,,,,0.0,0,0,0,有,無,無,58000,110.0,,0.0,0,含地上鐵皮屋一間約100坪,RPROMLPKNHMFFEA48DC,0.0,0.0
士林區,建物,臺北市士林區重慶北路四段220巷31~60號,0.0,其他,1060507,土地0建物2車位0,一層,4.0,公寓(5樓含以下無電梯),住家用,加強磚造,580709.0,140.14,3,2,2,有,無,無,35000,250.0,,0.0,0,建物二間打通使用,RPUOMLPKNHMFFEA78DC,25.0859292,121.5120031
士林區,建物,臺北市士林區重慶北路四段121~150號,0.0,住,1060515,土地0建物1車位0,三層,4.0,公寓(5樓含以下無電梯),住家用,鋼筋混凝土造,591103.0,98.93,4,1,1,有,無,無,13000,131.0,,0.0,0,,RPXOMLPKNHMFFEA09DC,25.0830208,121.5124459
大同區,建物,臺北市大同區五原路1~30號,0.0,商,1060430,土地0建物1車位0,六層,14.0,住宅大樓(11層含以上有電梯),住家用,鋼筋混凝土造,981216.0,78.64,2,1,1,有,有,有,42500,540.0,,0.0,0,,RPQNMLPKNHMFFBA87CC,25.0566201,121.5176173
萬華區,建物,臺北市萬華區西寧南路121~150號,0.0,商,1060427,土地0建物1車位0,九層,27.0,住宅大樓(11層含以上有電梯),住家用,見其他登記事項,1010320.0,182.45,4,2,2,有,有,有,70200,385.0,,0.0,0,,RPSNMLPKNHMFFBA08CC,25.044641,121.506596
大同區,建物,臺北市大同區赤峰街31~60號,0.0,住,1060501,土地0建物1車位0,九層,13.0,住宅大樓(11層含以上有電梯),住家用,鋼筋混凝土造,1020829.0,206.07,3,2,2,有,有,有,85000,412.0,,0.0,0,租金含第四台、網路、IP電視及清潔費用。,RPXNMLPKNHMFFBA58CC,25.0541979,121.5194
大安區,建物,臺北市大安區復興南路一段121~150號,0.0,商,1060428,土地0建物1車位0,五層,16.0,住宅大樓(11層含以上有電梯),見使用執照,鋼筋混凝土造,771115.0,179.73,3,1,2,有,有,有,72000,401.0,,0.0,0,,RPQNMLPKNHMFFFA28CC,25.0434198,121.5440402
大安區,建物,臺北市大安區復興南路二段1~30號,841.0,商,1060417,土地0建物1車位0,一層,11.0,店面(店鋪),商業用,鋼筋混凝土造,840907.0,330.88,0,0,0,無,有,無,280000,846.0,,0.0,0,,RPOOMLPKNHMFFFA18CC,25.0266083,121.5438961
大安區,建物,臺北市大安區仁愛路四段112巷3弄1~30號,0.0,商,1060418,土地0建物1車位0,五層,7.0,華廈(10層含以下有電梯),住家用,鋼筋混凝土造,720121.0,130.51,2,2,1,有,無,有,65000,498.0,,0.0,0,租金內含管理費。,RPPOMLPKNHMFFFA28CC,25.0370195,121.5494679
北投區,建物,臺北市北投區石牌路二段301~330號,0.0,住,1060428,土地0建物1車位0,三層,14.0,住宅大樓(11層含以上有電梯),見其他登記事項,鋼骨鋼筋混凝土造,930712.0,135.81,3,2,2,有,有,有,72000,530.0,,0.0,0,,RPTNMLPKNHMFFEA48CC,25.121407,121.52279
士林區,建物,臺北市士林區忠誠路一段100巷1~30號,0.0,,1060415,土地0建物1車位0,一層,5.0,公寓(5樓含以下無電梯),住家用,鋼筋混凝土造,751103.0,97.0,3,1,2,有,無,有,25000,258.0,,0.0,0,,RPUNMLPKNHMFFEA58CC,25.1058466,121.5280379
士林區,建物,臺北市士林區文林路681巷31~60號,0.0,,1060415,土地0建物1車位0,全,2.0,透天厝,住家用,加強磚造,561020.0,42.5,1,1,1,有,無,無,16500,388.0,,0.0,0,,RPWNMLPKNHMFFEA78CC,25.1006647,121.5212778
士林區,房地(土地+建物),臺北市士林區葫蘆街121~150號,0.0,住,1060503,土地1建物1車位0,七層,7.0,華廈(10層含以下有電梯),住家用,鋼筋混凝土造,860127.0,125.46,3,2,2,有,無,有,26000,207.0,,0.0,0,,RPSOMLPKNHMFFEA48CC,25.0831279,121.5077748
信義區,建物,臺北市信義區永吉路30巷121~150號,0.0,住,1060427,土地0建物1車位0,三層,7.0,華廈(10層含以下有電梯),住家用,鋼筋混凝土造,961231.0,113.5,2,1,1,有,有,有,37000,326.0,,0.0,0,,RPRNMLPKNHMFFDA18CC,25.0429464,121.5688672
松山區,建物,臺北市松山區八德路二段437巷6弄1~30號,0.0,住,1060504,土地0建物1車位0,十二層,12.0,住宅大樓(11層含以上有電梯),住家用,鋼骨鋼筋混凝土造,911030.0,179.0,3,2,2,有,有,有,73231,409.0,,0.0,0,,RPTNMLPKNHMFFDA38CC,25.0491393,121.546946
中山區,建物,臺北市中山區林森北路571~600號,0.0,商,1060424,土地0建物1車位0,十三層,13.0,住宅大樓(11層含以上有電梯),住家用,鋼筋混凝土造,1000726.0,124.03,2,1,1,有,有,有,60000,484.0,,0.0,0,,RPPNMLPKNHMFFCA87CC,25.0649087,121.5256777
中山區,建物,臺北市中山區建國北路一段31~60號,0.0,商,1060428,土地0建物1車位0,七層,15.0,住宅大樓(11層含以上有電梯),住家用,鋼筋混凝土造,960913.0,121.82,2,1,1,有,有,有,50000,410.0,,0.0,0,,RPTNMLPKNHMFFCA28CC,25.0478385,121.5393649
中山區,建物,臺北市中山區建國北路一段124巷1~30號,0.0,住,1060503,土地0建物1車位0,三層,16.0,住宅大樓(11層含以上有電梯),住家用,鋼筋混凝土造,850727.0,149.43,3,2,2,有,有,有,57000,381.0,,0.0,0,,RPUNMLPKNHMFFCA38CC,25.0508949,121.5356076
中山區,建物,臺北市中山區中山北路二段151~180號,0.0,商,1060428,土地0建物1車位0,五層,14.0,住宅大樓(11層含以上有電梯),住家用,鋼骨鋼筋混凝土造,951129.0,62.77,1,1,1,有,有,有,40000,637.0,,0.0,0,,RPWNMLPKNHMFFCA58CC,25.0620063,121.5229569
中山區,建物,臺北市中山區中山北路二段151~180號,0.0,商,1060429,土地0建物1車位0,七層,14.0,住宅大樓(11層含以上有電梯),住家用,鋼骨鋼筋混凝土造,951129.0,45.25,1,1,1,有,有,有,29000,641.0,,0.0,0,,RPXNMLPKNHMFFCA68CC,25.0620063,121.5229569
中山區,建物,臺北市中山區林森北路301~330號,0.0,商,1060430,土地0建物1車位0,十層,15.0,住宅大樓(11層含以上有電梯),住家用,見其他登記事項,990409.0,75.49,1,1,1,有,有,有,30000,397.0,,0.0,0,,RPOOMLPKNHMFFCA87CC,25.055793,121.525628
中山區,建物,臺北市中山區撫順街1~30號,0.0,商,1060428,土地0建物1車位0,三層,15.0,住宅大樓(11層含以上有電梯),住家用,鋼筋混凝土造,1000630.0,112.71,2,1,1,有,有,有,52529,466.0,,0.0,0,,RPROMLPKNHMFFCA18CC,25.0635339,121.520902
中山區,建物,臺北市中山區林森北路571~600號,0.0,商,1060502,土地0建物1車位0,十層,13.0,住宅大樓(11層含以上有電梯),住家用,鋼筋混凝土造,1000726.0,92.02,2,1,1,有,有,有,55000,598.0,,0.0,0,,RPTOMLPKNHMFFCA38CC,25.0649087,121.5256777
內湖區,建物,臺北市內湖區內湖路一段411巷62弄1~30號,0.0,住,1060428,土地0建物1車位1,四層,14.0,住宅大樓(11層含以上有電梯),住家用,鋼筋混凝土造,970331.0,123.99,3,2,2,有,有,無,44000,355.0,坡道平面,0.0,0,,RPVOMLPKNHMFFCA58CC,25.0864375,121.5573647
中山區,建物,臺北市中山區天祥路61~90號,0.0,商,1060428,土地0建物1車位0,十層,14.0,住宅大樓(11層含以上有電梯),住家用,鋼筋混凝土造,931203.0,66.1,2,1,1,有,有,有,35000,530.0,,0.0,0,,RPWOMLPKNHMFFCA68CC,25.0634041,121.5208454
中山區,建物,臺北市中山區南京東路一段31~60號,0.0,商,1060510,土地0建物1車位0,八層,11.0,辦公商業大樓,商業用,鋼筋混凝土造,610607.0,267.74,0,0,0,無,有,無,100000,373.0,,0.0,0,租賃面積為部份約81坪(含公設),RPVPMLPKNHMFFCA68CC,25.0521826,121.5264417
中山區,建物,臺北市中山區復興北路421~450號,0.0,住,1060502,土地0建物1車位0,二層,12.0,住宅大樓(11層含以上有電梯),住家用,鋼筋混凝土造,971015.0,40.86,1,1,1,有,無,有,19866,486.0,,0.0,0,,RPTQMLPKNHMFFCA58CC,25.063083,121.5444532
內湖區,建物,臺北市內湖區麗山街348巷10弄1~30號,0.0,住,1060505,土地0建物1車位0,一層,5.0,公寓(5樓含以下無電梯),住家用,鋼筋混凝土造,701219.0,162.62,0,0,0,無,無,無,33333,205.0,,0.0,0,,RPUQMLPKNHMFFCA68CC,25.0822257,121.573687
中山區,建物,臺北市中山區中山北路一段53巷1~30號,0.0,商,1060501,土地0建物1車位0,八層,10.0,華廈(10層含以下有電梯),住家用,鋼筋混凝土造,971030.0,106.53,1,2,1,有,有,有,65000,610.0,,0.0,0,租金含管理費、網路及IP電視費用。,RPPNMLQKNHMFFCA97CC,25.0492864,121.5218992
中山區,建物,臺北市中山區建國北路二段1~30號,0.0,住,1060506,土地0建物1車位0,四層,14.0,住宅大樓(11層含以上有電梯),商業用,鋼筋混凝土造,950713.0,72.75,1,2,1,有,有,有,35000,481.0,,0.0,0,租金含管理費。,RPVNMLQKNHMFFCA58CC,25.0523809,121.5371887
中山區,建物,臺北市中山區長春路151~180號,0.0,商,1060419,土地0建物1車位0,四層,14.0,住宅大樓(11層含以上有電梯),住家用,鋼筋混凝土造,961127.0,198.94,3,2,2,有,有,有,65575,330.0,,0.0,0,,RPOOMLQKNHMFFCA97CC,25.0548153,121.5331665
中山區,建物,臺北市中山區龍江路370巷31~60號,0.0,商,1060430,土地0建物1車位0,二層,5.0,公寓(5樓含以下無電梯),住家用,鋼筋混凝土造,711214.0,92.83,3,2,2,有,無,有,25000,269.0,,0.0,0,,RPPOMLQKNHMFFCA08CC,25.0665249,121.539285
中山區,建物,臺北市中山區中山北路二段151~180號,0.0,商,1060505,土地0建物1車位0,六層,14.0,住宅大樓(11層含以上有電梯),住家用,鋼骨鋼筋混凝土造,951129.0,64.88,1,1,1,有,有,有,40000,617.0,,0.0,0,,RPSOMLQKNHMFFCA38CC,25.0620063,121.5229569
中山區,建物,臺北市中山區林森北路571~600號,0.0,商,1060503,土地0建物1車位0,三層,13.0,住宅大樓(11層含以上有電梯),住家用,鋼筋混凝土造,1000726.0,89.64,1,1,1,有,有,有,57000,636.0,,0.0,0,,RPTOMLQKNHMFFCA48CC,25.0649087,121.5256777
中山區,建物,臺北市中山區中山北路二段77巷1~30號,0.0,商,1060515,土地0建物1車位1,十層,14.0,住宅大樓(11層含以上有電梯),商業用,鋼筋混凝土造,901112.0,105.42,3,1,1,有,有,有,40000,379.0,坡道平面,26.24,0,,RPVOMLQKNHMFFCA68CC,25.0576603,121.5230347
中山區,建物,臺北市中山區中山北路二段77巷1~30號,0.0,商,1060515,土地0建物1車位0,六層,12.0,住宅大樓(11層含以上有電梯),住家用,鋼筋混凝土造,981027.0,84.44,2,1,1,有,有,有,46000,545.0,,0.0,0,,RPWOMLQKNHMFFCA78CC,25.0576603,121.5230347
中山區,建物,臺北市中山區新生北路二段31~60號,0.0,商,1060504,土地0建物1車位0,十五層,17.0,住宅大樓(11層含以上有電梯),住家用,鋼筋混凝土造,850718.0,66.28,2,2,1,有,有,有,36000,543.0,,0.0,0,,RPXOMLQKNHMFFCA88CC,25.0542013,121.5278274
中山區,建物,臺北市中山區民生東路二段1~30號,0.0,商,1060419,土地0建物1車位0,九層,14.0,住宅大樓(11層含以上有電梯),見其他登記事項,鋼筋混凝土造,1021112.0,152.79,2,2,2,有,有,有,72850,477.0,,0.0,0,,RPPPMLQKNHMFFCA18CC,25.0581515,121.5278737
內湖區,房地(土地+建物),臺北市內湖區內湖路一段91巷1~30號,83.64,住,1060515,土地1建物1車位0,一層,5.0,公寓(5樓含以下無電梯),住家用,鋼筋混凝土造,730319.0,94.45,3,1,2,有,無,有,27000,286.0,,0.0,0,,RPSPMLQKNHMFFCA48CC,25.0846722,121.5609399
中山區,建物,臺北市中山區中山北路二段151~180號,0.0,商,1060421,土地0建物1車位0,四層,14.0,套房(1房1廳1衛),住家用,鋼骨鋼筋混凝土造,951129.0,41.45,1,1,1,有,有,有,30000,724.0,,0.0,0,,RPUPMLQKNHMFFCA68CC,25.0620063,121.5229569
內湖區,建物,臺北市內湖區成功路五段391~420號,0.0,住,1060426,土地0建物1車位0,一層,19.0,店面(店鋪),商業用,鋼筋混凝土造,891016.0,85.72,0,2,1,有,有,無,45000,525.0,,0.0,0,,RPQQMLQKNHMFFCA38CC,25.0755019,121.6072634
中山區,建物,臺北市中山區錦西街1~30號,0.0,商,1060424,土地0建物1車位0,六層,14.0,住宅大樓(11層含以上有電梯),住家用,鋼筋混凝土造,1010924.0,213.4,3,2,2,有,有,有,88000,412.0,,0.0,0,,RPRQMLQKNHMFFCA48CC,25.0604041,121.5221143
中山區,建物,臺北市中山區建國北路二段3巷1~30號,0.0,住,1060510,土地0建物1車位0,二層,9.0,華廈(10層含以下有電梯),商業用,鋼筋混凝土造,811217.0,82.4,1,1,1,有,有,有,28000,340.0,,0.0,0,,RPSQMLQKNHMFFCA58CC,25.0526041,121.5372001
內湖區,建物,臺北市內湖區金湖路155巷1~30號,0.0,住,1060506,土地0建物1車位0,三層,6.0,華廈(10層含以下有電梯),住家用,鋼筋混凝土造,1020221.0,93.81,3,2,2,有,無,有,26000,277.0,,0.0,0,,RPTQMLQKNHMFFCA68CC,25.0838795,121.5950595
內湖區,建物,臺北市內湖區臺北市內湖區民權東路六段151~180號,0.0,商,1060405,土地0建物1車位0,一層,14.0,店面(店鋪),商業用,鋼筋混凝土造,810629.0,336.67,0,0,0,無,無,無,100000,297.0,,0.0,0,,RPUQMLQKNHMFFCA78CC,25.0678553,121.592905
內湖區,建物,臺北市內湖區臺北市瑞光路391~420號,0.0,工,1060512,土地0建物1車位0,見其他登記事項,13.0,店面(店鋪),商業用,鋼筋混凝土造,920821.0,391.93,0,0,0,無,有,無,199500,509.0,,0.0,0,房租含稅,RPVQMLQKNHMFFCA88CC,25.0773603,121.5728029
內湖區,建物,臺北市內湖區臺北市內湖區民權東路六段232巷1~30號,0.0,住,1060405,土地0建物1車位0,二層,4.0,公寓(5樓含以下無電梯),住家用,鋼筋混凝土造,940221.0,35.34,1,1,1,有,無,有,20000,566.0,,0.0,0,,RPXQMLQKNHMFFCA09CC,25.0684672,121.5958946
內湖區,建物,臺北市內湖區瑞光路112巷58弄1~30號,0.0,住,1060511,土地0建物1車位2,全,4.0,透天厝,住家用,鋼筋混凝土造,870731.0,255.02,5,2,4,有,有,有,60000,235.0,坡道平面,0.0,0,,RPPRMLQKNHMFFCA38CC,25.071814,121.580692
中山區,建物,臺北市中山區堤頂大道二段481~510號,0.0,其他,1060511,土地0建物1車位0,九層,10.0,華廈(10層含以下有電梯),商業用,鋼筋混凝土造,991201.0,115.84,1,1,1,有,有,有,60000,518.0,,0.0,0,續約,RPQRMLQKNHMFFCA48CC,25.082885,121.5618128
中山區,建物,臺北市中山區農安街1~30號,0.0,商,1060515,土地0建物2車位0,五層,14.0,住宅大樓(11層含以上有電梯),商業用,鋼筋混凝土造,980622.0,106.86,2,2,1,有,有,有,40000,374.0,,0.0,0,,RPRRMLQKNHMFFCA58CC,25.065211,121.5293055
南港區,建物,臺北市南港區經貿二路235巷1~30號,0.0,住,1060429,土地0建物1車位1,十層,10.0,華廈(10層含以下有電梯),住家用,鋼筋混凝土造,1031002.0,96.13,3,2,2,有,有,有,34000,354.0,坡道機械,12.5,0,,RPVNMLQKNHMFFDA68CC,25.0560908,121.61759
信義區,建物,臺北市信義區基隆路二段151~180號,0.0,商,1060505,土地0建物1車位0,三層,15.0,住宅大樓(11層含以上有電梯),住家用,鋼筋混凝土造,990901.0,130.91,2,1,1,有,有,有,65700,502.0,,0.0,0,,RPWNMLQKNHMFFDA78CC,25.0260187,121.5546122
松山區,建物,臺北市松山區民權東路五段1~30號,0.0,住,1060509,土地0建物1車位0,一層,4.0,公寓(5樓含以下無電梯),住家用,鋼筋混凝土造,630725.0,50.89,0,0,0,無,無,無,32000,629.0,,0.0,0,(只承租一樓左半部),RPWOMLQKNHMFFDA88CC,25.0631782,121.5642857
松山區,建物,臺北市松山區民權東路五段1~30號,0.0,住,1060503,土地0建物1車位0,一層,4.0,公寓(5樓含以下無電梯),住家用,鋼筋混凝土造,630725.0,46.28,0,0,0,無,無,無,26000,562.0,,0.0,0,(只承租一樓右半部),RPXOMLQKNHMFFDA98CC,25.0631782,121.5642857
南港區,建物,臺北市松山區研究院路二段98巷1~30號,0.0,住,1060512,土地0建物1車位0,五層,11.0,住宅大樓(11層含以上有電梯),住家用,鋼筋混凝土造,1020808.0,195.97,4,2,2,有,有,有,43000,219.0,,0.0,0,租金內含管理費5335元,RPPPMLQKNHMFFDA28CC,25.0441638,121.6158172
信義區,建物,臺北市信義區虎林街132巷31~60號,175.84,商,1060418,土地0建物1車位0,一層,4.0,店面(店鋪),住家用,鋼筋混凝土造,,87.92,0,0,0,無,無,無,45000,512.0,,0.0,0,,RPSPMLQKNHMFFDA58CC,25.040205,121.575712
北投區,建物,臺北市北投區光明路1~30號,0.0,商,1060501,土地0建物1車位1,十四層,29.0,住宅大樓(11層含以上有電梯),住家用,鋼骨鋼筋混凝土造,961119.0,178.77,3,2,2,有,有,有,45000,252.0,坡道平面,23.99,0,,RPVNMLQKNHMFFEA78CC,25.131841,121.498633
北投區,建物,臺北市北投區西安街二段241~270號,0.0,住,1060430,土地0建物1車位0,三層,7.0,套房(1房1廳1衛),住家用,鋼筋混凝土造,981123.0,25.0,1,1,1,有,有,無,15000,600.0,,0.0,0,,RPXOMLQKNHMFFEA09CC,25.1200908,121.5083637
北投區,建物,臺北市北投區行義路10巷9弄1~30號,0.0,住,1060502,土地0建物1車位0,七層,10.0,華廈(10層含以下有電梯),住家用,鋼筋混凝土造,960112.0,210.05,4,1,2,有,有,有,65000,309.0,,0.0,0,,RPOPMLQKNHMFFEA28CC,25.1306613,121.5296801
士林區,建物,臺北市士林區芝玉路一段211~240號,0.0,住,1060511,土地0建物1車位0,十七層,18.0,住宅大樓(11層含以上有電梯),住家用,鋼骨鋼筋混凝土造,971112.0,140.49,3,2,2,有,有,有,74000,527.0,,0.0,0,,RPQPMLQKNHMFFEA48CC,25.108991,121.5337653
北投區,建物,臺北市北投區大度路三段270巷61~90號,0.0,其他,1060411,土地0建物0車位1,一層,19.0,店面(店鋪),見其他登記事項,鋼筋混凝土造,1010217.0,125.56,0,0,0,無,有,無,78000,621.0,坡道平面,36.54,0,,RPTPMLQKNHMFFEA78CC,25.125002,121.467373
士林區,建物,臺北市士林區天玉街38巷16弄1~30號,0.0,住,1060426,土地0建物0車位0,一層,5.0,公寓(5樓含以下無電梯),住家用,鋼筋混凝土造,701030.0,72.67,2,1,1,有,無,無,30000,413.0,,0.0,0,含稅金額為＄34056元,RPOQMLQKNHMFFEA38CC,25.1203387,121.5294845
大安區,建物,臺北市大安區潮州街151~180號,0.0,商,1060506,土地0建物1車位0,四層,7.0,華廈(10層含以下有電梯),住家用,鋼筋混凝土造,960720.0,155.15,3,2,1,有,有,有,60000,387.0,,0.0,0,,RPPNMLQKNHMFFFA28CC,25.028294,121.53043
大安區,建物,臺北市大安區大安路一段19巷1~30號,0.0,住,1060516,土地0建物1車位0,一層,7.0,店面(店鋪),住家用,鋼筋混凝土造,650925.0,125.51,0,0,0,無,無,無,180000,1434.0,,0.0,0,第一年租金180000(含稅)第二年租金190000(含稅)第三年租金200000(含稅)第四年租金210000(含稅)第五年租金220000(含稅)第六年租金230000(含稅),RPQNMLQKNHMFFFA38CC,25.0444184,121.5463198
大安區,建物,臺北市大安區信義路四段121~150號,0.0,其他,1060509,土地0建物1車位0,六層,12.0,住宅大樓(11層含以上有電梯),商業用,鋼筋混凝土造,691124.0,140.61,1,1,1,有,有,有,27000,192.0,,0.0,0,,RPTNMLQKNHMFFFA68CC,25.0335589,121.5440779
大安區,建物,臺北市大安區延吉街126巷1~30號,0.0,住,1060510,土地0建物1車位0,五層,7.0,華廈(10層含以下有電梯),住家用,鋼筋混凝土造,651126.0,62.04,1,1,1,有,有,有,29750,480.0,,0.0,0,,RPUNMLQKNHMFFFA78CC,25.040425,121.5545142
大安區,建物,臺北市大安區安和路二段61~90號,0.0,住,1060516,土地0建物1車位0,九層,25.0,住宅大樓(11層含以上有電梯),住家用,鋼筋混凝土造,780810.0,227.7,3,2,2,有,有,有,75000,329.0,,0.0,0,,RPVNMLQKNHMFFFA88CC,25.0307687,121.5525742
萬華區,建物,臺北市萬華區西園路二段320巷36弄1~30號,0.0,住,1060515,土地0建物1車位0,五層,5.0,公寓(5樓含以下無電梯),住家用,鋼筋混凝土造,601012.0,33.12,1,1,1,有,無,有,10000,302.0,,0.0,0,,RPPNMLQKNHMFFBA87CC,25.0263725,121.4922894
大同區,建物,臺北市大同區市民大道一段181~210號,0.0,其他,1060507,土地0建物1車位0,八層,18.0,套房(1房1廳1衛),住家用,見其他登記事項,980724.0,40.78,1,1,1,有,有,有,28000,687.0,,0.0,0,含管理費,RPVOMLQKNHMFFBA58CC,25.048493,121.5187377
萬華區,建物,臺北市萬華區東園街28巷1~30號,0.0,,1060407,土地0建物1車位0,地下層,5.0,公寓(5樓含以下無電梯),見使用執照,鋼筋混凝土造,740225.0,548.68,0,0,0,無,無,無,70000,128.0,,0.0,0,,RPXOMLQKNHMFFBA78CC,25.026999,121.49555
大同區,建物,臺北市大同區民生西路181~210號,0.0,商,1060509,土地0建物1車位0,十二層,13.0,住宅大樓(11層含以上有電梯),住家用,鋼筋混凝土造,990401.0,113.97,2,2,2,有,有,有,43000,377.0,,0.0,0,,RPOPMLQKNHMFFBA97CC,25.0573119,121.516932
大同區,建物,臺北市大同區承德路一段31~60號,0.0,商,1060508,土地0建物1車位0,七層,12.0,辦公商業大樓,商業用,鋼筋混凝土造,781109.0,190.83,0,0,0,無,有,無,68000,356.0,升降機械,0.0,0,,RPTPMLQKNHMFFBA48CC,25.050939,121.517386
萬華區,房地(土地+建物),臺北市萬華區西園路二段156/151~180號,36.54,商,1060407,土地1建物2車位0,一層,12.0,辦公商業大樓,商業用,鋼筋混凝土造,750704.0,205.65,0,0,0,無,有,無,58000,282.0,,0.0,0,,RPUPMLQKNHMFFBA58CC,25.0299971,121.4960312
大同區,建物,臺北市大同區市民大道一段181~210號,0.0,其他,1060426,土地0建物1車位0,七層,18.0,套房(1房1廳1衛),住家用,見其他登記事項,980724.0,76.05,1,1,1,有,有,有,50000,657.0,,0.0,0,,RPSQMLQKNHMFFBA48CC,25.048493,121.5187377
大安區,建物,臺北市大安區忠孝東路四段301~330號,0.0,商,1060401,土地0建物1車位0,七層,14.0,住宅大樓(11層含以上有電梯),見其他登記事項,見其他登記事項,990324.0,70.9,0,1,1,有,有,有,38000,536.0,,0.0,0,,RPSNMLQKNHMFFFA68DC,25.041621,121.555208
信義區,建物,臺北市信義區松德路151~180號,0.0,商,1060424,土地0建物1車位0,三層,30.0,住宅大樓(11層含以上有電梯),商業用,鋼骨混凝土造,820524.0,161.91,2,1,1,有,有,有,65000,401.0,,0.0,0,,RPQOMLQKNHMFFDA38DC,25.036644,121.574876
中正區,建物,臺北市中正區泉州街20巷1~30號,0.0,住,1060502,土地0建物1車位0,四層,7.0,套房(1房1廳1衛),住家用,鋼筋混凝土造,961129.0,57.52,1,1,1,有,有,無,18000,313.0,,0.0,0,,RPTNMLQKNHMFFAA18CC,25.0267874,121.5137988
中正區,建物,臺北市中正區寧波東街9巷1~30號,0.0,住,1060501,土地0建物1車位0,四層,7.0,套房(1房1廳1衛),住家用,鋼筋混凝土造,781127.0,41.1,1,1,1,有,有,無,18000,438.0,,0.0,0,,RPVNMLQKNHMFFAA38CC,25.032753,121.5200025
文山區,建物,臺北市文山區景華街31~60號,0.0,住,1060511,土地0建物1車位0,一層,4.0,公寓(5樓含以下無電梯),住家用,加強磚造,561130.0,95.1,0,1,1,有,無,無,25000,263.0,,0.0,0,,RPWNMLQKNHMFFAA48CC,24.9950932,121.542456
文山區,建物,臺北市文山區景興路61~90號,0.0,住,1060515,土地0建物2車位0,一層,4.0,公寓(5樓含以下無電梯),住家用,鋼筋混凝土造,,97.64,0,0,0,無,無,無,35000,358.0,,0.0,0,有兩個門牌併租,RPQOMLQKNHMFFAA97CC,24.9964859,121.5448597
文山區,建物,臺北市文山區萬壽路17巷1~30號,0.0,住,1060501,土地0建物1車位1,六層,10.0,華廈(10層含以下有電梯),住家用,鋼筋混凝土造,1020325.0,146.23,3,2,2,有,有,無,31000,212.0,坡道平面,30.32,0,,RPROMLQKNHMFFAA08CC,24.9878522,121.5757327
中正區,建物,臺北市中正區和平西路二段121~150號,0.0,住,1060501,土地0建物1車位0,一層,11.0,店面(店鋪),商業用,鋼筋混凝土造,860820.0,59.76,0,0,0,無,有,無,30000,502.0,,0.0,0,,RPSOMLQKNHMFFAA18CC,25.032846,121.5063033
中正區,建物,臺北市中正區寧波東街9巷1~30號,0.0,住,1060505,土地0建物1車位0,二層,4.0,公寓(5樓含以下無電梯),住家用,鋼筋混凝土造,600120.0,131.02,4,2,2,有,無,無,31000,237.0,,0.0,0,,RPQNMLRKNHMFFAA97CC,25.032753,121.5200025
文山區,建物,臺北市文山區和興路44巷1~30號,0.0,,1060509,土地0建物1車位0,六層,8.0,華廈(10層含以下有電梯),住家用,鋼筋混凝土造,890315.0,170.47,4,2,2,有,有,有,32000,188.0,,0.0,0,,RPVNMLRKNHMFFAA58DC,24.9843249,121.547057
萬華區,建物,臺北市萬華區康定路91~120號,0.0,商,1060420,土地0建物1車位0,十九層,26.0,套房(1房1廳1衛),住家用,見其他登記事項,1050331.0,50.24,1,1,1,有,有,有,24000,478.0,,0.0,0,,RPRNMLRKNHMFFBA18CC,25.0397957,121.5020696
萬華區,建物,臺北市萬華區康定路91~120號,0.0,商,1060420,土地0建物1車位0,二十層,26.0,套房(1房1廳1衛),住家用,見其他登記事項,1050331.0,56.19,1,1,1,有,有,有,22000,392.0,,0.0,0,租金含管理費。,RPSNMLRKNHMFFBA28CC,25.0397957,121.5020696
大同區,建物,臺北市大同區迪化街二段180巷1~30號,0.0,住,1060503,土地0建物1車位0,二層,4.0,公寓(5樓含以下無電梯),住家用,鋼筋混凝土造,651106.0,68.47,2,1,1,有,無,無,18000,263.0,,0.0,0,,RPVNMLRKNHMFFBA58CC,25.0674453,121.5102178
萬華區,建物,臺北市萬華區國興路91~120號,0.0,商,1060417,土地0建物1車位0,一層,10.0,店面(店鋪),商業用,鋼筋混凝土造,800102.0,122.29,0,0,0,無,有,無,48000,393.0,,0.0,0,租屋包含稅金,RPUOMLRKNHMFFBA58CC,25.0271562,121.5054879
大安區,建物,臺北市大安區信義路二段86巷1~30號,0.0,住,1060506,土地0建物1車位0,四層,5.0,公寓(5樓含以下無電梯),住家用,鋼筋混凝土造,690208.0,91.52,3,2,2,有,無,無,25000,273.0,,0.0,0,,RPPNMLRKNHMFFFA38CC,25.0338207,121.5246232
大安區,建物,臺北市大安區泰順街60巷18弄1~30號,0.0,住,1060429,土地0建物1車位0,二層,7.0,華廈(10層含以下有電梯),住家用,鋼筋混凝土造,1010309.0,91.71,2,1,1,有,有,有,58000,632.0,,0.0,0,,RPQNMLRKNHMFFFA48CC,25.022174,121.5299204
大安區,建物,臺北市大安區泰順街40巷1~30號,0.0,住,1060504,土地0建物1車位0,一層,4.0,公寓(5樓含以下無電梯),住家用,加強磚造,,95.52,0,1,1,有,無,無,55000,576.0,,0.0,0,,RPSNMLRKNHMFFFA68CC,25.02436,121.531209
大安區,建物,臺北市大安區復興南路一段219巷1~30號,0.0,住,1060430,土地0建物1車位0,一層,6.0,華廈(10層含以下有電梯),住家用,鋼筋混凝土造,,49.84,0,0,0,無,無,無,90000,1806.0,,0.0,0,,RPUNMLRKNHMFFFA88CC,25.0391486,121.5441208
大安區,房地(土地+建物),臺北市大安區大安路一段1~30號,8.66,住,1060509,土地1建物1車位0,六層,7.0,華廈(10層含以下有電梯),住家用,鋼筋混凝土造,680925.0,44.94,1,0,1,有,有,無,18000,401.0,,0.0,0,,RPVNMLRKNHMFFFA98CC,25.0396433,121.5462231
大安區,建物,臺北市大安區仁愛路四段27巷4弄1~30號,0.0,住,1060428,土地0建物1車位0,三層,6.0,華廈(10層含以下有電梯),住家用,鋼筋混凝土造,,128.65,3,2,2,有,有,有,45000,350.0,,0.0,0,,RPXNMLRKNHMFFFA56CC,25.0387485,121.5449098
大安區,建物,臺北市大安區復興南路二段181~210號,0.0,商,1060418,土地0建物1車位0,三層,12.0,住宅大樓(11層含以上有電梯),見使用執照,鋼筋混凝土造,820407.0,158.95,2,1,1,有,有,無,48000,302.0,,0.0,0,,RPTOMLRKNHMFFFA88CC,25.0268381,121.5436995
士林區,建物,臺北市士林區中山北路六段439巷1~30號,0.0,,1060506,土地0建物1車位0,三層,4.0,公寓(5樓含以下無電梯),住家用,鋼筋混凝土造,680706.0,88.56,3,2,1,有,無,無,24000,271.0,,0.0,0,,RPVNMLRKNHMFFEA88CC,25.1146783,121.5270459
士林區,建物,臺北市士林區士東路266巷15弄1~30號,0.0,住,1060420,土地0建物1車位1,十一層,15.0,住宅大樓(11層含以上有電梯),住家用,鋼筋混凝土造,971229.0,338.21,5,2,3,有,有,無,150000,444.0,坡道平面,0.0,0,,RPXNMLRKNHMFFEA09CC,25.111539,121.5369864
士林區,建物,臺北市士林區芝玉路一段197巷1~30號,0.0,住,1060420,土地0建物1車位1,八層,14.0,住宅大樓(11層含以上有電梯),住家用,鋼筋混凝土造,1000720.0,293.14,3,2,2,有,有,有,110000,375.0,坡道平面,0.0,0,,RPPOMLRKNHMFFEA38CC,25.1075269,121.5334271
士林區,建物,臺北市士林區中山北路七段190巷121~150號,0.0,農,1060511,土地0建物1車位1,全,3.0,透天厝,住家用,鋼筋混凝土造,630823.0,382.37,5,4,6,有,無,無,200000,523.0,坡道平面,0.0,0,,RPROMLRKNHMFFEA58CC,25.1293793,121.5382845
士林區,建物,臺北市士林區中山北路六段405巷61~90號,0.0,住,1060501,土地0建物1車位0,七層,7.0,華廈(10層含以下有電梯),住家用,鋼筋混凝土造,730620.0,134.57,3,2,2,有,無,有,90000,669.0,,0.0,0,,RPUOMLRKNHMFFEA88CC,25.1159097,121.5264852
士林區,建物,臺北市士林區通河街76巷2弄1~30號,0.0,住,1060517,土地0建物1車位0,一層,4.0,公寓(5樓含以下無電梯),住家用,鋼筋混凝土造,620516.0,98.02,2,2,1,有,無,無,23000,235.0,,0.0,0,,RPVOMLRKNHMFFEA98CC,25.0924665,121.5077236
內湖區,建物,臺北市內湖區新湖二路151~180號,0.0,工,1060401,土地0建物1車位0,三層,6.0,廠辦,住家用,鋼筋混凝土造,960501.0,323.54,0,0,1,有,有,有,60000,185.0,,0.0,0,,RPSOMLRKNHMFFCA48CC,25.0616772,121.5777644
中山區,建物,臺北市中山區雙城街18巷1~30號,0.0,商,1060421,土地0建物1車位0,一層,7.0,店面(店鋪),商業用,鋼筋混凝土造,720107.0,240.07,1,1,1,有,無,有,60000,250.0,,0.0,0,,RPVOMLRKNHMFFCA78CC,25.0654896,121.5240762
中山區,建物,臺北市內湖區瑞光路358巷30弄1~30號,0.0,其他,1060426,土地0建物1車位0,六層,8.0,辦公商業大樓,工業用,鋼筋混凝土造,900524.0,392.44,4,1,0,有,有,有,118710,302.0,坡道平面,0.0,0,,RPVQMLRKNHMFFCA98CC,25.0766785,121.5724825
內湖區,建物,臺北市內湖區江南街61~90號,0.0,住,1060509,土地0建物1車位0,一層,5.0,店面(店鋪),住商用,鋼筋混凝土造,770204.0,107.46,0,0,0,無,無,無,65000,605.0,,0.0,0,,RPUNMLSKNHMFFCA68CC,25.0774342,121.5777634
內湖區,建物,臺北市內湖區瑞光路61~90號,0.0,工,1060508,土地0建物1車位6,五層,7.0,廠辦,見其他登記事項,鋼筋混凝土造,950725.0,1466.18,8,0,0,有,有,無,478558,326.0,坡道平面,0.0,0,,RPVNMLSKNHMFFCA78CC,25.0702283,121.5830445
中山區,建物,臺北市中山區吉林路241~270號,0.0,商,1060504,土地0建物0車位0,二層,3.0,套房(1房1廳1衛),,加強磚造,,20.22,1,0,1,有,無,有,9500,470.0,,0.0,0,"本建號有四個房間分A,B,C,D房,本戶D戶成交,總面積81.89平方公尺,D戶承租約20.22平方公尺",RPWNMLSKNHMFFCA88CC,25.0611653,121.5304091
內湖區,建物,臺北市內湖區環山路一段31~60號,0.0,住,1060510,土地0建物1車位0,二層,4.0,公寓(5樓含以下無電梯),住家用,鋼筋混凝土造,681221.0,94.7,3,2,1,有,無,有,23000,243.0,,0.0,0,,RPXNMLSKNHMFFCA98CC,25.0863968,121.5655469
內湖區,建物,臺北市內湖區陽光街92巷24弄1~30號,0.0,住,1060515,土地0建物1車位0,一層,5.0,公寓(5樓含以下無電梯),住家用,鋼筋混凝土造,711224.0,70.9,2,2,1,有,無,無,27000,381.0,,0.0,0,,RPPOMLSKNHMFFCA28CC,25.0761141,121.5853429
中山區,建物,臺北市中山區新生北路二段31~60號,0.0,商,1060429,土地0建物3車位0,一層,19.0,辦公商業大樓,見其他登記事項,鋼骨鋼筋混凝土造,1050322.0,419.94,0,0,0,無,無,有,95000,226.0,,0.0,0,,RPTOMLSKNHMFFCA68CC,25.0542013,121.5278274
內湖區,房地(土地+建物)+車位,臺北市內湖區內湖路一段411巷90弄1~30號,8.65,住,1060517,土地1建物1車位1,九層,9.0,華廈(10層含以下有電梯),住家用,鋼筋混凝土造,981204.0,43.09,1,1,1,有,有,有,20000,464.0,升降機械,20.52,0,,RPUOMLSKNHMFFCA78CC,25.0864375,121.5573647
士林區,房地(土地+建物)+車位,臺北市士林區士東路46巷31~60號,30.96,住,1060423,土地1建物1車位1,五層,9.0,華廈(10層含以下有電梯),住家用,鋼筋混凝土造,910731.0,129.16,2,2,2,有,有,有,43000,333.0,塔式車位,0.0,0,租金含管理費。,RPPPMLSKNHMFFEA58CC,25.1107312,121.5280088
松山區,建物,臺北市松山區敦化北路199巷16弄1~30號,0.0,住,1060515,土地0建物1車位0,四層,7.0,華廈(10層含以下有電梯),住家用,鋼筋混凝土造,750714.0,141.87,3,2,2,有,有,有,43500,307.0,,0.0,0,,RPRNMLSKNHMFFDA48CC,25.0563999,121.551294
信義區,建物,臺北市信義區莊敬路361~390號,0.0,商,1060427,土地0建物1車位0,三層,4.0,公寓(5樓含以下無電梯),,鋼筋混凝土造,,88.52,2,2,1,有,無,有,34000,384.0,,0.0,0,,RPVNMLSKNHMFFDA88CC,25.02785,121.5647812
松山區,建物,臺北市松山區敦化北路4巷1~30號,0.0,住,1060510,土地0建物0車位0,一層,7.0,華廈(10層含以下有電梯),住家用,鋼筋混凝土造,741228.0,27.24,0,1,1,有,無,無,16000,587.0,,0.0,0,,RPPOMLSKNHMFFDA38CC,25.0500593,121.5473649
松山區,建物,臺北市松山區八德路四段631~660號,0.0,商,1060506,土地0建物1車位0,四層,13.0,套房(1房1廳1衛),住家用,鋼筋混凝土造,1021216.0,64.22,0,0,0,無,有,有,30000,467.0,,0.0,0,,RPSOMLSKNHMFFDA68CC,25.0501957,121.5750038
信義區,建物,臺北市信義區永吉路31~60號,0.0,商,1060509,土地0建物1車位0,十三層,14.0,住宅大樓(11層含以上有電梯),住家用,鋼筋混凝土造,960524.0,96.01,2,2,2,有,有,有,34000,354.0,,0.0,0,,RPVOMLSKNHMFFDA98CC,25.045894,121.568593
大安區,建物,臺北市大安區和平東路三段91~120號,0.0,商,1060428,土地0建物1車位0,十一層,12.0,住宅大樓(11層含以上有電梯),見其他登記事項,鋼筋混凝土造,930409.0,70.29,3,2,3,有,有,有,30000,427.0,,0.0,0,,RPUNMLSKNHMFFFA98CC,25.0246565,121.5506502
大安區,建物,臺北市大安區信義路二段148巷1~30號,0.0,住,1060501,土地0建物1車位0,四層,5.0,華廈(10層含以下有電梯),住家用,鋼筋混凝土造,811203.0,72.59,2,1,1,有,有,有,34000,468.0,,0.0,0,,RPVNMLSKNHMFFFA09CC,25.033172,121.528668
大安區,建物,臺北市大安區安和路二段91~120號,0.0,其他,1060502,土地0建物1車位0,四層,12.0,住宅大樓(11層含以上有電梯),住家用,鋼筋混凝土造,770109.0,170.38,2,2,2,有,有,有,58000,340.0,,0.0,0,,RPWNMLSKNHMFFFA56CC,25.0299057,121.5519876
大安區,建物,臺北市大安區四維路176巷1~30號,0.0,住,1060509,土地0建物1車位0,一層,6.0,華廈(10層含以下有電梯),住家用,鋼筋混凝土造,670315.0,168.94,0,0,2,有,有,無,65000,385.0,,0.0,0,,RPOOMLSKNHMFFFA48CC,25.0279992,121.5471448
大安區,建物,臺北市大安區臺北市大安區大安路二段61~90號,0.0,住,1060508,土地0建物1車位0,二層,12.0,住宅大樓(11層含以上有電梯),住家用,鋼筋混凝土造,981113.0,44.43,0,1,1,有,有,有,28000,630.0,,0.0,0,,RPPOMLSKNHMFFFA58CC,25.0312748,121.546056
大安區,建物,臺北市大安區敦化南路一段233巷61~90號,0.0,住,1060504,土地0建物1車位0,五層,7.0,華廈(10層含以下有電梯),住家用,鋼筋混凝土造,720222.0,115.27,3,2,2,有,有,有,58000,503.0,,0.0,0,,RPQOMLSKNHMFFFA68CC,25.0404817,121.5524291
大同區,建物,臺北市大同區承德路三段211~240號,0.0,商,1060505,土地0建物1車位0,三層,12.0,住宅大樓(11層含以上有電梯),住家用,鋼筋混凝土造,1020419.0,77.58,1,1,1,有,有,有,40000,516.0,,0.0,0,,RPTNMLSKNHMFFBA48CC,25.0700316,121.5186793
大同區,建物,臺北市大同區承德路三段28巷3弄1~30號,0.0,住,1060405,土地0建物1車位0,一層,3.0,公寓(5樓含以下無電梯),,加強磚造,,67.02,0,0,0,無,無,無,27000,403.0,,0.0,0,,RPTOMLSKNHMFFBA58CC,25.0645152,121.5178334
萬華區,建物,臺北市萬華區康定路91~120號,0.0,商,1060516,土地0建物1車位0,十一層,26.0,住宅大樓(11層含以上有電梯),住家用,見其他登記事項,1050331.0,108.73,2,1,1,有,有,有,33000,304.0,,0.0,0,,RPUOMLSKNHMFFBA68CC,25.0397957,121.5020696
中正區,建物,臺北市中正區中華路二段451~480號,0.0,住,1060515,土地0建物1車位0,一層,7.0,華廈(10層含以下有電梯),商業用,鋼筋混凝土造,770615.0,66.24,2,2,1,有,無,無,28000,423.0,,0.0,0,,RPOOMLSKNHMFFAA08DC,25.0249373,121.5096109
文山區,房地(土地+建物),臺北市文山區指南路一段31~60號,22.53,商,1060514,土地2建物1車位0,十層,19.0,住宅大樓(11層含以上有電梯),商業用,鋼筋混凝土造,881104.0,144.39,4,2,2,有,有,有,30000,208.0,,0.0,0,租金實拿。租賃期間自民國106年7月1日起至107年6月30日止共計1年。,RPUOMLSKNHMFFAA68DC,24.9877709,121.569779
文山區,建物,臺北市文山區景中街31~60號,0.0,住,1060515,土地0建物1車位0,四層,7.0,華廈(10層含以下有電梯),住家用,鋼筋混凝土造,751030.0,139.13,3,2,2,有,無,有,28000,201.0,,0.0,0,"管理費1,500元/月",RPVOMLSKNHMFFAA68CC,24.9927846,121.5433642
中正區,建物,臺北市中正區同安街1~30號,0.0,住,1060428,土地0建物1車位0,二層,7.0,華廈(10層含以下有電梯),住家用,鋼筋混凝土造,1001110.0,67.48,2,2,2,有,無,有,40000,593.0,,0.0,0,,RPWOMLSKNHMFFAA78CC,25.0262855,121.5226648
中正區,建物,臺北市中正區羅斯福路二段8巷1~30號,0.0,商,1060517,土地0建物1車位0,二層,9.0,華廈(10層含以下有電梯),住家用,鋼筋混凝土造,1041014.0,62.82,2,1,1,有,無,有,42000,669.0,,0.0,0,,RPOPMLSKNHMFFAA08CC,25.0288264,121.5207492
中正區,房地(土地+建物),臺北市中正區羅斯福路三段244巷9弄1~30號,44.75,住,1060510,土地1建物1車位0,三層,4.0,公寓(5樓含以下無電梯),住家用,加強磚造,580802.0,116.55,3,2,2,有,無,無,28000,240.0,,0.0,0,,RPTNMLTKNHMFFAA48CC,25.017127,121.530495
松山區,建物,臺北市松山區復興北路427巷1~30號,0.0,住,1060420,土地0建物1車位0,三層,11.0,套房(1房1廳1衛),住家用,鋼筋混凝土造,971013.0,47.31,1,0,1,有,有,有,20500,433.0,,0.0,0,含稅。管理費另計。,RPSOMLTKNHMFFDA88DC,25.0634505,121.5446756
信義區,建物,臺北市信義區忠孝東路五段391~420號,0.0,商,1060425,土地0建物1車位1,十層,18.0,辦公商業大樓,見使用執照,鋼筋混凝土造,860121.0,79.91,0,0,0,無,無,無,37000,463.0,坡道機械,0.0,0,,RPWOMLTKNHMFFDA66DC,25.0409273,121.5753577
大安區,建物,臺北市大安區忠孝東路四段61~90號,0.0,商,1060426,土地0建物1車位0,八層,12.0,住宅大樓(11層含以上有電梯),住家用,鋼筋混凝土造,,46.94,2,2,1,有,無,有,33000,703.0,,0.0,0,,RPROMLTKNHMFFFA98DC,25.0418045,121.5459871
士林區,建物,臺北市士林區忠誠路一段171巷12弄1~30號,53.25,住,1060418,土地0建物1車位0,五層,12.0,住宅大樓(11層含以上有電梯),住家用,鋼筋混凝土造,981231.0,192.91,4,2,2,有,無,有,77000,399.0,,0.0,0,,RPVNMLTKNHMFFEA56DC,25.1063602,121.5311623
士林區,建物,臺北市士林區至誠路一段121~150號,0.0,住,1060505,土地0建物1車位0,全,2.0,透天厝,住家用,加強磚造,580124.0,148.96,4,2,2,有,無,有,73000,490.0,,0.0,0,,RPXNMLTKNHMFFEA76DC,25.1014196,121.5349675
大同區,建物,臺北市大同區萬全街1~30號,0.0,商,1060505,土地0建物1車位0,六層,15.0,住宅大樓(11層含以上有電梯),住家用,鋼筋混凝土造,1041016.0,84.48,1,1,1,有,有,有,59200,701.0,,0.0,0,,RPRNMLTKNHMFFBA38CC,25.0588024,121.5203655
大同區,建物,臺北市大同區承德路三段177巷1~30號,0.0,商,1060429,土地0建物1車位0,一層,4.0,公寓(5樓含以下無電梯),商業用,鋼筋混凝土造,610226.0,96.46,0,0,0,無,無,無,42000,435.0,,0.0,0,供辦公室使用,RPSNMLTKNHMFFBA48CC,25.0691667,121.5189126
中正區,建物,臺北市中正區林森北路9巷1~30號,0.0,商,1060516,土地0建物1車位0,五層,6.0,華廈(10層含以下有電梯),住家用,鋼筋混凝土造,650816.0,211.17,4,3,2,有,無,有,55000,260.0,,0.0,0,,RPUNMLTKNHMFFBA68CC,25.0463358,121.5241773
萬華區,房地(土地+建物)+車位,臺北市萬華區康定路91~120號,4.72,商,1060426,土地1建物1車位1,十四層,26.0,住宅大樓(11層含以上有電梯),住家用,見其他登記事項,1050331.0,103.71,2,1,1,有,有,有,32000,309.0,坡道平面,33.7,0,租金含管理費。,RPQOMLTKNHMFFBA38CC,25.0397957,121.5020696
萬華區,房地(土地+建物),臺北市萬華區康定路91~120號,3.31,商,1060426,土地1建物1車位0,二十一層,26.0,套房(1房1廳1衛),住家用,見其他登記事項,1050331.0,49.36,1,1,1,有,有,有,22000,446.0,,0.0,0,,RPROMLTKNHMFFBA48CC,25.0397957,121.5020696
中正區,建物,臺北市中正區忠孝東路一段61~90號,0.0,住,1060516,土地0建物1車位0,三層,14.0,住宅大樓(11層含以上有電梯),住家用,鋼筋混凝土造,900913.0,128.5,3,2,2,有,有,無,32000,249.0,,0.0,0,,RPQPMLTKNHMFFBA48CC,25.0443399,121.5262168
大安區,建物,臺北市大安區大安路一段52巷1~30號,0.0,住,1060506,土地0建物1車位0,四層,7.0,華廈(10層含以下有電梯),住家用,鋼筋混凝土造,,136.26,2,2,2,有,無,無,55000,404.0,,0.0,0,,RPUNMLTKNHMFFFA09CC,25.0432771,121.5460286
大安區,建物,臺北市大安區忠孝東路四段170巷6弄1~30號,0.0,住,1060511,土地0建物1車位0,五層,7.0,華廈(10層含以下有電梯),住家用,鋼筋混凝土造,,123.44,4,2,2,有,無,有,49000,397.0,,0.0,0,,RPWNMLTKNHMFFFA66CC,25.04093,121.5506521
大安區,建物,臺北市大安區大安路二段61~90號,0.0,住,1060515,土地0建物1車位0,八層,12.0,套房(1房1廳1衛),住家用,鋼筋混凝土造,981113.0,42.87,0,1,1,有,有,有,27000,630.0,,0.0,0,,RPXNMLTKNHMFFFA76CC,25.0308581,121.5463416
大安區,建物,臺北市大安區和平東路三段308巷31~60號,0.0,住,1050512,土地0建物1車位0,五層,5.0,公寓(5樓含以下無電梯),住家用,鋼筋混凝土造,,114.05,2,1,2,有,無,有,30000,263.0,,0.0,0,,RPOOMLTKNHMFFFA58CC,25.0195575,121.5555032
大安區,建物,臺北市大安區復興南路二段78巷30弄1~30號,0.0,住,1060426,土地0建物1車位0,七層,16.0,住宅大樓(11層含以上有電梯),住家用,鋼筋混凝土造,761105.0,132.87,3,2,2,有,有,有,39000,294.0,,0.0,0,,RPSOMLTKNHMFFFA98CC,25.0306398,121.541996
大安區,建物,臺北市大安區斯福路三段301~330號,0.0,商,1060504,土地0建物1車位0,十八層,19.0,住宅大樓(11層含以上有電梯),住家用,鋼筋混凝土造,1020103.0,309.73,4,2,3,有,無,有,103000,333.0,,0.0,0,,RPVOMLTKNHMFFFA66CC,25.0175439,121.5319041
大安區,建物,臺北市大安區樂利路5巷7弄1~30號,0.0,住,1060503,土地0建物1車位0,五層,5.0,公寓(5樓含以下無電梯),住家用,鋼筋混凝土造,730622.0,133.96,3,2,2,有,無,有,27000,202.0,,0.0,0,,RPXOMLTKNHMFFFA86CC,25.0288387,121.5512506
信義區,建物,臺北市信義區莊敬路391~420號,0.0,商,1060515,土地0建物1車位0,一層,7.0,華廈(10層含以下有電梯),商業用,鋼筋混凝土造,720908.0,73.72,0,0,0,無,無,有,53000,719.0,,0.0,0,,RPTNMLTKNHMFFDA78CC,25.0274656,121.5655254
信義區,建物,臺北市信義區松德路31~60號,0.0,住,1060512,土地0建物1車位0,一層,12.0,住宅大樓(11層含以上有電梯),住商用,鋼筋混凝土造,800123.0,119.39,0,0,0,無,無,無,63000,528.0,,0.0,0,該次承租1、2樓、地下室,RPWNMLTKNHMFFDA09CC,25.0388989,121.577059
信義區,建物,臺北市信義區基隆路一段101巷1~30號,0.0,商,1060517,土地0建物1車位0,七層,12.0,住宅大樓(11層含以上有電梯),住家用,鋼筋混凝土造,961106.0,132.75,3,1,2,有,有,有,65000,490.0,,0.0,0,,RPXNMLTKNHMFFDA56CC,25.045329,121.5674665
南港區,建物,臺北市南港區園區街1~30號,0.0,住,1060518,土地0建物1車位1,十四層,15.0,住宅大樓(11層含以上有電梯),住家用,鋼筋混凝土造,1000412.0,168.77,3,2,2,有,有,無,39000,231.0,坡道平面,42.92,0,,RPUOMLTKNHMFFDA98CC,25.0589059,121.6120912
松山區,建物,臺北市松山區復興南路一段31~60號,14.48,商,1060510,土地0建物1車位0,二層,12.0,辦公商業大樓,商業用,鋼筋混凝土造,701203.0,111.18,1,1,1,有,有,無,38000,342.0,,0.0,0,,RPPPMLTKNHMFFDA58CC,25.0464059,121.5441487
松山區,建物,臺北市松山區南京東路四段1~30號,0.0,商,1060518,土地0建物1車位0,七層,15.0,套房(1房1廳1衛),住家用,鋼筋混凝土造,971205.0,55.88,1,1,1,有,有,有,35000,626.0,,0.0,0,,RPQPMLTKNHMFFDA68CC,25.0519742,121.5495307
松山區,建物,臺北市松山區南京東路四段181~210號,0.0,商,1060507,土地0建物1車位0,十一層,14.0,住宅大樓(11層含以上有電梯),住家用,鋼筋混凝土造,730217.0,102.28,3,2,2,有,有,有,35000,342.0,,0.0,0,,RPRPMLTKNHMFFDA78CC,25.0517846,121.5565688
松山區,建物,臺北市松山區敦化南路一段1~30號,0.0,商,1060418,土地0建物1車位0,一層,11.0,辦公商業大樓,住家用,鋼筋混凝土造,,808.28,0,0,0,無,無,有,200000,247.0,,0.0,0,,RPSPMLTKNHMFFDA88CC,25.047677,121.549351
士林區,房地(土地+建物),臺北市士林區社正路61~90號,76.7,住,1060423,土地1建物1車位0,二層,7.0,華廈(10層含以下有電梯),商業用,鋼筋混凝土造,790109.0,160.5,3,2,2,有,無,無,31000,193.0,,0.0,0,,RPQNMLTKNHMFFEA58CC,25.0890147,121.5101902
士林區,建物,臺北市士林區天母東路43巷4弄1~30號,0.0,商,1060502,土地0建物1車位0,一層,6.0,華廈(10層含以下有電梯),住家用,鋼筋混凝土造,850605.0,176.98,3,2,2,有,無,有,55000,311.0,,0.0,0,,RPOOMLTKNHMFFEA48CC,25.118741,121.53248
北投區,建物,臺北市北投區文林北路301~330號,0.0,住,1060419,土地0建物1車位0,四層,23.0,住宅大樓(11層含以上有電梯),住家用,鋼骨鋼筋混凝土造,1040213.0,192.69,3,2,2,有,有,有,65000,337.0,,0.0,0,,RPROMLTKNHMFFEA78CC,25.1099136,121.512221
士林區,建物,臺北市士林區中山北路六段157巷1~30號,0.0,工,1060420,土地0建物1車位0,八層,15.0,住宅大樓(11層含以上有電梯),見其他登記事項,鋼筋混凝土造,971002.0,89.54,2,1,1,有,有,有,50000,558.0,,0.0,0,,RPSOMLTKNHMFFEA88CC,25.1067274,121.5247651
士林區,建物,臺北市士林區中山北路六段157巷1~30號,0.0,工,1060501,土地0建物1車位0,八層,15.0,住宅大樓(11層含以上有電梯),見其他登記事項,鋼筋混凝土造,971002.0,117.03,3,2,1,有,有,有,55000,470.0,,0.0,0,租金含管理費。,RPUOMLTKNHMFFEA09CC,25.1067274,121.5247651
中山區,建物,臺北市中山區長安東路一段31~60號,0.0,商,1060510,土地0建物1車位0,二層,4.0,公寓(5樓含以下無電梯),,加強磚造,,79.54,3,2,2,有,無,有,27000,339.0,,0.0,0,,RPQNMLTKNHMFFCA38CC,25.0493739,121.5239959
內湖區,建物,臺北市內湖區民權東路六段296巷61~90號,40.23,住,1060515,土地0建物1車位0,一層,5.0,公寓(5樓含以下無電梯),住家用,鋼筋混凝土造,770712.0,112.66,0,0,0,無,無,無,48000,426.0,,0.0,0,,RPTNMLTKNHMFFCA68CC,25.0711851,121.607505
中山區,建物,臺北市中山區明水路631~660號,0.0,商,1060515,土地0建物1車位0,六層,9.0,華廈(10層含以下有電梯),商業用,鋼筋混凝土造,960503.0,89.29,2,2,1,有,有,有,36000,403.0,,0.0,0,,RPVNMLTKNHMFFCA88CC,25.0826159,121.5511139
內湖區,建物,臺北市內湖區康寧路三段181~210號,0.0,商,1060517,土地0建物1車位0,三層,9.0,華廈(10層含以下有電梯),住家用,鋼筋混凝土造,1041030.0,66.51,2,1,1,有,有,有,38000,571.0,,0.0,0,,RPQOMLTKNHMFFCA48CC,25.070141,121.612009
內湖區,建物,臺北市內湖區民權東路六段296巷61~90號,40.23,住,1060515,土地0建物1車位0,一層,5.0,公寓(5樓含以下無電梯),住家用,鋼筋混凝土造,770712.0,114.24,0,0,0,無,無,無,48000,420.0,,0.0,0,此租賃為設立補習班,RPTOMLTKNHMFFCA78CC,25.0711851,121.607505
中山區,建物,臺北市中山區南京東路二段181~210號,0.0,商,1060509,土地0建物1車位0,十一層,15.0,住宅大樓(11層含以上有電梯),住家用,鋼筋混凝土造,990528.0,136.03,3,2,2,有,有,有,63000,463.0,,0.0,0,,RPOPMLTKNHMFFCA38CC,25.0519418,121.5351411
內湖區,建物,臺北市內湖區金湖路363巷67弄1~30號,0.0,住,1060518,土地0建物1車位1,二層,5.0,華廈(10層含以下有電梯),住家用,鋼筋混凝土造,1000826.0,197.01,2,2,2,有,有,有,56000,284.0,坡道平面,0.0,0,,RPRPMLTKNHMFFCA68CC,25.073253,121.600238
中山區,建物,臺北市中山區林森北路271~300號,0.0,商,1060419,土地0建物1車位0,十三層,13.0,住宅大樓(11層含以上有電梯),住家用,鋼筋混凝土造,1000726.0,70.93,1,1,1,有,有,有,52000,733.0,,0.0,0,,RPPQMLTKNHMFFCA58CC,25.0551668,121.5256069
內湖區,建物,臺北市內湖區民權東路六段248巷1~30號,0.0,,1060517,土地0建物1車位0,三層,5.0,華廈(10層含以下有電梯),見其他登記事項,鋼筋混凝土造,1040310.0,52.89,3,2,2,有,無,有,20000,378.0,,0.0,0,,RPTQMLTKNHMFFCA98CC,25.0674955,121.6014315
中山區,建物,臺北市中山區中山北路二段77巷1~30號,0.0,商,1060419,土地0建物1車位0,九層,12.0,住宅大樓(11層含以上有電梯),住家用,鋼筋混凝土造,981027.0,60.68,2,1,1,有,有,有,49000,808.0,,0.0,0,,RPVQMLTKNHMFFCA56CC,25.0576603,121.5230347
內湖區,車位,臺北市內湖區瑞光路181~210號,0.0,工,1060518,土地0建物0車位1,,12.0,其他,停車空間,鋼筋混凝土造,900402.0,40.0,0,0,0,有,有,無,3700,,坡道平面,0.0,0,,RPPNMLKLNHMFFCA47CC,25.0734006,121.5797827
內湖區,建物,臺北市內湖區江南街96巷1~30號,0.0,住,1060519,土地0建物1車位0,四層,16.0,住宅大樓(11層含以上有電梯),住家用,鋼筋混凝土造,851113.0,104.95,2,1,1,有,有,無,24000,229.0,,0.0,0,,RPQNMLKLNHMFFCA57CC,25.07728,121.577069
內湖區,車位,臺北市內湖區港墘路127巷27至31~60號,0.0,住,1060519,土地0建物0車位1,,0.0,其他,停車空間,鋼筋混凝土造,851113.0,41.45,0,0,0,有,有,無,4000,,坡道平面,0.0,0,,RPSNMLKLNHMFFCA77CC,25.077747,121.5768365
大安區,建物,臺北市大安區大安路一段83巷1~30號,0.0,其他,1060502,土地0建物0車位0,七層,7.0,華廈(10層含以下有電梯),,鋼筋混凝土造,,53.0,2,1,1,有,有,有,27000,509.0,,0.0,0,,RPPNMLKLNHMFFFA77CC,25.0407239,121.545759
北投區,建物,臺北市北投區三合街一段82巷91~120號,0.0,住,1060420,土地0建物1車位0,九層,9.0,住宅大樓(11層含以上有電梯),住家用,鋼筋混凝土造,1040708.0,167.83,3,2,2,有,有,有,38000,226.0,坡道平面,39.08,0,,RPPNMLLLNHMFFEA77CC,25.1269474,121.505345
北投區,建物,臺北市北投區石牌路二段357巷1~30號,0.0,住,1060420,土地0建物1車位1,四層,12.0,住宅大樓(11層含以上有電梯),住家用,鋼筋混凝土造,850624.0,195.46,3,2,2,有,有,有,70000,358.0,坡道平面,0.0,0,,RPRNMLMLNHMFFEA08CC,25.123661,121.524866
南港區,建物,臺北市南港區重陽路541~570號,0.0,住,1060511,土地0建物1車位1,一層,7.0,店面(店鋪),住家用,鋼筋混凝土造,961227.0,93.6,1,1,1,有,有,有,20000,214.0,坡道平面,22.44,0,,RPXOMLMLNHMFFDA68CC,25.0628267,121.6138694
信義區,房地(土地+建物),臺北市信義區松仁路121~150號,20.0,住,1060508,土地1建物1車位0,四層,12.0,住宅大樓(11層含以上有電梯),住家用,鋼筋混凝土造,810602.0,174.95,3,2,2,有,有,有,55000,314.0,,0.0,0,,RPRPMLMLNHMFFDA18CC,25.0346545,121.5684156
信義區,建物,臺北市信義區松勇路53巷1~30號,0.0,住,1060516,土地0建物1車位1,六層,8.0,華廈(10層含以下有電梯),住家用,鋼筋混凝土造,870121.0,182.09,3,2,2,有,無,有,50000,275.0,坡道平面,0.0,0,,RPTPMLMLNHMFFDA38CC,25.039164,121.5698055
松山區,建物,臺北市松山區復興北路1~30號,0.0,商,1060515,土地0建物1車位0,六層,16.0,辦公商業大樓,商業用,鋼筋混凝土造,710707.0,302.47,0,0,0,無,有,無,115000,380.0,,0.0,0,,RPOQMLMLNHMFFDA97CC,25.0479767,121.5444731
信義區,建物,臺北市信義區信義路四段451~480號,0.0,商,1060517,土地0建物1車位0,九層,27.0,辦公商業大樓,商業用,見使用執照,861230.0,300.64,0,0,0,無,有,無,200068,665.0,,0.0,0,,RPPQMLMLNHMFFDA08CC,25.0329849,121.5582168
中山區,建物,臺北市中山區中山北路二段77巷1~30號,0.0,商,1060425,土地0建物1車位0,十二層,14.0,住宅大樓(11層含以上有電梯),商業用,鋼筋混凝土造,901112.0,46.0,2,1,1,有,有,有,30000,652.0,,0.0,0,,RPRNMLMLNHMFFCA87CC,25.0576603,121.5230347
中山區,建物,臺北市中山區林森北路571~600號,0.0,商,1060515,土地0建物1車位0,九層,18.0,住宅大樓(11層含以上有電梯),住家用,鋼筋混凝土造,1000726.0,184.44,3,2,2,有,有,有,80000,434.0,,0.0,0,租金內含管理費。,RPSNMLMLNHMFFCA97CC,25.0649087,121.5256777
內湖區,房地(土地+建物),臺北市內湖區內湖路二段1~30號,44.5,住,1060502,土地1建物1車位0,四層,4.0,公寓(5樓含以下無電梯),住家用,鋼筋混凝土造,,115.58,3,2,1,有,無,無,15000,130.0,,0.0,0,,RPVNMLMLNHMFFCA28CC,25.082843,121.590824
中山區,建物,臺北市中山區新生北路二段68巷1~30號,0.0,商,1060517,土地0建物1車位0,八層,13.0,住宅大樓(11層含以上有電梯),住家用,鋼筋混凝土造,971229.0,71.64,2,2,1,有,有,有,40000,558.0,,0.0,0,租金內含管理費。,RPWNMLMLNHMFFCA38CC,25.056545,121.5260897
中山區,建物,臺北市中山區農安街271巷1~30號,0.0,住,1060509,土地0建物1車位0,九層,9.0,華廈(10層含以下有電梯),住家用,鋼筋混凝土造,831125.0,147.15,4,2,2,有,有,無,29329,199.0,,0.0,0,,RPXNMLMLNHMFFCA48CC,25.065211,121.5293055
中山區,建物,臺北市中山區長春路151~180號,0.0,商,1060428,土地0建物1車位0,十層,12.0,辦公商業大樓,商業用,鋼筋混凝土造,721013.0,147.75,2,2,1,有,無,有,65000,440.0,,0.0,0,,RPTOMLMLNHMFFCA18CC,25.0548153,121.5331665
中山區,建物,臺北市中山區吉林路241~270號,0.0,商,1060427,土地0建物1車位0,三層,7.0,華廈(10層含以下有電梯),住家用,鋼筋混凝土造,1030616.0,83.48,2,2,1,有,無,有,50000,599.0,,0.0,0,起租日為106年05月02日開始計算。,RPQPMLMLNHMFFCA97CC,25.0611653,121.5304091
內湖區,房地(土地+建物)+車位,臺北市內湖區瑞光路151~180號,55.4,工,1060515,土地1建物1車位1,一層,9.0,廠辦,工業用,鋼筋混凝土造,910619.0,279.31,0,0,0,無,有,無,90000,322.0,坡道平面,29.68,0,,RPXQMLMLNHMFFCA78CC,25.0731353,121.5798336
中山區,建物,臺北市中山區民權東路三段1~30號,0.0,商,1060425,土地0建物1車位1,十五層,20.0,辦公商業大樓,商業用,鋼筋混凝土造,800325.0,804.33,0,0,0,無,有,無,403803,514.0,坡道平面,28.83,5000,,RPRRMLMLNHMFFCA28CC,25.063371,121.538864
中山區,建物,臺北市中山區松江路91~120號,0.0,商,1060518,土地0建物1車位0,五層,12.0,辦公商業大樓,商業用,鋼筋混凝土造,750324.0,269.94,0,1,0,有,有,有,100000,370.0,,0.0,0,,RPWRMLMLNHMFFCA78CC,25.0496362,121.533209
大安區,建物,臺北市大安區忠孝東路四段91~120號,0.0,商,1060519,土地0建物1車位0,一層,15.0,店面(店鋪),商業用,鋼筋混凝土造,770121.0,75.59,0,0,0,無,有,無,315000,4167.0,,0.0,0,,RPTNMLMLNHMFFFA38CC,25.041778,121.547781
大安區,建物,臺北市大安區忠孝東路四段241~270號,0.0,商,1060428,土地0建物1車位0,十四層,18.0,辦公商業大樓,商業用,見使用執照,751231.0,294.19,0,0,0,無,有,無,169081,575.0,,0.0,0,,RPQOMLMLNHMFFFA18CC,25.0416575,121.5537996
萬華區,建物,臺北市萬華區青年路178巷1~30號,11.45,住,1060414,土地0建物1車位0,一層,5.0,公寓(5樓含以下無電梯),商業用,鋼筋混凝土造,640523.0,46.23,1,1,1,有,無,無,13000,281.0,,0.0,0,,RPRNMLMLNHMFFBA77CC,25.0207218,121.5027627
大同區,建物,臺北市大同區市民大道一段181~210號,0.0,其他,1060426,土地0建物1車位0,六層,18.0,住宅大樓(11層含以上有電梯),住家用,見其他登記事項,980724.0,116.11,2,1,1,有,有,有,74000,637.0,,0.0,0,,RPUOMLMLNHMFFBA18CC,25.048493,121.5187377
中正區,建物,臺北市中正區連雲街6巷1~30號,0.0,住,1060517,土地0建物1車位0,三層,8.0,華廈(10層含以下有電梯),住家用,鋼筋混凝土造,930917.0,59.62,3,2,2,有,無,有,36500,612.0,,0.0,0,,RPVOMLMLNHMFFBA28CC,25.0377651,121.531116
大同區,建物,臺北市大同區萬全街1~30號,0.0,商,1060429,土地0建物1車位0,十三層,15.0,住宅大樓(11層含以上有電梯),住家用,鋼筋混凝土造,1041016.0,131.02,3,2,2,有,有,有,94500,721.0,,0.0,0,,RPWOMLMLNHMFFBA38CC,25.0588024,121.5203655
北投區,建物,臺北市北投區知行路241~270號,0.0,住,1060512,土地0建物1車位1,九層,10.0,華廈(10層含以下有電梯),住家用,鋼筋混凝土造,1000722.0,85.74,2,1,1,有,有,有,19000,222.0,升降機械,18.0,0,租金實拿,RPTNMLMLNHMFFEA38DC,25.120562,121.467014
士林區,建物,臺北市士林區忠誠路二段61~90號,0.0,住,1060421,土地0建物1車位0,十一層,14.0,住宅大樓(11層含以上有電梯),住家用,鋼筋混凝土造,741205.0,145.04,3,2,2,有,有,有,74000,510.0,,0.0,0,租金總額含地下室使用權車位一個,RPUNMLMLNHMFFEA48DC,25.1119957,121.530989
北投區,建物,臺北市北投區裕民二路61~90號,0.0,商,1060510,土地0建物1車位1,二層,19.0,住宅大樓(11層含以上有電梯),見其他登記事項,鋼筋混凝土造,1021108.0,97.53,2,1,1,有,有,有,58682,915.0,坡道平面,39.61,5682,,RPVNMLMLNHMFFEA58DC,25.1143813,121.5164072
中正區,建物,臺北市中正區重慶南路三段31~60號,0.0,,1060505,土地0建物1車位0,一層,12.0,店面(店鋪),住家用,鋼筋混凝土造,,127.32,0,0,0,無,無,無,60000,471.0,,0.0,0,,RPRNMLNLNHMFFAA77CC,25.0283741,121.5159219
中正區,建物,臺北市中正區和平西路一段61~90號,0.0,商,1060510,土地0建物1車位0,三層,12.0,辦公商業大樓,商業用,鋼筋混凝土造,760114.0,124.36,0,0,0,無,有,有,43138,347.0,,0.0,0,,RPSNMLNLNHMFFAA87CC,25.0269487,121.5193842
中正區,建物,臺北市中正區和平西路一段55巷1~30號,0.0,住,1060505,土地0建物1車位0,三層,7.0,華廈(10層含以下有電梯),住家用,鋼筋混凝土造,990903.0,125.13,2,2,1,有,有,有,70000,559.0,,0.0,0,,RPSOMLNLNHMFFAA97CC,25.0269987,121.5199051
大同區,建物,臺北市大同區華陰街61~90號,0.0,商,1060429,土地0建物1車位0,十三層,13.0,住宅大樓(11層含以上有電梯),住家用,鋼筋混凝土造,1020118.0,141.04,3,1,2,有,有,有,75000,532.0,,0.0,0,,RPOOMLNLNHMFFBA67CC,25.0496416,121.5185369
中正區,建物,臺北市中正區臨沂街29巷1~30號,0.0,住,1060504,土地0建物1車位0,六層,7.0,華廈(10層含以下有電梯),住家用,鋼筋混凝土造,1011122.0,123.32,2,1,1,有,有,有,58500,474.0,,0.0,0,,RPQOMLNLNHMFFBA87CC,25.0402287,121.530047
大同區,建物,臺北市大同區赤峰街31~60號,0.0,住,1060429,土地0建物1車位0,十二層,13.0,住宅大樓(11層含以上有電梯),住家用,鋼筋混凝土造,1020829.0,206.07,3,1,2,有,有,有,94500,459.0,,0.0,0,,RPROMLNLNHMFFBA97CC,25.0541979,121.5194
中正區,建物,臺北市中正區中華路一段1~30號,0.0,商,1060415,土地0建物1車位0,十四層,15.0,住宅大樓(11層含以上有電梯),住家用,鋼筋混凝土造,1041214.0,59.59,1,1,1,有,無,有,35000,587.0,,0.0,0,起租日為106年4月29日,RPUOMLNLNHMFFBA28CC,25.0475499,121.5106925
中正區,建物,臺北市中正區忠孝西路一段31~60號,0.0,商,1060522,土地0建物1車位0,十四層,27.0,辦公商業大樓,商業用,鋼骨混凝土造,790815.0,107.92,3,1,2,有,有,有,48000,445.0,,0.0,0,,RPVOMLNLNHMFFBA38CC,25.0460552,121.5187502
大安區,建物,臺北市大安區信義路四段271~300號,0.0,商,1060515,土地0建物1車位0,七層,15.0,辦公商業大樓,商業用,鋼筋混凝土造,741107.0,166.0,0,0,0,無,有,無,85000,512.0,,0.0,0,"1)租金含5%營業稅2)本案為部分租賃,面積以房東提供為主",RPSNMLNLNHMFFFA38CC,25.033347,121.5545137
大安區,建物,臺北市大安區復興南路一段219巷1~30號,0.0,住,1060519,土地0建物1車位0,二層,7.0,華廈(10層含以下有電梯),住家用,鋼筋混凝土造,,215.46,4,2,3,有,有,無,80000,371.0,,0.0,0,,RPUNMLNLNHMFFFA58CC,25.0391486,121.5441208
中山區,建物,臺北市中山區南京東路三段61~90號,0.0,商,1060512,土地0建物1車位3,九層,16.0,辦公商業大樓,商業用,鋼筋混凝土造,811012.0,742.06,0,0,0,無,有,無,416429,561.0,坡道平面,0.0,0,租金含5%營業稅,RPUNMLNLNHMFFCA28CC,25.0522989,121.538101
中山區,建物,臺北市中山區中山北路二段65巷1~30號,0.0,商,1060511,土地0建物1車位1,十四層,14.0,住宅大樓(11層含以上有電梯),商業用,鋼筋混凝土造,901112.0,103.04,2,2,1,有,有,有,45500,442.0,坡道機械,0.0,0,,RPPOMLNLNHMFFCA87CC,25.0571759,121.52326
中山區,建物,臺北市中山區松江路361~390號,0.0,商,1060516,土地0建物1車位3,四層,9.0,辦公商業大樓,商業用,鋼筋混凝土造,850607.0,539.22,0,0,0,無,有,無,172000,319.0,升降平面,0.0,0,租金含10%租賃所得稅及1.91%補充保費,RPROMLNLNHMFFCA08CC,25.0636359,121.533545
中山區,建物,臺北市中山區林森北路361~390號,0.0,商,1060424,土地0建物1車位0,九層,18.0,住宅大樓(11層含以上有電梯),商業用,鋼筋混凝土造,980916.0,66.62,1,1,1,有,有,有,53000,796.0,,0.0,0,,RPWOMLNLNHMFFCA58CC,25.0572804,121.5257191
中山區,建物,臺北市中山區林森北路571~600號,0.0,商,1060519,土地0建物1車位0,十三層,13.0,住宅大樓(11層含以上有電梯),住家用,鋼筋混凝土造,1000726.0,89.94,1,1,1,有,有,有,60000,667.0,,0.0,0,,RPPPMLNLNHMFFCA97CC,25.0649087,121.5256777
中山區,建物,臺北市中山區北安路554巷1~30號,0.0,住,1060509,土地0建物1車位1,十一層,13.0,住宅大樓(11層含以上有電梯),住家用,鋼筋混凝土造,821221.0,118.3,3,2,2,有,有,有,48000,406.0,坡道機械,0.0,0,,RPRPMLNLNHMFFCA18CC,25.0804056,121.5483199
中山區,建物,臺北市中山區松江路164巷1~30號,0.0,住,1060513,土地0建物1車位0,四層,7.0,華廈(10層含以下有電梯),住家用,鋼筋混凝土造,611015.0,152.76,3,2,2,有,有,有,50000,327.0,,0.0,0,,RPSPMLNLNHMFFCA28CC,25.0456563,121.5329859
內湖區,建物,臺北市內湖區康寧路一段64巷1~30號,0.0,住,1060521,土地0建物1車位0,一層,3.0,公寓(5樓含以下無電梯),住家用,加強磚造,570401.0,61.64,3,2,1,有,無,無,20000,324.0,,0.0,0,,RPOQMLNLNHMFFCA97CC,25.078256,121.595349
中山區,建物,臺北市中山區龍江路1~30號,0.0,商,1060513,土地0建物1車位0,十二層,12.0,住宅大樓(11層含以上有電梯),住家用,鋼筋混凝土造,941208.0,86.23,1,1,1,有,有,有,28000,325.0,,0.0,0,,RPPQMLNLNHMFFCA08CC,25.0470691,121.540523
中山區,建物,臺北市中山區龍江路1~30號,0.0,商,1060513,土地0建物1車位0,十二層,12.0,住宅大樓(11層含以上有電梯),住家用,鋼筋混凝土造,941208.0,89.51,2,1,1,有,有,有,28500,318.0,,0.0,0,,RPQQMLNLNHMFFCA18CC,25.0470691,121.540523
中山區,建物,臺北市中山區新生北路二段68巷1~30號,0.0,商,1060522,土地0建物1車位0,十三層,13.0,住宅大樓(11層含以上有電梯),住家用,鋼筋混凝土造,971229.0,82.49,1,2,1,有,有,有,36000,436.0,,0.0,0,,RPTQMLNLNHMFFCA48CC,25.056545,121.5260897
中山區,建物,臺北市中山區雙城街25巷1~30號,0.0,商,1060428,土地0建物1車位0,九層,13.0,住宅大樓(11層含以上有電梯),住家用,鋼筋混凝土造,1041221.0,131.81,2,1,2,有,有,有,80000,607.0,,0.0,0,租賃期間:2年又2天,RPXQMLNLNHMFFCA88CC,25.066379,121.524449
中山區,建物,臺北市中山區八德路二段331~360號,0.0,商,1060516,土地0建物1車位0,見其他登記事項,2.0,店面(店鋪),,加強磚造,,150.68,0,0,0,無,無,無,108675,721.0,,0.0,0,,RPRRMLNLNHMFFCA38CC,25.0475222,121.5432525
中山區,建物,臺北市中山區長春路151~180號,0.0,商,1060503,土地0建物1車位0,五層,12.0,辦公商業大樓,商業用,鋼筋混凝土造,721013.0,101.71,2,1,2,有,有,有,40300,396.0,,0.0,0,,RPOSMLNLNHMFFCA18CC,25.0548153,121.5331665
中山區,建物,臺北市中山區南京東路二段211~240號,0.0,商,1060522,土地0建物0車位0,八層,12.0,辦公商業大樓,商業用,鋼筋混凝土造,680614.0,165.29,3,1,2,有,有,有,63000,381.0,,0.0,0,,RPRSMLNLNHMFFCA48CC,25.0519319,121.5355213
松山區,建物,臺北市松山區八德路三段74巷14弄1~30號,0.0,,1060427,土地0建物1車位0,一層,3.0,店面(店鋪),,加強磚造,,53.11,0,0,0,無,無,無,37000,697.0,,0.0,0,,RPTNMLNLNHMFFDA28CC,25.04759,121.552397
信義區,建物,臺北市信義區忠孝東路五段211~240號,0.0,,1060417,土地0建物1車位0,十層,14.0,住宅大樓(11層含以上有電梯),住家用,鋼筋混凝土造,940930.0,61.5,1,1,1,有,無,有,35000,569.0,,0.0,0,,RPVNMLNLNHMFFDA48CC,25.041068,121.5699245
信義區,建物,臺北市信義區忠孝東路五段391~420號,0.0,,1060418,土地0建物1車位0,二層,18.0,辦公商業大樓,見使用執照,鋼筋混凝土造,860121.0,79.95,0,0,0,無,無,無,34056,426.0,,0.0,0,,RPWNMLNLNHMFFDA58CC,25.0409273,121.5753577
松山區,建物,臺北市松山區南京東路四段179巷3弄1~30號,0.0,住,1060522,土地0建物1車位0,一層,4.0,店面(店鋪),住家用,加強磚造,,106.86,0,0,1,有,無,有,47000,440.0,,0.0,0,,RPXOMLNLNHMFFDA78CC,25.0522911,121.5509794
松山區,房地(土地+建物),臺北市松山區敦化南路一段100巷31~60號,50.25,住,1060521,土地1建物1車位0,三層,4.0,公寓(5樓含以下無電梯),住家用,鋼筋混凝土造,,121.15,4,2,2,有,無,有,35000,289.0,,0.0,0,,RPOPMLNLNHMFFDA97CC,25.0461952,121.5474004
信義區,建物,臺北市信義區基隆路二段151~180號,0.0,住,1060426,土地0建物1車位0,十二層,12.0,住宅大樓(11層含以上有電梯),住家用,鋼筋混凝土造,701117.0,105.19,2,1,2,有,有,有,65000,618.0,,0.0,0,,RPQPMLNLNHMFFDA18CC,25.0260187,121.5546122
信義區,建物,臺北市信義區基隆路二段91~120號,0.0,商,1060501,土地0建物2車位0,一層,4.0,公寓(5樓含以下無電梯),見使用執照,鋼筋混凝土造,,257.54,0,0,0,無,無,無,140000,544.0,,0.0,0,本租案是承租1+2樓,RPTPMLNLNHMFFDA48CC,25.0299575,121.5579021
南港區,建物,臺北市南港區研究院路二段61巷1~30號,0.0,其他,1060521,土地0建物1車位1,十七層,18.0,住宅大樓(11層含以上有電梯),住家用,鋼筋混凝土造,1021230.0,252.15,3,2,2,有,有,有,40500,161.0,坡道平面,51.94,0,,RPWPMLNLNHMFFDA78CC,25.0440034,121.6164942
信義區,建物,臺北市信義區忠孝東路五段345巷1~30號,0.0,住,1060428,土地0建物1車位0,五層,9.0,華廈(10層含以下有電梯),住家用,鋼筋混凝土造,961115.0,109.24,2,1,1,有,有,有,62436,572.0,,0.0,0,,RPXPMLNLNHMFFDA88CC,25.04251,121.578983
松山區,建物,臺北市松山區民生東路三段121~150號,0.0,其他,1060510,土地0建物0車位0,七層,14.0,辦公商業大樓,商業用,鋼筋混凝土造,751008.0,152.06,1,1,2,有,有,有,91770,604.0,,0.0,0,,RPPQMLNLNHMFFDA18CC,25.0580549,121.546978
松山區,建物,臺北市松山區南京東路五段211~240號,0.0,商,1060522,土地0建物1車位0,九層,15.0,辦公商業大樓,商業用,鋼筋混凝土造,810613.0,116.92,2,1,2,有,有,有,48000,411.0,,0.0,0,,RPQQMLNLNHMFFDA28CC,25.05189,121.5578
北投區,建物,臺北市北投區榮華三路31~60號,0.0,住,1060510,土地0建物1車位0,一層,4.0,公寓(5樓含以下無電梯),住家用,鋼筋混凝土造,620131.0,81.16,2,2,2,有,無,有,32000,394.0,,0.0,0,,RPWOMLNLNHMFFEA78CC,25.1138909,121.5208202
士林區,建物,臺北市士林區忠誠路二段31~60號,0.0,住,1060515,土地0建物1車位1,十三層,17.0,住宅大樓(11層含以上有電梯),住家用,鋼筋混凝土造,761116.0,206.78,4,2,3,有,有,有,75000,363.0,坡道平面,0.0,5000,,RPTPMLNLNHMFFEA58CC,25.1106405,121.5307089
士林區,建物,臺北市士林區中山北路七段81巷1~30號,15.66,住,1060520,土地0建物1車位0,二層,7.0,華廈(10層含以下有電梯),住家用,鋼筋混凝土造,680828.0,106.89,3,2,2,有,無,無,28000,262.0,,0.0,0,,RPUPMLNLNHMFFEA68CC,25.1216193,121.5310804
士林區,建物,臺北市士林區中山北路七段190巷91~120號,0.0,住,1060518,土地0建物1車位1,全,4.0,透天厝,見使用執照,鋼筋混凝土造,901113.0,501.46,4,3,5,有,有,有,118500,236.0,坡道平面,0.0,0,,RPPQMLNLNHMFFEA28CC,25.12567,121.5362035
士林區,建物,臺北市士林區中山北路七段121~150號,0.0,,1060501,土地0建物1車位0,一層,7.0,店面(店鋪),住家用,鋼筋混凝土造,740107.0,76.53,1,1,1,有,有,無,24000,314.0,,0.0,0,,RPROMLOLNHMFFEA38CC,25.122529,121.5317095
士林區,建物,臺北市士林區承德路四段331~360號,0.0,,1060426,土地0建物1車位0,一層,12.0,住宅大樓(11層含以上有電梯),見使用執照,鋼筋混凝土造,770420.0,162.2,2,2,1,有,有,無,42000,259.0,,0.0,0,,RPSOMLOLNHMFFEA48CC,25.0905548,121.5174973
士林區,建物,臺北市士林區天母東路69巷1~30號,0.0,住,1060523,土地0建物1車位0,二層,7.0,華廈(10層含以下有電梯),住家用,鋼筋混凝土造,750806.0,130.99,3,2,2,有,有,有,56000,428.0,,0.0,0,,RPVOMLOLNHMFFEA78CC,25.1185309,121.5343698
松山區,房地(土地+建物),臺北市松山區三民路43巷1~30號,28.52,住,1060425,土地1建物1車位0,一層,14.0,住宅大樓(11層含以上有電梯),見其他登記事項,鋼筋混凝土造,930507.0,130.57,0,0,0,無,有,無,70000,536.0,,0.0,0,,RPQNMLOLNHMFFDA08CC,25.056157,121.5627378
松山區,建物,臺北市松山區復興北路301~330號,0.0,住,1060516,土地0建物1車位0,一層,1.0,店面(店鋪),商業用,鋼造,671220.0,321.17,0,0,0,無,無,無,440000,1370.0,,0.0,0,,RPRNMLOLNHMFFDA18CC,25.058181,121.544566
松山區,房地(土地+建物),臺北市松山區三民路43巷1~30號,31.21,住,1060425,土地1建物1車位0,一層,14.0,住宅大樓(11層含以上有電梯),見其他登記事項,鋼筋混凝土造,930507.0,142.86,0,0,0,無,有,有,80000,560.0,,0.0,0,,RPSNMLOLNHMFFDA28CC,25.056157,121.5627378
信義區,房地(土地+建物),臺北市信義區松德路25巷1~30號,9.62,住,1060428,土地2建物1車位0,一層,14.0,住宅大樓(11層含以上有電梯),商業用,鋼筋混凝土造,740620.0,84.05,0,0,0,無,有,無,32000,381.0,,0.0,0,,RPXNMLOLNHMFFDA78CC,25.038967,121.577482
信義區,建物,臺北市信義區吳興街118巷16弄1~30號,0.0,住,1060508,土地0建物1車位0,一層,7.0,華廈(10層含以下有電梯),見使用執照,鋼筋混凝土造,730314.0,133.61,2,2,2,有,無,無,45000,337.0,,0.0,0,,RPSOMLOLNHMFFDA38CC,25.0297996,121.5606531
松山區,建物,臺北市松山區慶城街61~90號,0.0,住,1060515,土地0建物1車位1,十四層,17.0,住宅大樓(11層含以上有電梯),住家用,鋼筋混凝土造,761230.0,238.34,4,2,2,有,有,有,79000,331.0,坡道平面,0.0,0,,RPTOMLOLNHMFFDA48CC,25.0561418,121.5472765
松山區,建物,臺北市松山區八德路二段391~420號,0.0,商,1060520,土地0建物1車位0,九層,13.0,住宅大樓(11層含以上有電梯),見其他登記事項,鋼筋混凝土造,950823.0,71.48,2,1,2,有,有,有,48000,672.0,,0.0,0,,RPUOMLOLNHMFFDA58CC,25.0483677,121.5462852
中山區,建物,臺北市中山區新生北路二段68巷1~30號,0.0,商,1060425,土地0建物1車位0,七層,13.0,住宅大樓(11層含以上有電梯),住家用,鋼筋混凝土造,971229.0,74.42,2,1,1,有,有,有,50000,672.0,,0.0,0,"租金額外有6,000元雜費包含管理費、水費、電費、瓦斯費、網路費、第四台費、打掃服務費。",RPPOMLOLNHMFFCA97CC,25.056545,121.5260897
內湖區,建物,臺北市內湖區民權東路六段121~150號,0.0,住,1060509,土地0建物1車位1,四層,5.0,公寓(5樓含以下無電梯),住家用,鋼筋混凝土造,730130.0,94.93,3,2,2,有,有,有,47000,495.0,坡道平面,0.0,0,,RPTOMLOLNHMFFCA38CC,25.0691137,121.5927226
中山區,建物,臺北市中山區建國北路二段31~60號,0.0,商,1060515,土地0建物1車位0,十一層,15.0,辦公商業大樓,商業用,鋼筋混凝土造,771205.0,162.1,0,0,0,無,有,有,66000,407.0,,0.0,0,,RPWOMLOLNHMFFCA68CC,25.0547495,121.5370927
中山區,建物,臺北市中山區北安路501巷43弄1~30號,0.0,住,1060515,土地0建物1車位0,二層,4.0,公寓(5樓含以下無電梯),住家用,鋼筋混凝土造,660906.0,116.08,3,2,2,有,無,有,28000,241.0,,0.0,0,,RPPPMLOLNHMFFCA08CC,25.086103,121.545232
中山區,建物,臺北市中山區中山北路二段65巷1~30號,0.0,商,1060508,土地0建物1車位0,九層,14.0,住宅大樓(11層含以上有電梯),商業用,鋼筋混凝土造,901112.0,66.69,2,2,1,有,有,有,31000,465.0,,0.0,0,租金含管理費。,RPSPMLOLNHMFFCA38CC,25.0571759,121.52326
